{"results":[{"zip":"meetup1","country":"ae","localized_country_name":"U.A.E.","distance":8609.679856035948,"city":"Dubai","lon":55.33000183105469,"ranking":0,"id":1000008,"member_count":7861,"lat":25.270000457763672},{"zip":"meetup2","country":"ae","localized_country_name":"U.A.E.","distance":8676.876214902712,"city":"Abu Dhabi","lon":54.369998931884766,"ranking":1,"id":1000009,"member_count":857,"lat":24.479999542236328},{"zip":"meetup3","country":"ae","localized_country_name":"U.A.E.","distance":8603.463639259551,"city":"ash-Shariqah","lon":55.40999984741211,"ranking":2,"id":1000010,"member_count":270,"lat":25.3700008392334},{"zip":"meetup5","country":"ae","localized_country_name":"U.A.E.","distance":8601.437393315522,"city":"Ajman","lon":55.43000030517578,"ranking":3,"id":1000012,"member_count":258,"lat":25.420000076293945},{"zip":"meetup4","country":"ae","localized_country_name":"U.A.E.","distance":8606.190896843846,"city":"al-Â´Ayn","lon":55.7400016784668,"ranking":4,"id":1000011,"member_count":68,"lat":24.229999542236328},{"zip":"meetup8","country":"ae","localized_country_name":"U.A.E.","distance":8591.19973234509,"city":"Umm al-Qaywayn","lon":55.560001373291016,"ranking":5,"id":1000015,"member_count":49,"lat":25.59000015258789},{"zip":"meetup6","country":"ae","localized_country_name":"U.A.E.","distance":8566.971183328595,"city":"Ra's al-Khaymah","lon":55.939998626708984,"ranking":6,"id":1000013,"member_count":28,"lat":25.790000915527344},{"zip":"meetup7","country":"ae","localized_country_name":"U.A.E.","distance":8557.546553617796,"city":"al-Fujayrah","lon":56.34000015258789,"ranking":7,"id":1000014,"member_count":22,"lat":25.1299991607666},{"zip":"meetup9","country":"ae","localized_country_name":"U.A.E.","distance":8552.681207379435,"city":"Khawr Fakkan","lon":56.36000061035156,"ranking":8,"id":1000016,"member_count":6,"lat":25.34000015258789},{"zip":"meetup10","country":"ae","localized_country_name":"U.A.E.","distance":8598.995130607793,"city":"Sharjah","lon":55.5099983215332,"ranking":9,"id":1111017,"member_count":0,"lat":25.31999969482422}],"meta":{"next":"","method":"Cities","total_count":10,"link":"http:\/\/api.meetup.com\/2\/cities","count":10,"description":"Returns Meetup cities. This method supports search by latitude\/longitude\/radius, by country\/state, by query term\/zip, or a combination of all of these. Location-only searches by lat and lon return all cities within a radius of the provided coordinates. Searches with a query return up to 10 cities matching the term, and can be sorted by size or distance to a given coordinate. 'smart' ordering can be used to return the match(es) with the highest member_count, unless a smaller size match exists nearby the given coordinates. Query searches are supported for country but not country and state","lon":"None","title":"Cities","url":"http:\/\/api.meetup.com\/2\/cities?country=ae&offset=0&sign=True&format=json&photo-host=public&page=200&radius=50&order=size&desc=false","id":"","updated":1470078039000,"lat":"None"}}
