{"results":[{"zip":"meetup1","country":"ao","localized_country_name":"Angola","distance":11198.189412311262,"city":"Luanda","lon":13.239999771118164,"ranking":0,"id":1000259,"member_count":44,"lat":-8.819999694824219},{"zip":"meetup4","country":"ao","localized_country_name":"Angola","distance":11011.136287053714,"city":"Benguela","lon":13.399999618530273,"ranking":1,"id":1000262,"member_count":11,"lat":-12.579999923706055},{"zip":"meetup6","country":"ao","localized_country_name":"Angola","distance":10785.523562232707,"city":"Bié","lon":16.940000534057617,"ranking":2,"id":1000264,"member_count":2,"lat":-12.380000114440918},{"zip":"meetup11","country":"ao","localized_country_name":"Angola","distance":11388.53927124222,"city":"Cabinda","lon":12.1899995803833,"ranking":3,"id":1000269,"member_count":2,"lat":-5.550000190734863},{"zip":"meetup17","country":"ao","localized_country_name":"Angola","distance":11179.775344050024,"city":"Caxito","lon":13.65999984741211,"ranking":4,"id":1000275,"member_count":2,"lat":-8.579999923706055},{"zip":"meetup20","country":"ao","localized_country_name":"Angola","distance":10851.71510921989,"city":"Caála","lon":15.579999923706055,"ranking":5,"id":1000278,"member_count":2,"lat":-12.850000381469727},{"zip":"meetup2","country":"ao","localized_country_name":"Angola","distance":10846.46147462596,"city":"Huambo","lon":15.729999542236328,"ranking":6,"id":1000260,"member_count":1,"lat":-12.760000228881836},{"zip":"meetup5","country":"ao","localized_country_name":"Angola","distance":10947.515667192638,"city":"Namibe","lon":12.15999984741211,"ranking":7,"id":1000263,"member_count":1,"lat":-15.170000076293945},{"zip":"meetup7","country":"ao","localized_country_name":"Angola","distance":10875.141367767088,"city":"Lubango","lon":13.489999771118164,"ranking":8,"id":1000265,"member_count":1,"lat":-14.90999984741211},{"zip":"meetup10","country":"ao","localized_country_name":"Angola","distance":11123.772014483908,"city":"Uíge","lon":15.050000190734863,"ranking":9,"id":1000268,"member_count":1,"lat":-7.619999885559082},{"zip":"meetup13","country":"ao","localized_country_name":"Angola","distance":10710.13860611605,"city":"Lucapa","lon":20.739999771118164,"ranking":10,"id":1000271,"member_count":1,"lat":-8.420000076293945},{"zip":"meetup15","country":"ao","localized_country_name":"Angola","distance":10959.508820681567,"city":"Waku-Kungo","lon":15.109999656677246,"ranking":11,"id":1000273,"member_count":1,"lat":-11.34000015258789},{"zip":"meetup16","country":"ao","localized_country_name":"Angola","distance":11050.077870953015,"city":"Sumbe","lon":13.850000381469727,"ranking":12,"id":1000274,"member_count":1,"lat":-11.210000038146973},{"zip":"meetup21","country":"ao","localized_country_name":"Angola","distance":11065.793339639082,"city":"N'dalatando","lon":14.90999984741211,"ranking":13,"id":1000279,"member_count":1,"lat":-9.300000190734863},{"zip":"meetup23","country":"ao","localized_country_name":"Angola","distance":10871.042069549414,"city":"Longonjo","lon":15.25,"ranking":14,"id":1000281,"member_count":1,"lat":-12.899999618530273},{"zip":"meetup24","country":"ao","localized_country_name":"Angola","distance":10774.52976654475,"city":"Catabola","lon":17.280000686645508,"ranking":15,"id":1000282,"member_count":1,"lat":-12.149999618530273},{"zip":"meetup28","country":"ao","localized_country_name":"Angola","distance":10768.381810168954,"city":"Camacupa","lon":17.469999313354492,"ranking":16,"id":1000286,"member_count":1,"lat":-12.020000457763672},{"zip":"meetup34","country":"ao","localized_country_name":"Angola","distance":10570.502629157705,"city":"Lumeje","lon":20.780000686645508,"ranking":17,"id":1000292,"member_count":1,"lat":-11.550000190734863},{"zip":"meetup36","country":"ao","localized_country_name":"Angola","distance":10838.706442416511,"city":"Caconda","lon":15.0600004196167,"ranking":18,"id":1000294,"member_count":1,"lat":-13.729999542236328},{"zip":"meetup3","country":"ao","localized_country_name":"Angola","distance":11013.924941334177,"city":"Lobito","lon":13.529999732971191,"ranking":19,"id":1000261,"member_count":0,"lat":-12.359999656677246},{"zip":"meetup8","country":"ao","localized_country_name":"Angola","distance":10959.487748063759,"city":"Malanje","lon":16.34000015258789,"ranking":20,"id":1000266,"member_count":0,"lat":-9.539999961853027},{"zip":"meetup9","country":"ao","localized_country_name":"Angola","distance":11226.593193063974,"city":"M'banza-Kongo","lon":14.239999771118164,"ranking":21,"id":1000267,"member_count":0,"lat":-6.269999980926514},{"zip":"meetup12","country":"ao","localized_country_name":"Angola","distance":10683.701699254629,"city":"Saurimo","lon":20.3799991607666,"ranking":22,"id":1000270,"member_count":0,"lat":-9.649999618530273},{"zip":"meetup14","country":"ao","localized_country_name":"Angola","distance":10770.186246104018,"city":"Chissamba","lon":17.329999923706055,"ranking":23,"id":1000272,"member_count":0,"lat":-12.170000076293945},{"zip":"meetup18","country":"ao","localized_country_name":"Angola","distance":11357.48060949458,"city":"Soyo","lon":12.369999885559082,"ranking":24,"id":1000276,"member_count":0,"lat":-6.130000114440918},{"zip":"meetup19","country":"ao","localized_country_name":"Angola","distance":10615.164093036108,"city":"Menongue","lon":17.649999618530273,"ranking":25,"id":1000277,"member_count":0,"lat":-14.649999618530273},{"zip":"meetup22","country":"ao","localized_country_name":"Angola","distance":10861.158640699998,"city":"Caluquembe","lon":14.680000305175781,"ranking":26,"id":1000280,"member_count":0,"lat":-13.779999732971191},{"zip":"meetup25","country":"ao","localized_country_name":"Angola","distance":11008.962232934591,"city":"Catumbela","lon":13.550000190734863,"ranking":27,"id":1000283,"member_count":0,"lat":-12.430000305175781},{"zip":"meetup26","country":"ao","localized_country_name":"Angola","distance":10617.604290337646,"city":"Luena","lon":19.899999618530273,"ranking":28,"id":1000284,"member_count":0,"lat":-11.789999961853027},{"zip":"meetup27","country":"ao","localized_country_name":"Angola","distance":10514.049550992166,"city":"Luau","lon":22.219999313354492,"ranking":29,"id":1000285,"member_count":0,"lat":-10.699999809265137},{"zip":"meetup29","country":"ao","localized_country_name":"Angola","distance":10824.245539649424,"city":"Catchiungo","lon":16.219999313354492,"ranking":30,"id":1000287,"member_count":0,"lat":-12.5600004196167},{"zip":"meetup30","country":"ao","localized_country_name":"Angola","distance":10588.375522346803,"city":"Leúa","lon":20.440000534057617,"ranking":31,"id":1000288,"member_count":0,"lat":-11.649999618530273},{"zip":"meetup31","country":"ao","localized_country_name":"Angola","distance":11285.841078107956,"city":"N'zeto","lon":12.859999656677246,"ranking":32,"id":1000289,"member_count":0,"lat":-7.230000019073486},{"zip":"meetup32","country":"ao","localized_country_name":"Angola","distance":11080.297188296494,"city":"Camabatela","lon":15.369999885559082,"ranking":33,"id":1000290,"member_count":0,"lat":-8.1899995803833},{"zip":"meetup33","country":"ao","localized_country_name":"Angola","distance":10597.948421455638,"city":"Cazaje","lon":20.709999084472656,"ranking":34,"id":1000291,"member_count":0,"lat":-11.069999694824219},{"zip":"meetup35","country":"ao","localized_country_name":"Angola","distance":10593.817275527541,"city":"Ondjiva","lon":15.729999542236328,"ranking":35,"id":1000293,"member_count":0,"lat":-17.06999969482422}],"meta":{"next":"","method":"Cities","total_count":36,"link":"http:\/\/api.meetup.com\/2\/cities","count":36,"description":"Returns Meetup cities. This method supports search by latitude\/longitude\/radius, by country\/state, by query term\/zip, or a combination of all of these. Location-only searches by lat and lon return all cities within a radius of the provided coordinates. Searches with a query return up to 10 cities matching the term, and can be sorted by size or distance to a given coordinate. 'smart' ordering can be used to return the match(es) with the highest member_count, unless a smaller size match exists nearby the given coordinates. Query searches are supported for country but not country and state","lon":"None","title":"Cities","url":"http:\/\/api.meetup.com\/2\/cities?country=ao&offset=0&sign=True&format=json&photo-host=public&page=200&radius=50&order=size&desc=false","id":"","updated":1251864867000,"lat":"None"}}
