{"results":[{"zip":"meetup1","country":"ar","localized_country_name":"Argentina","distance":7216.9310352268985,"city":"Buenos Aires","lon":-58.369998931884766,"ranking":0,"id":1000296,"member_count":4375,"lat":-34.61000061035156},{"zip":"meetup2","country":"ar","localized_country_name":"Argentina","distance":7149.378134446069,"city":"Córdoba","lon":-64.19000244140625,"ranking":1,"id":1000297,"member_count":198,"lat":-31.399999618530273},{"zip":"meetup9","country":"ar","localized_country_name":"Argentina","distance":7339.166530369732,"city":"Santa Fe","lon":-60.689998626708984,"ranking":2,"id":1000304,"member_count":104,"lat":-31.600000381469727},{"zip":"meetup47","country":"ar","localized_country_name":"Argentina","distance":7270.64501510655,"city":"Aguacaliente","lon":-62.09000015258789,"ranking":3,"id":1000342,"member_count":100,"lat":-31.43000030517578},{"zip":"meetup4","country":"ar","localized_country_name":"Argentina","distance":6760.040846646876,"city":"Mendoza","lon":-68.83000183105469,"ranking":4,"id":1000299,"member_count":95,"lat":-32.88999938964844},{"zip":"meetup7","country":"ar","localized_country_name":"Argentina","distance":6951.73030998203,"city":"Mar del Plata","lon":-57.58000183105469,"ranking":5,"id":1000302,"member_count":78,"lat":-38},{"zip":"meetup5","country":"ar","localized_country_name":"Argentina","distance":7212.693298555613,"city":"La Plata","lon":-57.959999084472656,"ranking":6,"id":1000300,"member_count":62,"lat":-34.91999816894531},{"zip":"meetup15","country":"ar","localized_country_name":"Argentina","distance":6630.353646196906,"city":"Bahía Blanca","lon":-62.279998779296875,"ranking":7,"id":1000310,"member_count":62,"lat":-38.720001220703125},{"zip":"meetup6","country":"ar","localized_country_name":"Argentina","distance":7432.735123360105,"city":"Tucumán","lon":-65.22000122070312,"ranking":8,"id":1000301,"member_count":55,"lat":-26.829999923706055},{"zip":"meetup3","country":"ar","localized_country_name":"Argentina","distance":7228.961421473842,"city":"El Rosario","lon":-60.66999816894531,"ranking":9,"id":1000298,"member_count":39,"lat":-32.939998626708984},{"zip":"meetup28","country":"ar","localized_country_name":"Argentina","distance":5935.760295664504,"city":"San Carlos de Bariloche","lon":-71.31999969482422,"ranking":10,"id":1000323,"member_count":37,"lat":-41.13999938964844},{"zip":"meetup86","country":"ar","localized_country_name":"Argentina","distance":4821.016294596009,"city":"Ushuaia","lon":-68.30999755859375,"ranking":11,"id":1000381,"member_count":30,"lat":-54.790000915527344},{"zip":"meetup22","country":"ar","localized_country_name":"Argentina","distance":5700.592779593361,"city":"Comodoro Rivadavia","lon":-67.48999786376953,"ranking":12,"id":1000317,"member_count":27,"lat":-45.86000061035156},{"zip":"meetup13","country":"ar","localized_country_name":"Argentina","distance":6298.759696422278,"city":"Neuquén","lon":-68.05999755859375,"ranking":13,"id":1000308,"member_count":24,"lat":-38.95000076293945},{"zip":"meetup14","country":"ar","localized_country_name":"Argentina","distance":7776.68569402061,"city":"Corrientes","lon":-58.810001373291016,"ranking":14,"id":1000309,"member_count":18,"lat":-27.489999771118164},{"zip":"meetup37","country":"ar","localized_country_name":"Argentina","distance":5080.451076387168,"city":"Río Gallegos","lon":-69.23999786376953,"ranking":15,"id":1000332,"member_count":18,"lat":-51.619998931884766},{"zip":"meetup17","country":"ar","localized_country_name":"Argentina","distance":7337.64727792215,"city":"Paraná","lon":-60.52000045776367,"ranking":16,"id":1000312,"member_count":16,"lat":-31.739999771118164},{"zip":"meetup18","country":"ar","localized_country_name":"Argentina","distance":7610.347004777717,"city":"Jujuy","lon":-65.30000305175781,"ranking":17,"id":1000313,"member_count":16,"lat":-24.190000534057617},{"zip":"meetup32","country":"ar","localized_country_name":"Argentina","distance":6707.344335415647,"city":"Santa Rosa","lon":-64.30000305175781,"ranking":18,"id":1000327,"member_count":14,"lat":-36.619998931884766},{"zip":"meetup44","country":"ar","localized_country_name":"Argentina","distance":7222.805149070011,"city":"Campana","lon":-58.959999084472656,"ranking":19,"id":1000339,"member_count":14,"lat":-34.15999984741211},{"zip":"meetup10","country":"ar","localized_country_name":"Argentina","distance":6882.973131584739,"city":"San Juan","lon":-68.52999877929688,"ranking":20,"id":1000305,"member_count":13,"lat":-31.540000915527344},{"zip":"meetup11","country":"ar","localized_country_name":"Argentina","distance":7767.962754657765,"city":"Resistencia","lon":-58.9900016784668,"ranking":21,"id":1000306,"member_count":12,"lat":-27.459999084472656},{"zip":"meetup16","country":"ar","localized_country_name":"Argentina","distance":7960.806266265297,"city":"Posadas","lon":-55.90999984741211,"ranking":22,"id":1000311,"member_count":12,"lat":-27.399999618530273},{"zip":"meetup20","country":"ar","localized_country_name":"Argentina","distance":7279.328312452238,"city":"Catamarca","lon":-65.77999877929688,"ranking":23,"id":1000315,"member_count":12,"lat":-28.469999313354492},{"zip":"meetup31","country":"ar","localized_country_name":"Argentina","distance":6929.026907067995,"city":"Tandil","lon":-59.150001525878906,"ranking":24,"id":1000326,"member_count":12,"lat":-37.31999969482422},{"zip":"meetup21","country":"ar","localized_country_name":"Argentina","distance":7000.118390572477,"city":"Río Cuarto","lon":-64.3499984741211,"ranking":25,"id":1000316,"member_count":11,"lat":-33.130001068115234},{"zip":"meetup29","country":"ar","localized_country_name":"Argentina","distance":6051.366769721799,"city":"Trelew","lon":-65.33000183105469,"ranking":26,"id":1000324,"member_count":11,"lat":-43.25},{"zip":"meetup41","country":"ar","localized_country_name":"Argentina","distance":6835.6731858755065,"city":"Necochea","lon":-58.75,"ranking":27,"id":1000336,"member_count":11,"lat":-38.560001373291016},{"zip":"meetup43","country":"ar","localized_country_name":"Argentina","distance":7319.984680488232,"city":"Rafaela","lon":-61.5,"ranking":28,"id":1000338,"member_count":11,"lat":-31.25},{"zip":"meetup42","country":"ar","localized_country_name":"Argentina","distance":6316.804842342843,"city":"General Roca","lon":-67.61000061035156,"ranking":29,"id":1000337,"member_count":9,"lat":-39.02000045776367},{"zip":"meetup19","country":"ar","localized_country_name":"Argentina","distance":7913.384493502513,"city":"Formosa","lon":-58.18000030517578,"ranking":30,"id":1000314,"member_count":8,"lat":-26.18000030517578},{"zip":"meetup35","country":"ar","localized_country_name":"Argentina","distance":7224.33205582218,"city":"Zárate","lon":-59.040000915527344,"ranking":31,"id":1000330,"member_count":8,"lat":-34.09000015258789},{"zip":"meetup46","country":"ar","localized_country_name":"Argentina","distance":6399.09075543844,"city":"Viedma","lon":-63,"ranking":32,"id":1000341,"member_count":8,"lat":-40.810001373291016},{"zip":"meetup51","country":"ar","localized_country_name":"Argentina","distance":6110.944972152492,"city":"Puerto Madryn","lon":-65.04000091552734,"ranking":33,"id":1000346,"member_count":8,"lat":-42.77000045776367},{"zip":"meetup56","country":"ar","localized_country_name":"Argentina","distance":7409.056285749343,"city":"Concepción del Uruguay","lon":-58.2400016784668,"ranking":34,"id":1000351,"member_count":8,"lat":-32.47999954223633},{"zip":"meetup67","country":"ar","localized_country_name":"Argentina","distance":6938.570082019733,"city":"Azul","lon":-59.869998931884766,"ranking":35,"id":1000362,"member_count":8,"lat":-36.779998779296875},{"zip":"meetup54","country":"ar","localized_country_name":"Argentina","distance":7085.578259067032,"city":"Venado Tuerto","lon":-61.970001220703125,"ranking":36,"id":1000349,"member_count":7,"lat":-33.75},{"zip":"meetup78","country":"ar","localized_country_name":"Argentina","distance":7092.908669861965,"city":"Chacabuco","lon":-60.4900016784668,"ranking":37,"id":1000373,"member_count":7,"lat":-34.650001525878906},{"zip":"meetup36","country":"ar","localized_country_name":"Argentina","distance":7153.13111577085,"city":"Pergamino","lon":-60.56999969482422,"ranking":38,"id":1000331,"member_count":6,"lat":-33.900001525878906},{"zip":"meetup70","country":"ar","localized_country_name":"Argentina","distance":6771.142675378075,"city":"Tres Arroyos","lon":-60.27000045776367,"ranking":39,"id":1000365,"member_count":6,"lat":-38.369998931884766},{"zip":"meetup74","country":"ar","localized_country_name":"Argentina","distance":7114.535192104019,"city":"Alta Gracia","lon":-64.43000030517578,"ranking":40,"id":1000369,"member_count":6,"lat":-31.65999984741211},{"zip":"meetup81","country":"ar","localized_country_name":"Argentina","distance":6057.712197659075,"city":"Rawson","lon":-65.11000061035156,"ranking":41,"id":1000376,"member_count":6,"lat":-43.29999923706055},{"zip":"meetup30","country":"ar","localized_country_name":"Argentina","distance":6889.514378584813,"city":"Mercedes","lon":-65.47000122070312,"ranking":42,"id":1000325,"member_count":5,"lat":-33.689998626708984},{"zip":"meetup34","country":"ar","localized_country_name":"Argentina","distance":7122.404848307576,"city":"Villa María","lon":-63.2599983215332,"ranking":43,"id":1000329,"member_count":5,"lat":-32.40999984741211},{"zip":"meetup66","country":"ar","localized_country_name":"Argentina","distance":7096.613347724221,"city":"Chivilcoy","lon":-60.040000915527344,"ranking":44,"id":1000361,"member_count":5,"lat":-34.900001525878906},{"zip":"meetup84","country":"ar","localized_country_name":"Argentina","distance":7285.159741107594,"city":"Victoria","lon":-60.18000030517578,"ranking":45,"id":1000379,"member_count":5,"lat":-32.61000061035156},{"zip":"meetup52","country":"ar","localized_country_name":"Argentina","distance":7741.3098466791525,"city":"San Ramón de la Nueva Orán","lon":-64.31999969482422,"ranking":46,"id":1000347,"member_count":4,"lat":-23.139999389648438},{"zip":"meetup77","country":"ar","localized_country_name":"Argentina","distance":6999.442721514222,"city":"Nueve de Julio","lon":-60.88999938964844,"ranking":47,"id":1000372,"member_count":4,"lat":-35.459999084472656},{"zip":"meetup12","country":"ar","localized_country_name":"Argentina","distance":7419.8577829599035,"city":"Santiago del Estero","lon":-64.27999877929688,"ranking":48,"id":1000307,"member_count":3,"lat":-27.799999237060547},{"zip":"meetup25","country":"ar","localized_country_name":"Argentina","distance":7513.0590386958775,"city":"Concórdia","lon":-58.029998779296875,"ranking":49,"id":1000320,"member_count":3,"lat":-31.389999389648438},{"zip":"meetup26","country":"ar","localized_country_name":"Argentina","distance":7144.850680388679,"city":"La Rioja","lon":-66.8499984741211,"ranking":50,"id":1000321,"member_count":3,"lat":-29.40999984741211},{"zip":"meetup27","country":"ar","localized_country_name":"Argentina","distance":6649.2263208552195,"city":"San Rafael","lon":-68.33999633789062,"ranking":51,"id":1000322,"member_count":3,"lat":-34.619998931884766},{"zip":"meetup48","country":"ar","localized_country_name":"Argentina","distance":7346.709873165913,"city":"Gualeguaychú","lon":-58.52000045776367,"ranking":52,"id":1000343,"member_count":3,"lat":-33.02000045776367},{"zip":"meetup50","country":"ar","localized_country_name":"Argentina","distance":7177.489041633319,"city":"Luján","lon":-59.11000061035156,"ranking":53,"id":1000345,"member_count":3,"lat":-34.58000183105469},{"zip":"meetup63","country":"ar","localized_country_name":"Argentina","distance":7129.531084839115,"city":"Villa Carlos Paz","lon":-64.5,"ranking":54,"id":1000358,"member_count":3,"lat":-31.420000076293945},{"zip":"meetup65","country":"ar","localized_country_name":"Argentina","distance":6820.141882151025,"city":"General Pico","lon":-63.77000045776367,"ranking":55,"id":1000360,"member_count":3,"lat":-35.65999984741211},{"zip":"meetup73","country":"ar","localized_country_name":"Argentina","distance":7730.951858229292,"city":"Chiautzingo","lon":-58.77000045776367,"ranking":56,"id":1000368,"member_count":3,"lat":-28.1200008392334},{"zip":"meetup8","country":"ar","localized_country_name":"Argentina","distance":7563.080822542966,"city":"Rozavlea","lon":-65.41000366210938,"ranking":57,"id":1000303,"member_count":2,"lat":-24.790000915527344},{"zip":"meetup55","country":"ar","localized_country_name":"Argentina","distance":7621.316687747156,"city":"Goya","lon":-59.27000045776367,"ranking":58,"id":1000350,"member_count":2,"lat":-29.139999389648438},{"zip":"meetup60","country":"ar","localized_country_name":"Argentina","distance":6626.473200243099,"city":"Punta Alta","lon":-62.08000183105469,"ranking":59,"id":1000355,"member_count":2,"lat":-38.880001068115234},{"zip":"meetup61","country":"ar","localized_country_name":"Argentina","distance":7811.8156959189955,"city":"Tartagal","lon":-63.810001373291016,"ranking":60,"id":1000356,"member_count":2,"lat":-22.549999237060547},{"zip":"meetup68","country":"ar","localized_country_name":"Argentina","distance":7090.916135101528,"city":"Río Tercero","lon":-64.12000274658203,"ranking":61,"id":1000363,"member_count":2,"lat":-32.18000030517578},{"zip":"meetup72","country":"ar","localized_country_name":"Argentina","distance":7222.961297933607,"city":"Constitución","lon":-60.349998474121094,"ranking":62,"id":1000367,"member_count":2,"lat":-33.22999954223633},{"zip":"meetup76","country":"ar","localized_country_name":"Argentina","distance":7140.582775898482,"city":"Bell Ville","lon":-62.68000030517578,"ranking":63,"id":1000371,"member_count":2,"lat":-32.599998474121094},{"zip":"meetup79","country":"ar","localized_country_name":"Argentina","distance":7288.142756661017,"city":"Gualeguay","lon":-59.34000015258789,"ranking":64,"id":1000374,"member_count":2,"lat":-33.150001525878906},{"zip":"meetup85","country":"ar","localized_country_name":"Argentina","distance":7042.0531904560285,"city":"Veinticinco de Mayo","lon":-60.18000030517578,"ranking":65,"id":1000380,"member_count":2,"lat":-35.43000030517578},{"zip":"meetup33","country":"ar","localized_country_name":"Argentina","distance":6765.479669763067,"city":"Azcatepec","lon":-68.48999786376953,"ranking":66,"id":1000328,"member_count":1,"lat":-33.06999969482422},{"zip":"meetup38","country":"ar","localized_country_name":"Argentina","distance":7598.4378290427085,"city":"Reconquista","lon":-59.650001525878906,"ranking":67,"id":1000333,"member_count":1,"lat":-29.139999389648438},{"zip":"meetup39","country":"ar","localized_country_name":"Argentina","distance":6902.2723402084775,"city":"Olavarría","lon":-60.33000183105469,"ranking":68,"id":1000334,"member_count":1,"lat":-36.900001525878906},{"zip":"meetup40","country":"ar","localized_country_name":"Argentina","distance":7176.8561279205705,"city":"San Vicente","lon":-58.41999816894531,"ranking":69,"id":1000335,"member_count":1,"lat":-35.029998779296875},{"zip":"meetup49","country":"ar","localized_country_name":"Argentina","distance":7071.3948731201535,"city":"Junín","lon":-60.959999084472656,"ranking":70,"id":1000344,"member_count":1,"lat":-34.59000015258789},{"zip":"meetup57","country":"ar","localized_country_name":"Argentina","distance":6757.0938533696,"city":"Rivadavia","lon":-68.47000122070312,"ranking":71,"id":1000352,"member_count":1,"lat":-33.189998626708984},{"zip":"meetup58","country":"ar","localized_country_name":"Argentina","distance":7223.40458633135,"city":"San Pedro","lon":-59.689998626708984,"ranking":72,"id":1000353,"member_count":1,"lat":-33.66999816894531},{"zip":"meetup59","country":"ar","localized_country_name":"Argentina","distance":8132.939020611062,"city":"Eldorado","lon":-54.599998474121094,"ranking":73,"id":1000354,"member_count":1,"lat":-26.200000762939453},{"zip":"meetup62","country":"ar","localized_country_name":"Argentina","distance":6236.225548071741,"city":"Cutral Có","lon":-69.23999786376953,"ranking":74,"id":1000357,"member_count":1,"lat":-38.939998626708984},{"zip":"meetup64","country":"ar","localized_country_name":"Argentina","distance":8002.284617371516,"city":"Oberá","lon":-55.130001068115234,"ranking":75,"id":1000359,"member_count":1,"lat":-27.479999542236328},{"zip":"meetup71","country":"ar","localized_country_name":"Argentina","distance":7666.960688908356,"city":"Libertador General San Martín","lon":-64.79000091552734,"ranking":76,"id":1000366,"member_count":1,"lat":-23.81999969482422},{"zip":"meetup83","country":"ar","localized_country_name":"Argentina","distance":7013.350250488877,"city":"Lincoln","lon":-61.540000915527344,"ranking":77,"id":1000378,"member_count":1,"lat":-34.880001068115234},{"zip":"meetup92","country":"ar","localized_country_name":"Argentina","distance":6871.26878134339,"city":"San Luis","lon":-66.33999633789062,"ranking":78,"id":1111047,"member_count":0,"lat":-33.29999923706055},{"zip":"meetup89","country":"ar","localized_country_name":"Argentina","distance":7216.685236783698,"city":"Ingeniero Maschwitz","lon":-58.72999954223633,"ranking":79,"id":1110302,"member_count":0,"lat":-34.380001068115234},{"zip":"meetup87","country":"ar","localized_country_name":"Argentina","distance":7563.759040943222,"city":"Salta","lon":-65.41000366210938,"ranking":80,"id":1108522,"member_count":0,"lat":-24.780000686645508},{"zip":"meetup88","country":"ar","localized_country_name":"Argentina","distance":7228.119138504601,"city":"Rosario","lon":-60.66999816894531,"ranking":81,"id":1108532,"member_count":0,"lat":-32.95000076293945},{"zip":"meetup24","country":"ar","localized_country_name":"Argentina","distance":6869.8799836565995,"city":"Huamantla","lon":-66.3499984741211,"ranking":82,"id":1000319,"member_count":0,"lat":-33.310001373291016},{"zip":"meetup45","country":"ar","localized_country_name":"Argentina","distance":7728.586453842242,"city":"Presidencia Roque Sáenz Peña","lon":-60.45000076293945,"ranking":83,"id":1000340,"member_count":0,"lat":-26.790000915527344},{"zip":"meetup82","country":"ar","localized_country_name":"Argentina","distance":7100.536627553735,"city":"Dolores","lon":-57.689998626708984,"ranking":84,"id":1000377,"member_count":0,"lat":-36.33000183105469},{"zip":"meetup90","country":"ar","localized_country_name":"Argentina","distance":7199.4073389201785,"city":"Pilar","lon":-58.90999984741211,"ranking":85,"id":1110972,"member_count":0,"lat":-34.459999084472656},{"zip":"meetup91","country":"ar","localized_country_name":"Argentina","distance":7214.016930155755,"city":"Quilmes","lon":-58.25,"ranking":86,"id":1111016,"member_count":0,"lat":-34.720001220703125}],"meta":{"next":"","method":"Cities","total_count":87,"link":"http:\/\/api.meetup.com\/2\/cities","count":87,"description":"Returns Meetup cities. This method supports search by latitude\/longitude\/radius, by country\/state, by query term\/zip, or a combination of all of these. Location-only searches by lat and lon return all cities within a radius of the provided coordinates. Searches with a query return up to 10 cities matching the term, and can be sorted by size or distance to a given coordinate. 'smart' ordering can be used to return the match(es) with the highest member_count, unless a smaller size match exists nearby the given coordinates. Query searches are supported for country but not country and state","lon":"None","title":"Cities","url":"http:\/\/api.meetup.com\/2\/cities?country=ar&offset=0&sign=True&format=json&photo-host=public&page=200&radius=50&order=size&desc=false","id":"","updated":1478720852000,"lat":"None"}}
