{"results":[{"zip":"meetup26","country":"as","localized_country_name":"American Samoa","distance":1841.3890467877093,"city":"Afono","lon":-170.64999389648438,"ranking":0,"id":1000407,"member_count":13,"lat":-14.260000228881836},{"zip":"meetup4","country":"as","localized_country_name":"American Samoa","distance":1840.1251328548326,"city":"Pago Pago","lon":-170.72000122070312,"ranking":1,"id":1000385,"member_count":8,"lat":-14.239999771118164},{"zip":"meetup1","country":"as","localized_country_name":"American Samoa","distance":1835.2510188974236,"city":"Tafuna","lon":-170.72000122070312,"ranking":2,"id":1000382,"member_count":2,"lat":-14.319999694824219},{"zip":"meetup3","country":"as","localized_country_name":"American Samoa","distance":1831.9078730880692,"city":"Leone","lon":-170.77999877929688,"ranking":3,"id":1000384,"member_count":2,"lat":-14.34000015258789},{"zip":"meetup18","country":"as","localized_country_name":"American Samoa","distance":1837.491863351343,"city":"Fagasa","lon":-170.75999450683594,"ranking":4,"id":1000399,"member_count":2,"lat":-14.260000228881836},{"zip":"meetup27","country":"as","localized_country_name":"American Samoa","distance":1845.0567615545458,"city":"Alao","lon":-170.52999877929688,"ranking":5,"id":1000408,"member_count":2,"lat":-14.270000457763672},{"zip":"meetup2","country":"as","localized_country_name":"American Samoa","distance":1835.3516906413727,"city":"Nu'uuli","lon":-170.6999969482422,"ranking":6,"id":1000383,"member_count":1,"lat":-14.329999923706055},{"zip":"meetup5","country":"as","localized_country_name":"American Samoa","distance":1831.343438074118,"city":"Ili'ili","lon":-170.7100067138672,"ranking":7,"id":1000386,"member_count":1,"lat":-14.390000343322754},{"zip":"meetup6","country":"as","localized_country_name":"American Samoa","distance":1832.9695913322805,"city":"Pava'ia'i","lon":-170.75,"ranking":8,"id":1000387,"member_count":1,"lat":-14.34000015258789},{"zip":"meetup7","country":"as","localized_country_name":"American Samoa","distance":1833.9328823800904,"city":"Faleniu","lon":-170.74000549316406,"ranking":9,"id":1000388,"member_count":1,"lat":-14.329999923706055},{"zip":"meetup15","country":"as","localized_country_name":"American Samoa","distance":1834.9560335686417,"city":"Aoloau","lon":-170.77999877929688,"ranking":10,"id":1000396,"member_count":1,"lat":-14.289999961853027},{"zip":"meetup20","country":"as","localized_country_name":"American Samoa","distance":1831.0426685588334,"city":"Taputimu","lon":-170.77000427246094,"ranking":11,"id":1000401,"member_count":1,"lat":-14.359999656677246},{"zip":"meetup23","country":"as","localized_country_name":"American Samoa","distance":1845.0423483452994,"city":"Vatia","lon":-170.64999389648438,"ranking":12,"id":1000404,"member_count":1,"lat":-14.199999809265137},{"zip":"meetup25","country":"as","localized_country_name":"American Samoa","distance":1839.7151218272236,"city":"Leloaloa","lon":-170.67999267578125,"ranking":13,"id":1000406,"member_count":1,"lat":-14.270000457763672},{"zip":"meetup28","country":"as","localized_country_name":"American Samoa","distance":1841.1963998196682,"city":"Amouli","lon":-170.57000732421875,"ranking":14,"id":1000409,"member_count":1,"lat":-14.3100004196167},{"zip":"meetup29","country":"as","localized_country_name":"American Samoa","distance":1842.9153936530156,"city":"Aoa","lon":-170.58999633789062,"ranking":15,"id":1000410,"member_count":1,"lat":-14.270000457763672},{"zip":"meetup31","country":"as","localized_country_name":"American Samoa","distance":1841.594520751191,"city":"Faga'itua","lon":-170.61000061035156,"ranking":16,"id":1000412,"member_count":1,"lat":-14.279999732971191},{"zip":"meetup32","country":"as","localized_country_name":"American Samoa","distance":1843.1265182754898,"city":"Aunu'u","lon":-170.5500030517578,"ranking":17,"id":1000413,"member_count":1,"lat":-14.289999961853027},{"zip":"meetup33","country":"as","localized_country_name":"American Samoa","distance":1846.7738854116744,"city":"Tula","lon":-170.5500030517578,"ranking":18,"id":1000414,"member_count":1,"lat":-14.229999542236328},{"zip":"meetup8","country":"as","localized_country_name":"American Samoa","distance":1839.8159806883195,"city":"Aua","lon":-170.66000366210938,"ranking":19,"id":1000389,"member_count":0,"lat":-14.279999732971191},{"zip":"meetup9","country":"as","localized_country_name":"American Samoa","distance":1838.1420667371758,"city":"Fagatogo","lon":-170.69000244140625,"ranking":20,"id":1000390,"member_count":0,"lat":-14.289999961853027},{"zip":"meetup10","country":"as","localized_country_name":"American Samoa","distance":1834.1882326780644,"city":"Mapusagafou","lon":-170.75,"ranking":21,"id":1000391,"member_count":0,"lat":-14.319999694824219},{"zip":"meetup11","country":"as","localized_country_name":"American Samoa","distance":1830.633541188932,"city":"Vaitogi","lon":-170.72999572753906,"ranking":22,"id":1000392,"member_count":0,"lat":-14.390000343322754},{"zip":"meetup12","country":"as","localized_country_name":"American Samoa","distance":1835.1513801864069,"city":"Malaeimi","lon":-170.74000549316406,"ranking":23,"id":1000393,"member_count":0,"lat":-14.3100004196167},{"zip":"meetup13","country":"as","localized_country_name":"American Samoa","distance":1828.8607948939432,"city":"Vailoatai","lon":-170.77999877929688,"ranking":24,"id":1000394,"member_count":0,"lat":-14.390000343322754},{"zip":"meetup14","country":"as","localized_country_name":"American Samoa","distance":1838.4973100742131,"city":"Faga'alu","lon":-170.67999267578125,"ranking":25,"id":1000395,"member_count":0,"lat":-14.289999961853027},{"zip":"meetup16","country":"as","localized_country_name":"American Samoa","distance":1837.989886871018,"city":"Lauli'i","lon":-170.66000366210938,"ranking":26,"id":1000397,"member_count":0,"lat":-14.3100004196167},{"zip":"meetup17","country":"as","localized_country_name":"American Samoa","distance":1828.960406827493,"city":"Futiga","lon":-170.75999450683594,"ranking":27,"id":1000398,"member_count":0,"lat":-14.399999618530273},{"zip":"meetup19","country":"as","localized_country_name":"American Samoa","distance":1838.4973100742131,"city":"Utulei","lon":-170.67999267578125,"ranking":28,"id":1000400,"member_count":0,"lat":-14.289999961853027},{"zip":"meetup21","country":"as","localized_country_name":"American Samoa","distance":1831.6519950223922,"city":"Malaeloa-Ituau","lon":-170.77000427246094,"ranking":29,"id":1000402,"member_count":0,"lat":-14.350000381469727},{"zip":"meetup22","country":"as","localized_country_name":"American Samoa","distance":1832.2614229658052,"city":"Malaeloa-Aitulagi","lon":-170.77000427246094,"ranking":30,"id":1000403,"member_count":0,"lat":-14.34000015258789},{"zip":"meetup24","country":"as","localized_country_name":"American Samoa","distance":1833.9328823800904,"city":"Mesepa","lon":-170.74000549316406,"ranking":31,"id":1000405,"member_count":0,"lat":-14.329999923706055},{"zip":"meetup30","country":"as","localized_country_name":"American Samoa","distance":1840.734128612864,"city":"Alofau","lon":-170.60000610351562,"ranking":32,"id":1000411,"member_count":0,"lat":-14.300000190734863},{"zip":"meetup34","country":"as","localized_country_name":"American Samoa","distance":1839.7151218272236,"city":"Atu'u","lon":-170.67999267578125,"ranking":33,"id":1000415,"member_count":0,"lat":-14.270000457763672},{"zip":"meetup35","country":"as","localized_country_name":"American Samoa","distance":1883.2640069358606,"city":"Ofu","lon":-169.67999267578125,"ranking":34,"id":1000416,"member_count":0,"lat":-14.149999618530273}],"meta":{"next":"","method":"Cities","total_count":35,"link":"http:\/\/api.meetup.com\/2\/cities","count":35,"description":"Returns Meetup cities. This method supports search by latitude\/longitude\/radius, by country\/state, by query term\/zip, or a combination of all of these. Location-only searches by lat and lon return all cities within a radius of the provided coordinates. Searches with a query return up to 10 cities matching the term, and can be sorted by size or distance to a given coordinate. 'smart' ordering can be used to return the match(es) with the highest member_count, unless a smaller size match exists nearby the given coordinates. Query searches are supported for country but not country and state","lon":"None","title":"Cities","url":"http:\/\/api.meetup.com\/2\/cities?country=as&offset=0&sign=True&format=json&photo-host=public&page=200&radius=50&order=size&desc=false","id":"","updated":1251864867000,"lat":"None"}}
