{"results":[{"zip":"meetup1","country":"at","localized_country_name":"Austria","distance":9367.044079539324,"city":"Vienna","lon":16.3700008392334,"ranking":0,"id":1000417,"member_count":1367,"lat":48.220001220703125},{"zip":"meetup5","country":"at","localized_country_name":"Austria","distance":9614.872556445345,"city":"Innsbruck","lon":11.40999984741211,"ranking":1,"id":1000421,"member_count":95,"lat":47.279998779296875},{"zip":"meetup2","country":"at","localized_country_name":"Austria","distance":9479.614657452805,"city":"Graz","lon":15.420000076293945,"ranking":2,"id":1000418,"member_count":64,"lat":47.08000183105469},{"zip":"meetup3","country":"at","localized_country_name":"Austria","distance":9435.508568824842,"city":"Linz","lon":14.289999961853027,"ranking":3,"id":1000419,"member_count":46,"lat":48.310001373291016},{"zip":"meetup4","country":"at","localized_country_name":"Austria","distance":9516.182406125048,"city":"Salzburg","lon":13.039999961853027,"ranking":4,"id":1000420,"member_count":38,"lat":47.810001373291016},{"zip":"meetup143","country":"at","localized_country_name":"Austria","distance":9610.044346590308,"city":"Absam","lon":11.5,"ranking":5,"id":1000559,"member_count":31,"lat":47.29999923706055},{"zip":"meetup6","country":"at","localized_country_name":"Austria","distance":9553.341969133113,"city":"Klagenfurt","lon":14.3100004196167,"ranking":6,"id":1000422,"member_count":22,"lat":46.619998931884766},{"zip":"meetup12","country":"at","localized_country_name":"Austria","distance":9398.811642293256,"city":"Wiener Neustadt","lon":16.239999771118164,"ranking":7,"id":1000428,"member_count":21,"lat":47.81999969482422},{"zip":"meetup7","country":"at","localized_country_name":"Austria","distance":9570.755901507553,"city":"Villach","lon":13.850000381469727,"ranking":8,"id":1000423,"member_count":12,"lat":46.619998931884766},{"zip":"meetup14","country":"at","localized_country_name":"Austria","distance":9660.392466927831,"city":"Bregenz","lon":9.729999542236328,"ranking":9,"id":1000430,"member_count":10,"lat":47.5099983215332},{"zip":"meetup9","country":"at","localized_country_name":"Austria","distance":9394.998021288287,"city":"Sankt Pölten","lon":15.609999656677246,"ranking":10,"id":1000425,"member_count":8,"lat":48.209999084472656},{"zip":"meetup13","country":"at","localized_country_name":"Austria","distance":9685.238140073801,"city":"Feldkirch","lon":9.59000015258789,"ranking":11,"id":1000429,"member_count":7,"lat":47.25},{"zip":"meetup15","country":"at","localized_country_name":"Austria","distance":9363.113124402285,"city":"Klosterneuburg","lon":16.309999465942383,"ranking":12,"id":1000431,"member_count":7,"lat":48.310001373291016},{"zip":"meetup18","country":"at","localized_country_name":"Austria","distance":9385.927606840376,"city":"Baden","lon":16.239999771118164,"ranking":13,"id":1000434,"member_count":7,"lat":48.0099983215332},{"zip":"meetup41","country":"at","localized_country_name":"Austria","distance":9683.386153073854,"city":"Bludenz","lon":9.819999694824219,"ranking":14,"id":1000457,"member_count":6,"lat":47.15999984741211},{"zip":"meetup74","country":"at","localized_country_name":"Austria","distance":9560.915434494254,"city":"Zell am See","lon":12.779999732971191,"ranking":15,"id":1000490,"member_count":6,"lat":47.31999969482422},{"zip":"meetup8","country":"at","localized_country_name":"Austria","distance":9454.67984790581,"city":"Wels","lon":14.029999732971191,"ranking":16,"id":1000424,"member_count":6,"lat":48.16999816894531},{"zip":"meetup10","country":"at","localized_country_name":"Austria","distance":9666.79953450596,"city":"Dornbirn","lon":9.739999771118164,"ranking":17,"id":1000426,"member_count":6,"lat":47.41999816894531},{"zip":"meetup24","country":"at","localized_country_name":"Austria","distance":9377.670331629963,"city":"Mödling","lon":16.299999237060547,"ranking":18,"id":1000440,"member_count":6,"lat":48.099998474121094},{"zip":"meetup30","country":"at","localized_country_name":"Austria","distance":9561.099387661341,"city":"Kufstein","lon":12.1899995803833,"ranking":19,"id":1000446,"member_count":6,"lat":47.619998931884766},{"zip":"meetup38","country":"at","localized_country_name":"Austria","distance":9370.696624536648,"city":"Tulln","lon":16.059999465942383,"ranking":20,"id":1000454,"member_count":5,"lat":48.33000183105469},{"zip":"meetup92","country":"at","localized_country_name":"Austria","distance":9377.943085273902,"city":"Wiener Neudorf","lon":16.329999923706055,"ranking":21,"id":1000508,"member_count":5,"lat":48.08000183105469},{"zip":"meetup48","country":"at","localized_country_name":"Austria","distance":9596.950022510444,"city":"Lienz","lon":12.760000228881836,"ranking":22,"id":1000464,"member_count":4,"lat":46.83000183105469},{"zip":"meetup89","country":"at","localized_country_name":"Austria","distance":9563.18240597019,"city":"Velden am Wörthersee","lon":14.050000190734863,"ranking":23,"id":1000505,"member_count":4,"lat":46.619998931884766},{"zip":"meetup54","country":"at","localized_country_name":"Austria","distance":9383.289264621,"city":"Zwettl","lon":15.170000076293945,"ranking":24,"id":1000470,"member_count":3,"lat":48.61000061035156},{"zip":"meetup58","country":"at","localized_country_name":"Austria","distance":9376.05844772798,"city":"Eisenstadt","lon":16.700000762939453,"ranking":25,"id":1000474,"member_count":3,"lat":47.90999984741211},{"zip":"meetup71","country":"at","localized_country_name":"Austria","distance":9537.79167672628,"city":"Bischofshofen","lon":13.210000038146973,"ranking":26,"id":1000487,"member_count":3,"lat":47.41999816894531},{"zip":"meetup149","country":"at","localized_country_name":"Austria","distance":9332.634023400245,"city":"Laa","lon":16.389999389648438,"ranking":27,"id":1000565,"member_count":3,"lat":48.720001220703125},{"zip":"meetup152","country":"at","localized_country_name":"Austria","distance":9562.221287900096,"city":"Bad Gastein","lon":13.130000114440918,"ranking":28,"id":1000568,"member_count":3,"lat":47.119998931884766},{"zip":"meetup162","country":"at","localized_country_name":"Austria","distance":9457.486757385104,"city":"Fürstenfeld","lon":16.06999969482422,"ranking":29,"id":1000578,"member_count":3,"lat":47.04999923706055},{"zip":"meetup169","country":"at","localized_country_name":"Austria","distance":9686.390890896777,"city":"Nenzing","lon":9.699999809265137,"ranking":30,"id":1000585,"member_count":3,"lat":47.18000030517578},{"zip":"meetup173","country":"at","localized_country_name":"Austria","distance":9351.308196314147,"city":"Hainburg","lon":16.940000534057617,"ranking":31,"id":1000589,"member_count":3,"lat":48.150001525878906},{"zip":"meetup16","country":"at","localized_country_name":"Austria","distance":9471.096024167678,"city":"Leoben","lon":15.09000015258789,"ranking":32,"id":1000432,"member_count":3,"lat":47.380001068115234},{"zip":"meetup17","country":"at","localized_country_name":"Austria","distance":9516.878380314718,"city":"Wolfsberg","lon":14.850000381469727,"ranking":33,"id":1000433,"member_count":3,"lat":46.849998474121094},{"zip":"meetup19","country":"at","localized_country_name":"Austria","distance":9381.357450515656,"city":"Krems","lon":15.59000015258789,"ranking":34,"id":1000435,"member_count":3,"lat":48.41999816894531},{"zip":"meetup35","country":"at","localized_country_name":"Austria","distance":9360.563203318678,"city":"Stockerau","lon":16.229999542236328,"ranking":35,"id":1000451,"member_count":2,"lat":48.38999938964844},{"zip":"meetup67","country":"at","localized_country_name":"Austria","distance":9354.043237078196,"city":"Hollabrunn","lon":16.09000015258789,"ranking":36,"id":1000483,"member_count":2,"lat":48.560001373291016},{"zip":"meetup70","country":"at","localized_country_name":"Austria","distance":9677.697667539896,"city":"Götzis","lon":9.630000114440918,"ranking":37,"id":1000486,"member_count":2,"lat":47.33000183105469},{"zip":"meetup72","country":"at","localized_country_name":"Austria","distance":9492.442036888617,"city":"Voitsberg","lon":15.149999618530273,"ranking":38,"id":1000488,"member_count":2,"lat":47.040000915527344},{"zip":"meetup75","country":"at","localized_country_name":"Austria","distance":9483.854651439615,"city":"Altmünster","lon":13.75,"ranking":39,"id":1000491,"member_count":2,"lat":47.900001525878906},{"zip":"meetup83","country":"at","localized_country_name":"Austria","distance":9394.696905686074,"city":"Berndorf","lon":16.110000610351562,"ranking":40,"id":1000499,"member_count":2,"lat":47.95000076293945},{"zip":"meetup101","country":"at","localized_country_name":"Austria","distance":9662.660115701676,"city":"Wolfurt","lon":9.75,"ranking":41,"id":1000517,"member_count":2,"lat":47.470001220703125},{"zip":"meetup106","country":"at","localized_country_name":"Austria","distance":9496.900009864557,"city":"Zeltweg","lon":14.75,"ranking":42,"id":1000522,"member_count":2,"lat":47.189998626708984},{"zip":"meetup108","country":"at","localized_country_name":"Austria","distance":9413.354643204999,"city":"Freistadt","lon":14.5,"ranking":43,"id":1000524,"member_count":2,"lat":48.52000045776367},{"zip":"meetup148","country":"at","localized_country_name":"Austria","distance":9399.458228882584,"city":"Mattersburg","lon":16.389999389648438,"ranking":44,"id":1000564,"member_count":2,"lat":47.72999954223633},{"zip":"meetup160","country":"at","localized_country_name":"Austria","distance":9379.479843820796,"city":"Pressbaum","lon":16.079999923706055,"ranking":45,"id":1000576,"member_count":2,"lat":48.189998626708984},{"zip":"meetup192","country":"at","localized_country_name":"Austria","distance":9433.802106810332,"city":"Pinkafeld","lon":16.1200008392334,"ranking":46,"id":1000608,"member_count":2,"lat":47.369998931884766},{"zip":"meetup208","country":"at","localized_country_name":"Austria","distance":9470.351342912427,"city":"Feldbach","lon":15.890000343322754,"ranking":47,"id":1000624,"member_count":2,"lat":46.959999084472656},{"zip":"meetup222","country":"at","localized_country_name":"Austria","distance":9365.530726854053,"city":"Fischamend","lon":16.600000381469727,"ranking":48,"id":1000638,"member_count":2,"lat":48.119998931884766},{"zip":"meetup32","country":"at","localized_country_name":"Austria","distance":9549.692074358169,"city":"Saalfelden","lon":12.850000381469727,"ranking":49,"id":1000448,"member_count":1,"lat":47.439998626708984},{"zip":"meetup34","country":"at","localized_country_name":"Austria","distance":9441.437846174149,"city":"Ansfelden","lon":14.300000190734863,"ranking":50,"id":1000450,"member_count":1,"lat":48.220001220703125},{"zip":"meetup36","country":"at","localized_country_name":"Austria","distance":9501.708662105731,"city":"Bad Ischl","lon":13.609999656677246,"ranking":51,"id":1000452,"member_count":1,"lat":47.720001220703125},{"zip":"meetup37","country":"at","localized_country_name":"Austria","distance":9554.276922519708,"city":"Feldkirchen","lon":14.079999923706055,"ranking":52,"id":1000453,"member_count":1,"lat":46.72999954223633},{"zip":"meetup39","country":"at","localized_country_name":"Austria","distance":9672.809479738567,"city":"Hohenems","lon":9.680000305175781,"ranking":53,"id":1000455,"member_count":1,"lat":47.369998931884766},{"zip":"meetup40","country":"at","localized_country_name":"Austria","distance":9377.713119200953,"city":"Perchtoldsdorf","lon":16.280000686645508,"ranking":54,"id":1000456,"member_count":1,"lat":48.11000061035156},{"zip":"meetup44","country":"at","localized_country_name":"Austria","distance":9461.68891938189,"city":"Bruck an der Mur","lon":15.270000457763672,"ranking":55,"id":1000460,"member_count":1,"lat":47.41999816894531},{"zip":"meetup45","country":"at","localized_country_name":"Austria","distance":9541.27937028872,"city":"Sankt Veit","lon":14.350000381469727,"ranking":56,"id":1000461,"member_count":1,"lat":46.77000045776367},{"zip":"meetup50","country":"at","localized_country_name":"Austria","distance":9471.71993168327,"city":"Ried","lon":13.479999542236328,"ranking":57,"id":1000466,"member_count":1,"lat":48.209999084472656},{"zip":"meetup53","country":"at","localized_country_name":"Austria","distance":9479.706748169969,"city":"Hall","lon":14.4399995803833,"ranking":58,"id":1000469,"member_count":1,"lat":47.599998474121094},{"zip":"meetup55","country":"at","localized_country_name":"Austria","distance":9538.437573518015,"city":"Völkermarkt","lon":14.630000114440918,"ranking":59,"id":1000471,"member_count":1,"lat":46.65999984741211},{"zip":"meetup56","country":"at","localized_country_name":"Austria","distance":9680.722582336211,"city":"Rankweil","lon":9.649999618530273,"ranking":60,"id":1000472,"member_count":1,"lat":47.279998779296875},{"zip":"meetup59","country":"at","localized_country_name":"Austria","distance":9411.428178209351,"city":"Neunkirchen","lon":16.079999923706055,"ranking":61,"id":1000475,"member_count":1,"lat":47.720001220703125},{"zip":"meetup60","country":"at","localized_country_name":"Austria","distance":9358.983294217876,"city":"Korneuburg","lon":16.350000381469727,"ranking":62,"id":1000476,"member_count":1,"lat":48.349998474121094},{"zip":"meetup61","country":"at","localized_country_name":"Austria","distance":9520.1763885253,"city":"Wals-Siezenheim","lon":12.970000267028809,"ranking":63,"id":1000477,"member_count":1,"lat":47.790000915527344},{"zip":"meetup65","country":"at","localized_country_name":"Austria","distance":9434.953915037,"city":"Enns","lon":14.479999542236328,"ranking":64,"id":1000481,"member_count":1,"lat":48.220001220703125},{"zip":"meetup66","country":"at","localized_country_name":"Austria","distance":9336.350215479157,"city":"Mistelbach","lon":16.56999969482422,"ranking":65,"id":1000482,"member_count":1,"lat":48.56999969482422},{"zip":"meetup69","country":"at","localized_country_name":"Austria","distance":9542.791996048983,"city":"Sankt Johann im Pongau","lon":13.210000038146973,"ranking":66,"id":1000485,"member_count":1,"lat":47.349998474121094},{"zip":"meetup80","country":"at","localized_country_name":"Austria","distance":9462.541769071226,"city":"Weiz","lon":15.619999885559082,"ranking":67,"id":1000496,"member_count":1,"lat":47.220001220703125},{"zip":"meetup81","country":"at","localized_country_name":"Austria","distance":9642.511950543158,"city":"Imst","lon":10.729999542236328,"ranking":68,"id":1000497,"member_count":1,"lat":47.25},{"zip":"meetup84","country":"at","localized_country_name":"Austria","distance":9384.208940213557,"city":"Ebreichsdorf","lon":16.399999618530273,"ranking":69,"id":1000500,"member_count":1,"lat":47.95000076293945},{"zip":"meetup91","country":"at","localized_country_name":"Austria","distance":9612.271070352077,"city":"Rum","lon":11.460000038146973,"ranking":70,"id":1000507,"member_count":1,"lat":47.290000915527344},{"zip":"meetup112","country":"at","localized_country_name":"Austria","distance":9427.82723981213,"city":"Perg","lon":14.619999885559082,"ranking":71,"id":1000528,"member_count":1,"lat":48.25},{"zip":"meetup122","country":"at","localized_country_name":"Austria","distance":9489.159022796948,"city":"Liezen","lon":14.239999771118164,"ranking":72,"id":1000538,"member_count":1,"lat":47.56999969482422},{"zip":"meetup125","country":"at","localized_country_name":"Austria","distance":9581.033961835083,"city":"Arnoldstein","lon":13.710000038146973,"ranking":73,"id":1000541,"member_count":1,"lat":46.54999923706055},{"zip":"meetup126","country":"at","localized_country_name":"Austria","distance":9495.07834984825,"city":"Leibnitz","lon":15.5600004196167,"ranking":74,"id":1000542,"member_count":1,"lat":46.779998779296875},{"zip":"meetup128","country":"at","localized_country_name":"Austria","distance":9594.14080146337,"city":"Jenbach","lon":11.75,"ranking":75,"id":1000544,"member_count":1,"lat":47.38999938964844},{"zip":"meetup129","country":"at","localized_country_name":"Austria","distance":9620.067631815147,"city":"Völs","lon":11.329999923706055,"ranking":76,"id":1000545,"member_count":1,"lat":47.25},{"zip":"meetup130","country":"at","localized_country_name":"Austria","distance":9559.761467222175,"city":"Bad Hofgastein","lon":13.100000381469727,"ranking":77,"id":1000546,"member_count":1,"lat":47.16999816894531},{"zip":"meetup139","country":"at","localized_country_name":"Austria","distance":9362.166915018362,"city":"Haelen","lon":15.649999618530273,"ranking":78,"id":1000555,"member_count":1,"lat":48.66999816894531},{"zip":"meetup142","country":"at","localized_country_name":"Austria","distance":9481.361797406378,"city":"Hartberg","lon":15,"ranking":79,"id":1000558,"member_count":1,"lat":47.279998779296875},{"zip":"meetup153","country":"at","localized_country_name":"Austria","distance":9467.35879768065,"city":"Eisenerz","lon":14.890000343322754,"ranking":80,"id":1000569,"member_count":1,"lat":47.540000915527344},{"zip":"meetup155","country":"at","localized_country_name":"Austria","distance":9420.308275756968,"city":"Gloggnitz","lon":15.930000305175781,"ranking":81,"id":1000571,"member_count":1,"lat":47.66999816894531},{"zip":"meetup161","country":"at","localized_country_name":"Austria","distance":9535.78120573705,"city":"Tamsweg","lon":13.800000190734863,"ranking":82,"id":1000577,"member_count":1,"lat":47.13999938964844},{"zip":"meetup168","country":"at","localized_country_name":"Austria","distance":9575.687695609096,"city":"Mittersill","lon":12.479999542236328,"ranking":83,"id":1000584,"member_count":1,"lat":47.27000045776367},{"zip":"meetup174","country":"at","localized_country_name":"Austria","distance":9368.310394393286,"city":"Neusiedl am See","lon":16.84000015258789,"ranking":84,"id":1000590,"member_count":1,"lat":47.95000076293945},{"zip":"meetup175","country":"at","localized_country_name":"Austria","distance":9523.34614676425,"city":"Abtenau","lon":13.350000381469727,"ranking":85,"id":1000591,"member_count":1,"lat":47.54999923706055},{"zip":"meetup190","country":"at","localized_country_name":"Austria","distance":9404.732914083725,"city":"Melk","lon":15.319999694824219,"ranking":86,"id":1000606,"member_count":1,"lat":48.220001220703125},{"zip":"meetup193","country":"at","localized_country_name":"Austria","distance":9423.290349516179,"city":"Purgstall","lon":15.130000114440918,"ranking":87,"id":1000609,"member_count":1,"lat":48.04999923706055},{"zip":"meetup194","country":"at","localized_country_name":"Austria","distance":9503.96232915709,"city":"Bad Aussee","lon":13.779999732971191,"ranking":88,"id":1000610,"member_count":1,"lat":47.599998474121094},{"zip":"meetup195","country":"at","localized_country_name":"Austria","distance":9441.328804449875,"city":"Feldkirchen an der Donau","lon":14.050000190734863,"ranking":89,"id":1000611,"member_count":1,"lat":48.349998474121094},{"zip":"meetup199","country":"at","localized_country_name":"Austria","distance":9466.762437674628,"city":"Gleisdorf","lon":15.710000038146973,"ranking":90,"id":1000615,"member_count":1,"lat":47.11000061035156},{"zip":"meetup203","country":"at","localized_country_name":"Austria","distance":9559.26768600899,"city":"Ebbs","lon":12.220000267028809,"ranking":91,"id":1000619,"member_count":1,"lat":47.630001068115234},{"zip":"meetup207","country":"at","localized_country_name":"Austria","distance":9514.769449163176,"city":"Bergheim","lon":13.020000457763672,"ranking":92,"id":1000623,"member_count":1,"lat":47.84000015258789},{"zip":"meetup211","country":"at","localized_country_name":"Austria","distance":9510.756207385039,"city":"Bad Sankt Leonhard","lon":14.789999961853027,"ranking":93,"id":1000627,"member_count":1,"lat":46.970001220703125},{"zip":"meetup217","country":"at","localized_country_name":"Austria","distance":9458.350302598352,"city":"Bad Hall","lon":14.199999809265137,"ranking":94,"id":1000633,"member_count":1,"lat":48.029998779296875},{"zip":"meetup219","country":"at","localized_country_name":"Austria","distance":9560.866186306579,"city":"Bruck an der Großglocknerstraße","lon":12.819999694824219,"ranking":95,"id":1000635,"member_count":1,"lat":47.29999923706055},{"zip":"meetup226","country":"at","localized_country_name":"Austria","distance":9567.371656288346,"city":"Sankt Jakob","lon":14.069999694824219,"ranking":96,"id":1000642,"member_count":1,"lat":46.54999923706055},{"zip":"meetup232","country":"at","localized_country_name":"Austria","distance":9593.341219552593,"city":"Fügen","lon":11.850000381469727,"ranking":97,"id":1000648,"member_count":1,"lat":47.349998474121094},{"zip":"meetup233","country":"at","localized_country_name":"Austria","distance":9435.6393543842,"city":"Großpetersdorf","lon":16.309999465942383,"ranking":98,"id":1000649,"member_count":1,"lat":47.2400016784668},{"zip":"meetup11","country":"at","localized_country_name":"Austria","distance":9450.040074077808,"city":"Steyr","lon":14.40999984741211,"ranking":99,"id":1000427,"member_count":1,"lat":48.040000915527344},{"zip":"meetup20","country":"at","localized_country_name":"Austria","distance":9442.900336588424,"city":"Traun","lon":14.239999771118164,"ranking":100,"id":1000436,"member_count":1,"lat":48.22999954223633},{"zip":"meetup25","country":"at","localized_country_name":"Austria","distance":9668.277059761038,"city":"Lustenau","lon":9.65999984741211,"ranking":101,"id":1000441,"member_count":1,"lat":47.439998626708984},{"zip":"meetup26","country":"at","localized_country_name":"Austria","distance":9522.906355589703,"city":"Hallein","lon":13.109999656677246,"ranking":102,"id":1000442,"member_count":1,"lat":47.68000030517578},{"zip":"meetup27","country":"at","localized_country_name":"Austria","distance":9484.051547991428,"city":"Braunau","lon":13.039999961853027,"ranking":103,"id":1000443,"member_count":1,"lat":48.2599983215332},{"zip":"meetup28","country":"at","localized_country_name":"Austria","distance":9383.084718944367,"city":"Traiskirchen","lon":16.299999237060547,"ranking":104,"id":1000444,"member_count":1,"lat":48.02000045776367},{"zip":"meetup29","country":"at","localized_country_name":"Austria","distance":9571.188124535172,"city":"Spittal","lon":13.5,"ranking":105,"id":1000445,"member_count":1,"lat":46.79999923706055},{"zip":"meetup33","country":"at","localized_country_name":"Austria","distance":9413.250385418236,"city":"Ternitz","lon":16.030000686645508,"ranking":106,"id":1000449,"member_count":0,"lat":47.720001220703125},{"zip":"meetup42","country":"at","localized_country_name":"Austria","distance":9626.096109820875,"city":"Telfs","lon":11.069999694824219,"ranking":107,"id":1000458,"member_count":0,"lat":47.29999923706055},{"zip":"meetup43","country":"at","localized_country_name":"Austria","distance":9480.256996021386,"city":"Gmunden","lon":13.8100004196167,"ranking":108,"id":1000459,"member_count":0,"lat":47.91999816894531},{"zip":"meetup46","country":"at","localized_country_name":"Austria","distance":9598.539994340006,"city":"Schwaz","lon":11.729999542236328,"ranking":109,"id":1000462,"member_count":0,"lat":47.34000015258789},{"zip":"meetup47","country":"at","localized_country_name":"Austria","distance":9491.83764775387,"city":"Knittelfeld","lon":14.829999923706055,"ranking":110,"id":1000463,"member_count":0,"lat":47.220001220703125},{"zip":"meetup49","country":"at","localized_country_name":"Austria","distance":9479.35474197562,"city":"Vöcklabruck","lon":13.65999984741211,"ranking":111,"id":1000465,"member_count":0,"lat":48.0099983215332},{"zip":"meetup51","country":"at","localized_country_name":"Austria","distance":9442.197824974335,"city":"Waidhofen","lon":14.779999732971191,"ranking":112,"id":1000467,"member_count":0,"lat":47.959999084472656},{"zip":"meetup52","country":"at","localized_country_name":"Austria","distance":9664.515091361174,"city":"Hard","lon":9.680000305175781,"ranking":113,"id":1000468,"member_count":0,"lat":47.47999954223633},{"zip":"meetup57","country":"at","localized_country_name":"Austria","distance":9450.388748556576,"city":"Marchtrenk","lon":14.109999656677246,"ranking":114,"id":1000473,"member_count":0,"lat":48.189998626708984},{"zip":"meetup62","country":"at","localized_country_name":"Austria","distance":9389.361525984137,"city":"Bad Vöslau","lon":16.219999313354492,"ranking":115,"id":1000478,"member_count":0,"lat":47.970001220703125},{"zip":"meetup63","country":"at","localized_country_name":"Austria","distance":9574.603470970565,"city":"Wörgl","lon":12.079999923706055,"ranking":116,"id":1000479,"member_count":0,"lat":47.4900016784668},{"zip":"meetup64","country":"at","localized_country_name":"Austria","distance":9524.660598996337,"city":"Sankt Andrä","lon":14.8100004196167,"ranking":117,"id":1000480,"member_count":0,"lat":46.7599983215332},{"zip":"meetup68","country":"at","localized_country_name":"Austria","distance":9494.037045158495,"city":"Köflach","lon":15.069999694824219,"ranking":118,"id":1000484,"member_count":0,"lat":47.060001373291016},{"zip":"meetup73","country":"at","localized_country_name":"Austria","distance":9501.64183306257,"city":"Judenburg","lon":14.65999984741211,"ranking":119,"id":1000489,"member_count":0,"lat":47.16999816894531},{"zip":"meetup76","country":"at","localized_country_name":"Austria","distance":9434.604247139478,"city":"Mürzzuschlag","lon":15.670000076293945,"ranking":120,"id":1000492,"member_count":0,"lat":47.599998474121094},{"zip":"meetup77","country":"at","localized_country_name":"Austria","distance":9506.465080255743,"city":"Seekirchen","lon":13.130000114440918,"ranking":121,"id":1000493,"member_count":0,"lat":47.900001525878906},{"zip":"meetup78","country":"at","localized_country_name":"Austria","distance":9475.659813299255,"city":"Laakirchen","lon":13.819999694824219,"ranking":122,"id":1000494,"member_count":0,"lat":47.97999954223633},{"zip":"meetup79","country":"at","localized_country_name":"Austria","distance":9437.356904994927,"city":"Sankt Valentin","lon":14.510000228881836,"ranking":123,"id":1000495,"member_count":0,"lat":48.16999816894531},{"zip":"meetup82","country":"at","localized_country_name":"Austria","distance":9662.652239085714,"city":"Lauterach","lon":9.729999542236328,"ranking":124,"id":1000498,"member_count":0,"lat":47.47999954223633},{"zip":"meetup85","country":"at","localized_country_name":"Austria","distance":9566.386539024747,"city":"Kitzbühel","lon":12.380000114440918,"ranking":125,"id":1000501,"member_count":0,"lat":47.45000076293945},{"zip":"meetup86","country":"at","localized_country_name":"Austria","distance":9358.068174830933,"city":"Gerasdorf","lon":16.469999313354492,"ranking":126,"id":1000502,"member_count":0,"lat":48.29999923706055},{"zip":"meetup87","country":"at","localized_country_name":"Austria","distance":9378.619637911594,"city":"Guntramsdorf","lon":16.329999923706055,"ranking":127,"id":1000503,"member_count":0,"lat":48.06999969482422},{"zip":"meetup88","country":"at","localized_country_name":"Austria","distance":9454.02537554964,"city":"Sierning","lon":14.300000190734863,"ranking":128,"id":1000504,"member_count":0,"lat":48.040000915527344},{"zip":"meetup90","country":"at","localized_country_name":"Austria","distance":9498.847565803182,"city":"Fohnsdorf","lon":14.65999984741211,"ranking":129,"id":1000506,"member_count":0,"lat":47.209999084472656},{"zip":"meetup93","country":"at","localized_country_name":"Austria","distance":9490.555957423076,"city":"Ebensee","lon":13.760000228881836,"ranking":130,"id":1000509,"member_count":0,"lat":47.79999923706055},{"zip":"meetup94","country":"at","localized_country_name":"Austria","distance":9361.939649985457,"city":"Groß-Enzersdorf","lon":16.549999237060547,"ranking":131,"id":1000510,"member_count":0,"lat":48.20000076293945},{"zip":"meetup95","country":"at","localized_country_name":"Austria","distance":9472.011394582792,"city":"Trofaiach","lon":14.989999771118164,"ranking":132,"id":1000511,"member_count":0,"lat":47.41999816894531},{"zip":"meetup96","country":"at","localized_country_name":"Austria","distance":9345.380418792747,"city":"Gänserndorf","lon":16.75,"ranking":133,"id":1000512,"member_count":0,"lat":48.34000015258789},{"zip":"meetup97","country":"at","localized_country_name":"Austria","distance":9573.212765076161,"city":"Finkenstein","lon":13.859999656677246,"ranking":134,"id":1000513,"member_count":0,"lat":46.58000183105469},{"zip":"meetup98","country":"at","localized_country_name":"Austria","distance":9377.353305258504,"city":"Maria Enzersdorf","lon":16.290000915527344,"ranking":135,"id":1000514,"member_count":0,"lat":48.11000061035156},{"zip":"meetup99","country":"at","localized_country_name":"Austria","distance":9545.885046475129,"city":"Sankt Johann in Tirol","lon":14.470000267028809,"ranking":136,"id":1000515,"member_count":0,"lat":46.63999938964844},{"zip":"meetup100","country":"at","localized_country_name":"Austria","distance":9373.856728159486,"city":"Purkersdorf","lon":16.18000030517578,"ranking":137,"id":1000516,"member_count":0,"lat":48.220001220703125},{"zip":"meetup102","country":"at","localized_country_name":"Austria","distance":9505.45223402964,"city":"Deutschlandsberg","lon":15.210000038146973,"ranking":138,"id":1000518,"member_count":0,"lat":46.81999969482422},{"zip":"meetup237","country":"at","localized_country_name":"Austria","distance":9436.06832674469,"city":"Mariazell","lon":15.3100004196167,"ranking":139,"id":1110342,"member_count":0,"lat":47.77000045776367},{"zip":"meetup103","country":"at","localized_country_name":"Austria","distance":9426.974510784274,"city":"Engerwitzdorf","lon":14.449999809265137,"ranking":140,"id":1000519,"member_count":0,"lat":48.349998474121094},{"zip":"meetup104","country":"at","localized_country_name":"Austria","distance":9388.384749766075,"city":"Herzogenburg","lon":15.680000305175781,"ranking":141,"id":1000520,"member_count":0,"lat":48.27000045776367},{"zip":"meetup105","country":"at","localized_country_name":"Austria","distance":9507.379723332355,"city":"Bad Goisern","lon":13.609999656677246,"ranking":142,"id":1000521,"member_count":0,"lat":47.63999938964844},{"zip":"meetup107","country":"at","localized_country_name":"Austria","distance":9560.057068651107,"city":"Ferlach","lon":14.300000190734863,"ranking":143,"id":1000523,"member_count":0,"lat":46.529998779296875},{"zip":"meetup109","country":"at","localized_country_name":"Austria","distance":9552.910353147443,"city":"Ebenthal","lon":14.34000015258789,"ranking":144,"id":1000525,"member_count":0,"lat":46.61000061035156},{"zip":"meetup110","country":"at","localized_country_name":"Austria","distance":9657.068129082149,"city":"Landeck","lon":10.5600004196167,"ranking":145,"id":1000526,"member_count":0,"lat":47.13999938964844},{"zip":"meetup111","country":"at","localized_country_name":"Austria","distance":9362.358440712027,"city":"Langenzersdorf","lon":16.350000381469727,"ranking":146,"id":1000527,"member_count":0,"lat":48.29999923706055},{"zip":"meetup113","country":"at","localized_country_name":"Austria","distance":9384.11010941875,"city":"Neulengbach","lon":15.970000267028809,"ranking":147,"id":1000529,"member_count":0,"lat":48.18000030517578},{"zip":"meetup114","country":"at","localized_country_name":"Austria","distance":9470.617314922127,"city":"Vorchdorf","lon":13.920000076293945,"ranking":148,"id":1000530,"member_count":0,"lat":48},{"zip":"meetup115","country":"at","localized_country_name":"Austria","distance":9607.419353807678,"city":"Wattens","lon":11.59000015258789,"ranking":149,"id":1000531,"member_count":0,"lat":47.290000915527344},{"zip":"meetup116","country":"at","localized_country_name":"Austria","distance":9589.325445534208,"city":"Hermagor","lon":13.359999656677246,"ranking":150,"id":1000532,"member_count":0,"lat":46.619998931884766},{"zip":"meetup117","country":"at","localized_country_name":"Austria","distance":9365.775661069143,"city":"Bruck an der Leitha","lon":16.780000686645508,"ranking":151,"id":1000533,"member_count":0,"lat":48.02000045776367},{"zip":"meetup118","country":"at","localized_country_name":"Austria","distance":9667.132525413064,"city":"Höchst","lon":9.630000114440918,"ranking":152,"id":1000534,"member_count":0,"lat":47.470001220703125},{"zip":"meetup119","country":"at","localized_country_name":"Austria","distance":9348.192137949798,"city":"Strasshof","lon":16.690000534057617,"ranking":153,"id":1000535,"member_count":0,"lat":48.33000183105469},{"zip":"meetup120","country":"at","localized_country_name":"Austria","distance":9354.493889747338,"city":"Deutsch-Wagram","lon":16.56999969482422,"ranking":154,"id":1000536,"member_count":0,"lat":48.29999923706055},{"zip":"meetup121","country":"at","localized_country_name":"Austria","distance":9375.44751528006,"city":"Langenlois","lon":15.65999984741211,"ranking":155,"id":1000537,"member_count":0,"lat":48.470001220703125},{"zip":"meetup123","country":"at","localized_country_name":"Austria","distance":9378.275482030902,"city":"Sieghartskirchen","lon":16,"ranking":156,"id":1000539,"member_count":0,"lat":48.25},{"zip":"meetup124","country":"at","localized_country_name":"Austria","distance":9494.60294132412,"city":"Straßwalchen","lon":13.260000228881836,"ranking":157,"id":1000540,"member_count":0,"lat":48},{"zip":"meetup127","country":"at","localized_country_name":"Austria","distance":9451.799535979264,"city":"Garsten","lon":14.399999618530273,"ranking":158,"id":1000543,"member_count":0,"lat":48.02000045776367},{"zip":"meetup131","country":"at","localized_country_name":"Austria","distance":9391.079564671549,"city":"Kottingbrunn","lon":16.209999084472656,"ranking":159,"id":1000547,"member_count":0,"lat":47.95000076293945},{"zip":"meetup132","country":"at","localized_country_name":"Austria","distance":9402.88548374898,"city":"Wilhelmsburg","lon":15.600000381469727,"ranking":160,"id":1000548,"member_count":0,"lat":48.099998474121094},{"zip":"meetup133","country":"at","localized_country_name":"Austria","distance":9522.269622768314,"city":"Grödig","lon":13.029999732971191,"ranking":161,"id":1000549,"member_count":0,"lat":47.72999954223633},{"zip":"meetup134","country":"at","localized_country_name":"Austria","distance":9525.375300846646,"city":"Kuchl","lon":13.140000343322754,"ranking":162,"id":1000550,"member_count":0,"lat":47.630001068115234},{"zip":"meetup135","country":"at","localized_country_name":"Austria","distance":9436.301340958411,"city":"Oberwart","lon":16.200000762939453,"ranking":163,"id":1000551,"member_count":0,"lat":47.290000915527344},{"zip":"meetup136","country":"at","localized_country_name":"Austria","distance":9364.301497965382,"city":"Sankt Andrä-Wördern","lon":16.219999313354492,"ranking":164,"id":1000552,"member_count":0,"lat":48.34000015258789},{"zip":"meetup137","country":"at","localized_country_name":"Austria","distance":9478.765497951848,"city":"Gratkorn","lon":15.350000381469727,"ranking":165,"id":1000553,"member_count":0,"lat":47.130001068115234},{"zip":"meetup138","country":"at","localized_country_name":"Austria","distance":9563.272068094353,"city":"Radentheim","lon":13.710000038146973,"ranking":166,"id":1000554,"member_count":0,"lat":46.79999923706055},{"zip":"meetup140","country":"at","localized_country_name":"Austria","distance":9459.847487343755,"city":"Kremsmünster","lon":14.119999885559082,"ranking":167,"id":1000556,"member_count":0,"lat":48.04999923706055},{"zip":"meetup141","country":"at","localized_country_name":"Austria","distance":9470.205697249345,"city":"Frohnleiten","lon":15.319999694824219,"ranking":168,"id":1000557,"member_count":0,"lat":47.27000045776367},{"zip":"meetup144","country":"at","localized_country_name":"Austria","distance":9620.858348151269,"city":"Zirl","lon":11.229999542236328,"ranking":169,"id":1000560,"member_count":0,"lat":47.290000915527344},{"zip":"meetup145","country":"at","localized_country_name":"Austria","distance":9656.636085162661,"city":"Hörbranz","lon":9.75,"ranking":170,"id":1000561,"member_count":0,"lat":47.54999923706055},{"zip":"meetup146","country":"at","localized_country_name":"Austria","distance":9349.867471644786,"city":"Wolkersdorf","lon":16.530000686645508,"ranking":171,"id":1000562,"member_count":0,"lat":48.38999938964844},{"zip":"meetup147","country":"at","localized_country_name":"Austria","distance":9687.133153344877,"city":"Frastanz","lon":9.619999885559082,"ranking":172,"id":1000563,"member_count":0,"lat":47.209999084472656},{"zip":"meetup150","country":"at","localized_country_name":"Austria","distance":9571.976711555415,"city":"Paternion","lon":13.630000114440918,"ranking":173,"id":1000566,"member_count":0,"lat":46.720001220703125},{"zip":"meetup151","country":"at","localized_country_name":"Austria","distance":9436.777575470316,"city":"Asten","lon":14.40999984741211,"ranking":174,"id":1000567,"member_count":0,"lat":48.22999954223633},{"zip":"meetup154","country":"at","localized_country_name":"Austria","distance":9427.712093701095,"city":"Gallneukirchen","lon":14.40999984741211,"ranking":175,"id":1000570,"member_count":0,"lat":48.36000061035156},{"zip":"meetup156","country":"at","localized_country_name":"Austria","distance":9441.541545938444,"city":"Pasching","lon":14.199999809265137,"ranking":176,"id":1000572,"member_count":0,"lat":48.27000045776367},{"zip":"meetup157","country":"at","localized_country_name":"Austria","distance":9569.762995136452,"city":"Seeboden","lon":13.5,"ranking":177,"id":1000573,"member_count":0,"lat":46.81999969482422},{"zip":"meetup158","country":"at","localized_country_name":"Austria","distance":9543.339564055676,"city":"Eberndorf","lon":14.630000114440918,"ranking":178,"id":1000574,"member_count":0,"lat":46.59000015258789},{"zip":"meetup159","country":"at","localized_country_name":"Austria","distance":9386.237746209992,"city":"Pottendorf","lon":16.399999618530273,"ranking":179,"id":1000575,"member_count":0,"lat":47.91999816894531},{"zip":"meetup163","country":"at","localized_country_name":"Austria","distance":9378.661088078046,"city":"Gmünd","lon":14.989999771118164,"ranking":180,"id":1000579,"member_count":0,"lat":48.77000045776367},{"zip":"meetup164","country":"at","localized_country_name":"Austria","distance":9471.053141614295,"city":"Micheldorf","lon":14.140000343322754,"ranking":181,"id":1000580,"member_count":0,"lat":47.880001068115234},{"zip":"meetup166","country":"at","localized_country_name":"Austria","distance":9675.44014508649,"city":"Altach","lon":9.649999618530273,"ranking":182,"id":1000582,"member_count":0,"lat":47.349998474121094},{"zip":"meetup167","country":"at","localized_country_name":"Austria","distance":9447.80177923789,"city":"Kindberg","lon":15.460000038146973,"ranking":183,"id":1000583,"member_count":0,"lat":47.52000045776367},{"zip":"meetup170","country":"at","localized_country_name":"Austria","distance":9625.067286497233,"city":"Reutte","lon":10.720000267028809,"ranking":184,"id":1000586,"member_count":0,"lat":47.4900016784668},{"zip":"meetup171","country":"at","localized_country_name":"Austria","distance":9374.459277873695,"city":"Schrems","lon":15.069999694824219,"ranking":185,"id":1000587,"member_count":0,"lat":48.790000915527344},{"zip":"meetup172","country":"at","localized_country_name":"Austria","distance":9481.534346386774,"city":"Timelkam","lon":13.600000381469727,"ranking":186,"id":1000588,"member_count":0,"lat":48.0099983215332},{"zip":"meetup176","country":"at","localized_country_name":"Austria","distance":9327.521091990966,"city":"Poysdorf","lon":16.6299991607666,"ranking":187,"id":1000592,"member_count":0,"lat":48.66999816894531},{"zip":"meetup177","country":"at","localized_country_name":"Austria","distance":9380.419761889414,"city":"Traismauer","lon":15.75,"ranking":188,"id":1000593,"member_count":0,"lat":48.349998474121094},{"zip":"meetup178","country":"at","localized_country_name":"Austria","distance":9331.62781652448,"city":"Zistersdorf","lon":16.760000228881836,"ranking":189,"id":1000594,"member_count":0,"lat":48.540000915527344},{"zip":"meetup179","country":"at","localized_country_name":"Austria","distance":9474.297885142278,"city":"Oberndorf","lon":13.329999923706055,"ranking":190,"id":1000595,"member_count":0,"lat":48.25},{"zip":"meetup180","country":"at","localized_country_name":"Austria","distance":9487.214098759252,"city":"Sankt Florian","lon":13.130000114440918,"ranking":191,"id":1000596,"member_count":0,"lat":48.16999816894531},{"zip":"meetup181","country":"at","localized_country_name":"Austria","distance":9416.481766095396,"city":"Ybbs","lon":15.069999694824219,"ranking":192,"id":1000597,"member_count":0,"lat":48.18000030517578},{"zip":"meetup182","country":"at","localized_country_name":"Austria","distance":9374.342439845688,"city":"Himberg","lon":16.43000030517578,"ranking":193,"id":1000598,"member_count":0,"lat":48.08000183105469},{"zip":"meetup183","country":"at","localized_country_name":"Austria","distance":9479.678378907496,"city":"Regau","lon":13.6899995803833,"ranking":194,"id":1000599,"member_count":0,"lat":47.9900016784668},{"zip":"meetup184","country":"at","localized_country_name":"Austria","distance":9526.754101842032,"city":"Friesach","lon":14.399999618530273,"ranking":195,"id":1000600,"member_count":0,"lat":46.95000076293945},{"zip":"meetup185","country":"at","localized_country_name":"Austria","distance":9488.619102188528,"city":"Rottenmann","lon":14.350000381469727,"ranking":196,"id":1000601,"member_count":0,"lat":47.52000045776367},{"zip":"meetup186","country":"at","localized_country_name":"Austria","distance":9573.817805546363,"city":"Hopfgarten","lon":12.15999984741211,"ranking":197,"id":1000602,"member_count":0,"lat":47.459999084472656},{"zip":"meetup187","country":"at","localized_country_name":"Austria","distance":9445.422192346776,"city":"Hörsching","lon":14.170000076293945,"ranking":198,"id":1000603,"member_count":0,"lat":48.22999954223633},{"zip":"meetup188","country":"at","localized_country_name":"Austria","distance":9620.765965783661,"city":"Axams","lon":11.390000343322754,"ranking":199,"id":1000604,"member_count":0,"lat":47.209999084472656}],"meta":{"next":"http:\/\/api.meetup.com\/2\/cities?country=at&offset=1&sign=True&format=json&photo-host=public&page=200&radius=50&order=size&desc=false","method":"Cities","total_count":237,"link":"http:\/\/api.meetup.com\/2\/cities","count":200,"description":"Returns Meetup cities. This method supports search by latitude\/longitude\/radius, by country\/state, by query term\/zip, or a combination of all of these. Location-only searches by lat and lon return all cities within a radius of the provided coordinates. Searches with a query return up to 10 cities matching the term, and can be sorted by size or distance to a given coordinate. 'smart' ordering can be used to return the match(es) with the highest member_count, unless a smaller size match exists nearby the given coordinates. Query searches are supported for country but not country and state","lon":"None","title":"Cities","url":"http:\/\/api.meetup.com\/2\/cities?country=at&offset=0&sign=True&format=json&photo-host=public&page=200&radius=50&order=size&desc=false","id":"","updated":1414620424000,"lat":"None"}}
