{"results":[{"zip":"meetup1","country":"az","localized_country_name":"Azerbaijan","distance":8467.869217440038,"city":"Baki","lon":49.86000061035156,"ranking":0,"id":1000865,"member_count":136,"lat":40.38999938964844},{"zip":"meetup27","country":"az","localized_country_name":"Azerbaijan","distance":8578.95107952139,"city":"Agcabädi","lon":47.439998626708984,"ranking":1,"id":1000891,"member_count":11,"lat":40.04999923706055},{"zip":"meetup3","country":"az","localized_country_name":"Azerbaijan","distance":8470.372184524249,"city":"Sumqayit","lon":49.63999938964844,"ranking":2,"id":1000867,"member_count":5,"lat":40.59000015258789},{"zip":"meetup56","country":"az","localized_country_name":"Azerbaijan","distance":8463.253183542794,"city":"Balaxani","lon":49.90999984741211,"ranking":3,"id":1000920,"member_count":3,"lat":40.470001220703125},{"zip":"meetup100","country":"az","localized_country_name":"Azerbaijan","distance":8547.707701678006,"city":"Bas Göynük","lon":47.11000061035156,"ranking":4,"id":1000964,"member_count":1,"lat":41.33000183105469},{"zip":"meetup102","country":"az","localized_country_name":"Azerbaijan","distance":8517.885178003095,"city":"Bidzhov","lon":48.540000915527344,"ranking":5,"id":1000966,"member_count":1,"lat":40.5099983215332},{"zip":"meetup115","country":"az","localized_country_name":"Azerbaijan","distance":8619.195677758857,"city":"Cäbrayil","lon":47.029998779296875,"ranking":6,"id":1000979,"member_count":1,"lat":39.38999938964844},{"zip":"meetup2","country":"az","localized_country_name":"Azerbaijan","distance":8601.660547110347,"city":"Gäncä","lon":46.349998474121094,"ranking":7,"id":1000866,"member_count":1,"lat":40.68000030517578},{"zip":"meetup7","country":"az","localized_country_name":"Azerbaijan","distance":8464.366377828626,"city":"Bakixanov","lon":49.93000030517578,"ranking":8,"id":1000871,"member_count":1,"lat":40.40999984741211},{"zip":"meetup9","country":"az","localized_country_name":"Azerbaijan","distance":8549.851504457372,"city":"Säki","lon":47.16999816894531,"ranking":9,"id":1000873,"member_count":1,"lat":41.20000076293945},{"zip":"meetup12","country":"az","localized_country_name":"Azerbaijan","distance":8571.415225355147,"city":"Yevlax","lon":47.13999938964844,"ranking":10,"id":1000876,"member_count":1,"lat":40.619998931884766},{"zip":"meetup13","country":"az","localized_country_name":"Azerbaijan","distance":8457.74649457676,"city":"Mastaga","lon":49.9900016784668,"ranking":11,"id":1000877,"member_count":1,"lat":40.540000915527344},{"zip":"meetup30","country":"az","localized_country_name":"Azerbaijan","distance":8453.097379693376,"city":"Buzovna","lon":50.119998931884766,"ranking":12,"id":1000894,"member_count":1,"lat":40.52000045776367},{"zip":"meetup33","country":"az","localized_country_name":"Azerbaijan","distance":8490.588803567965,"city":"Quba","lon":48.5,"ranking":13,"id":1000897,"member_count":1,"lat":41.369998931884766},{"zip":"meetup37","country":"az","localized_country_name":"Azerbaijan","distance":8476.182016394694,"city":"Siyäzän","lon":49.099998474121094,"ranking":14,"id":1000901,"member_count":1,"lat":41.08000183105469},{"zip":"meetup40","country":"az","localized_country_name":"Azerbaijan","distance":8476.704321195564,"city":"Däväçi","lon":48.97999954223633,"ranking":15,"id":1000904,"member_count":1,"lat":41.209999084472656},{"zip":"meetup50","country":"az","localized_country_name":"Azerbaijan","distance":8554.404935737386,"city":"Ucar","lon":47.63999938964844,"ranking":16,"id":1000914,"member_count":1,"lat":40.52000045776367},{"zip":"meetup54","country":"az","localized_country_name":"Azerbaijan","distance":8545.035167515563,"city":"Saatli","lon":48.380001068115234,"ranking":17,"id":1000918,"member_count":1,"lat":39.900001525878906},{"zip":"meetup63","country":"az","localized_country_name":"Azerbaijan","distance":8456.787777829804,"city":"Suraxani","lon":50.099998474121094,"ranking":18,"id":1000927,"member_count":1,"lat":40.43000030517578},{"zip":"meetup96","country":"az","localized_country_name":"Azerbaijan","distance":8632.856693453728,"city":"Laçin","lon":46.529998779296875,"ranking":19,"id":1000960,"member_count":0,"lat":39.599998474121094},{"zip":"meetup97","country":"az","localized_country_name":"Azerbaijan","distance":8601.787444269057,"city":"Xocavänd","lon":47.11000061035156,"ranking":20,"id":1000961,"member_count":0,"lat":39.790000915527344},{"zip":"meetup98","country":"az","localized_country_name":"Azerbaijan","distance":8560.349909276038,"city":"Böyük Dähnä","lon":47.11000061035156,"ranking":21,"id":1000962,"member_count":0,"lat":40.970001220703125},{"zip":"meetup99","country":"az","localized_country_name":"Azerbaijan","distance":8532.05308364992,"city":"Sigirli","lon":48.400001525878906,"ranking":22,"id":1000963,"member_count":0,"lat":40.2599983215332},{"zip":"meetup101","country":"az","localized_country_name":"Azerbaijan","distance":8588.073628343418,"city":"Naftalan","lon":46.81999969482422,"ranking":23,"id":1000965,"member_count":0,"lat":40.52000045776367},{"zip":"meetup103","country":"az","localized_country_name":"Azerbaijan","distance":8635.455010356402,"city":"Kälbäcär","lon":46.029998779296875,"ranking":24,"id":1000967,"member_count":0,"lat":40.11000061035156},{"zip":"meetup104","country":"az","localized_country_name":"Azerbaijan","distance":8598.01749517419,"city":"Safaraliyev","lon":46.36000061035156,"ranking":25,"id":1000968,"member_count":0,"lat":40.77000045776367},{"zip":"meetup105","country":"az","localized_country_name":"Azerbaijan","distance":8624.959378548143,"city":"Slavjanka","lon":45.79999923706055,"ranking":26,"id":1000969,"member_count":0,"lat":40.65999984741211},{"zip":"meetup106","country":"az","localized_country_name":"Azerbaijan","distance":8619.2551285522,"city":"Varanda","lon":45.93000030517578,"ranking":27,"id":1000970,"member_count":0,"lat":40.66999816894531},{"zip":"meetup107","country":"az","localized_country_name":"Azerbaijan","distance":8645.84560590973,"city":"Zängilän","lon":46.65999984741211,"ranking":28,"id":1000971,"member_count":0,"lat":39.08000183105469},{"zip":"meetup108","country":"az","localized_country_name":"Azerbaijan","distance":8527.557557114176,"city":"Ivanovka","lon":48.02000045776367,"ranking":29,"id":1000972,"member_count":0,"lat":40.849998474121094},{"zip":"meetup109","country":"az","localized_country_name":"Azerbaijan","distance":8568.000823126415,"city":"Danaçi","lon":46.40999984741211,"ranking":30,"id":1000973,"member_count":0,"lat":41.54999923706055},{"zip":"meetup110","country":"az","localized_country_name":"Azerbaijan","distance":8528.996523062644,"city":"Juzhno-Sahalinsk","lon":48.75,"ranking":31,"id":1000974,"member_count":0,"lat":39.91999816894531},{"zip":"meetup111","country":"az","localized_country_name":"Azerbaijan","distance":8477.818944259896,"city":"Puta","lon":49.68000030517578,"ranking":32,"id":1000975,"member_count":0,"lat":40.310001373291016},{"zip":"meetup112","country":"az","localized_country_name":"Azerbaijan","distance":8590.434446229941,"city":"Qazanbulaq","lon":46.650001525878906,"ranking":33,"id":1000976,"member_count":0,"lat":40.650001525878906},{"zip":"meetup113","country":"az","localized_country_name":"Azerbaijan","distance":8585.12668839589,"city":"Kizilgacili","lon":46.84000015258789,"ranking":34,"id":1000977,"member_count":0,"lat":40.58000183105469},{"zip":"meetup114","country":"az","localized_country_name":"Azerbaijan","distance":8451.354487414528,"city":"Zirya","lon":50.279998779296875,"ranking":35,"id":1000978,"member_count":0,"lat":40.369998931884766},{"zip":"meetup116","country":"az","localized_country_name":"Azerbaijan","distance":8585.350535052034,"city":"Goranboy","lon":46.79999923706055,"ranking":36,"id":1000980,"member_count":0,"lat":40.619998931884766},{"zip":"meetup117","country":"az","localized_country_name":"Azerbaijan","distance":8696.804371583647,"city":"Särur","lon":45.04999923706055,"ranking":37,"id":1000981,"member_count":0,"lat":39.560001373291016},{"zip":"meetup118","country":"az","localized_country_name":"Azerbaijan","distance":8542.913388100009,"city":"Oguz","lon":46.86000061035156,"ranking":38,"id":1000982,"member_count":0,"lat":41.75},{"zip":"meetup119","country":"az","localized_country_name":"Azerbaijan","distance":8592.696168596152,"city":"Dälimämmädli","lon":46.560001373291016,"ranking":39,"id":1000983,"member_count":0,"lat":40.689998626708984},{"zip":"meetup120","country":"az","localized_country_name":"Azerbaijan","distance":8643.871670769153,"city":"Istisu","lon":45.95000076293945,"ranking":40,"id":1000984,"member_count":0,"lat":39.970001220703125},{"zip":"meetup4","country":"az","localized_country_name":"Azerbaijan","distance":8570.232049228916,"city":"Mingäçevir","lon":47.040000915527344,"ranking":41,"id":1000868,"member_count":0,"lat":40.77000045776367},{"zip":"meetup5","country":"az","localized_country_name":"Azerbaijan","distance":8522.026080581036,"city":"Äli Bayramli","lon":48.90999984741211,"ranking":42,"id":1000869,"member_count":0,"lat":39.93000030517578},{"zip":"meetup6","country":"az","localized_country_name":"Azerbaijan","distance":8694.087320789284,"city":"Naxçivan","lon":45.40999984741211,"ranking":43,"id":1000870,"member_count":0,"lat":39.220001220703125},{"zip":"meetup8","country":"az","localized_country_name":"Azerbaijan","distance":8615.794690091505,"city":"Xankändi","lon":46.75,"ranking":44,"id":1000872,"member_count":0,"lat":39.81999969482422},{"zip":"meetup10","country":"az","localized_country_name":"Azerbaijan","distance":8462.820496422592,"city":"Qarasuxur","lon":49.959999084472656,"ranking":45,"id":1000874,"member_count":0,"lat":40.41999816894531},{"zip":"meetup11","country":"az","localized_country_name":"Azerbaijan","distance":8564.147079204366,"city":"Länkäran","lon":48.84000015258789,"ranking":46,"id":1000875,"member_count":0,"lat":38.75},{"zip":"meetup14","country":"az","localized_country_name":"Azerbaijan","distance":8467.805087620176,"city":"Räsulzadä","lon":49.83000183105469,"ranking":47,"id":1000878,"member_count":0,"lat":40.43000030517578},{"zip":"meetup15","country":"az","localized_country_name":"Azerbaijan","distance":8469.029939712542,"city":"Biläcäri","lon":49.79999923706055,"ranking":48,"id":1000879,"member_count":0,"lat":40.43000030517578},{"zip":"meetup16","country":"az","localized_country_name":"Azerbaijan","distance":8458.882819183511,"city":"Hövsan","lon":50.08000183105469,"ranking":49,"id":1000880,"member_count":0,"lat":40.38999938964844},{"zip":"meetup17","country":"az","localized_country_name":"Azerbaijan","distance":8545.888916560167,"city":"Göyçay","lon":47.72999954223633,"ranking":50,"id":1000881,"member_count":0,"lat":40.65999984741211},{"zip":"meetup18","country":"az","localized_country_name":"Azerbaijan","distance":8580.722907927417,"city":"Bärdä","lon":47.11000061035156,"ranking":51,"id":1000882,"member_count":0,"lat":40.38999938964844},{"zip":"meetup19","country":"az","localized_country_name":"Azerbaijan","distance":8531.223460740823,"city":"Salyan","lon":48.959999084472656,"ranking":52,"id":1000883,"member_count":0,"lat":39.59000015258789},{"zip":"meetup20","country":"az","localized_country_name":"Azerbaijan","distance":8475.267126349478,"city":"Xaçmaz","lon":48.79999923706055,"ranking":53,"id":1000884,"member_count":0,"lat":41.470001220703125},{"zip":"meetup21","country":"az","localized_country_name":"Azerbaijan","distance":8469.523561963293,"city":"Xirdalan","lon":49.779998779296875,"ranking":54,"id":1000885,"member_count":0,"lat":40.439998626708984},{"zip":"meetup22","country":"az","localized_country_name":"Azerbaijan","distance":8602.680868768117,"city":"Agdam","lon":46.91999816894531,"ranking":55,"id":1000886,"member_count":0,"lat":39.9900016784668},{"zip":"meetup23","country":"az","localized_country_name":"Azerbaijan","distance":8610.163638110522,"city":"Sämkir","lon":46.0099983215332,"ranking":56,"id":1000887,"member_count":0,"lat":40.83000183105469},{"zip":"meetup24","country":"az","localized_country_name":"Azerbaijan","distance":8563.663957715211,"city":"Cälilabad","lon":48.4900016784668,"ranking":57,"id":1000888,"member_count":0,"lat":39.209999084472656},{"zip":"meetup25","country":"az","localized_country_name":"Azerbaijan","distance":8559.782769558813,"city":"Imisli","lon":48.04999923706055,"ranking":58,"id":1000889,"member_count":0,"lat":39.869998931884766},{"zip":"meetup26","country":"az","localized_country_name":"Azerbaijan","distance":8523.95011399177,"city":"Qarasu","lon":48.66999816894531,"ranking":59,"id":1000890,"member_count":0,"lat":40.16999816894531},{"zip":"meetup28","country":"az","localized_country_name":"Azerbaijan","distance":8509.847024891063,"city":"Samaxi","lon":48.630001068115234,"ranking":60,"id":1000892,"member_count":0,"lat":40.63999938964844},{"zip":"meetup29","country":"az","localized_country_name":"Azerbaijan","distance":8475.447175902591,"city":"Lökbatan","lon":49.72999954223633,"ranking":61,"id":1000893,"member_count":0,"lat":40.31999969482422},{"zip":"meetup31","country":"az","localized_country_name":"Azerbaijan","distance":8517.545580105838,"city":"Qazimämmäd","lon":48.93000030517578,"ranking":62,"id":1000895,"member_count":0,"lat":40.040000915527344},{"zip":"meetup32","country":"az","localized_country_name":"Azerbaijan","distance":8456.96373484239,"city":"Bina","lon":50.08000183105469,"ranking":63,"id":1000896,"member_count":0,"lat":40.45000076293945},{"zip":"meetup34","country":"az","localized_country_name":"Azerbaijan","distance":8557.270099880052,"city":"Agdas","lon":47.459999084472656,"ranking":64,"id":1000898,"member_count":0,"lat":40.650001525878906},{"zip":"meetup35","country":"az","localized_country_name":"Azerbaijan","distance":8582.409394821207,"city":"Beyläqan","lon":47.59000015258789,"ranking":65,"id":1000899,"member_count":0,"lat":39.77000045776367},{"zip":"meetup36","country":"az","localized_country_name":"Azerbaijan","distance":8627.18481072316,"city":"Qazax","lon":45.349998474121094,"ranking":66,"id":1000900,"member_count":0,"lat":41.099998474121094},{"zip":"meetup38","country":"az","localized_country_name":"Azerbaijan","distance":8553.498041778917,"city":"Biläsuvar","lon":48.540000915527344,"ranking":67,"id":1000902,"member_count":0,"lat":39.45000076293945},{"zip":"meetup39","country":"az","localized_country_name":"Azerbaijan","distance":8537.512879828231,"city":"Sabirabad","lon":48.47999954223633,"ranking":68,"id":1000903,"member_count":0,"lat":40},{"zip":"meetup41","country":"az","localized_country_name":"Azerbaijan","distance":8462.586156759227,"city":"Sabunçu","lon":49.95000076293945,"ranking":69,"id":1000905,"member_count":0,"lat":40.439998626708984},{"zip":"meetup42","country":"az","localized_country_name":"Azerbaijan","distance":8555.58564956595,"city":"Zaqatala","lon":46.63999938964844,"ranking":70,"id":1000906,"member_count":0,"lat":41.63999938964844},{"zip":"meetup43","country":"az","localized_country_name":"Azerbaijan","distance":8621.477103571078,"city":"Daskäsän","lon":46.06999969482422,"ranking":71,"id":1000907,"member_count":0,"lat":40.45000076293945},{"zip":"meetup44","country":"az","localized_country_name":"Azerbaijan","distance":8606.486773267796,"city":"Xanlar","lon":46.31999969482422,"ranking":72,"id":1000908,"member_count":0,"lat":40.58000183105469},{"zip":"meetup45","country":"az","localized_country_name":"Azerbaijan","distance":8564.797919353283,"city":"Füzuli","lon":48.150001525878906,"ranking":73,"id":1000909,"member_count":0,"lat":39.599998474121094},{"zip":"meetup46","country":"az","localized_country_name":"Azerbaijan","distance":8539.702873478736,"city":"Kürdämir","lon":48.13999938964844,"ranking":74,"id":1000910,"member_count":0,"lat":40.349998474121094},{"zip":"meetup47","country":"az","localized_country_name":"Azerbaijan","distance":8617.922555819354,"city":"Susa","lon":46.75,"ranking":75,"id":1000911,"member_count":0,"lat":39.7599983215332},{"zip":"meetup48","country":"az","localized_country_name":"Azerbaijan","distance":8562.825778647584,"city":"Masalli","lon":48.65999984741211,"ranking":76,"id":1000912,"member_count":0,"lat":39.02000045776367},{"zip":"meetup49","country":"az","localized_country_name":"Azerbaijan","distance":8485.66427253292,"city":"Sanqaçal","lon":49.560001373291016,"ranking":77,"id":1000913,"member_count":0,"lat":40.220001220703125},{"zip":"meetup51","country":"az","localized_country_name":"Azerbaijan","distance":8521.995989865876,"city":"Agsu","lon":48.38999938964844,"ranking":78,"id":1000915,"member_count":0,"lat":40.56999969482422},{"zip":"meetup52","country":"az","localized_country_name":"Azerbaijan","distance":8526.979664026047,"city":"Neftçala","lon":49.25,"ranking":79,"id":1000916,"member_count":0,"lat":39.349998474121094},{"zip":"meetup53","country":"az","localized_country_name":"Azerbaijan","distance":8492.103733253334,"city":"Qusar","lon":48.41999816894531,"ranking":80,"id":1000917,"member_count":0,"lat":41.41999816894531},{"zip":"meetup55","country":"az","localized_country_name":"Azerbaijan","distance":8620.244089460703,"city":"Tovuz","lon":45.619998931884766,"ranking":81,"id":1000919,"member_count":0,"lat":40.9900016784668},{"zip":"meetup57","country":"az","localized_country_name":"Azerbaijan","distance":8530.404050411624,"city":"Qäbälä","lon":47.84000015258789,"ranking":82,"id":1000921,"member_count":0,"lat":40.97999954223633},{"zip":"meetup58","country":"az","localized_country_name":"Azerbaijan","distance":8601.267991357134,"city":"Qaracämirli","lon":46.209999084472656,"ranking":83,"id":1000922,"member_count":0,"lat":40.849998474121094},{"zip":"meetup59","country":"az","localized_country_name":"Azerbaijan","distance":8446.141131960609,"city":"Artyom","lon":50.33000183105469,"ranking":84,"id":1000923,"member_count":0,"lat":40.470001220703125},{"zip":"meetup60","country":"az","localized_country_name":"Azerbaijan","distance":8573.659368415887,"city":"Astara","lon":48.849998474121094,"ranking":85,"id":1000924,"member_count":0,"lat":38.45000076293945},{"zip":"meetup61","country":"az","localized_country_name":"Azerbaijan","distance":8589.908597181797,"city":"Tärtär","lon":46.93000030517578,"ranking":86,"id":1000925,"member_count":0,"lat":40.34000015258789},{"zip":"meetup62","country":"az","localized_country_name":"Azerbaijan","distance":8554.180112360142,"city":"Amircan","lon":46.869998931884766,"ranking":87,"id":1000926,"member_count":0,"lat":41.41999816894531},{"zip":"meetup64","country":"az","localized_country_name":"Azerbaijan","distance":8551.771447617626,"city":"Qax","lon":46.93000030517578,"ranking":88,"id":1000928,"member_count":0,"lat":41.41999816894531},{"zip":"meetup65","country":"az","localized_country_name":"Azerbaijan","distance":8524.32052239081,"city":"Ismayilli","lon":48.150001525878906,"ranking":89,"id":1000929,"member_count":0,"lat":40.790000915527344},{"zip":"meetup66","country":"az","localized_country_name":"Azerbaijan","distance":8474.370527800713,"city":"Xudat","lon":48.68000030517578,"ranking":90,"id":1000930,"member_count":0,"lat":41.63999938964844},{"zip":"meetup67","country":"az","localized_country_name":"Azerbaijan","distance":8562.027156440876,"city":"Göytäpä","lon":48.599998474121094,"ranking":91,"id":1000931,"member_count":0,"lat":39.119998931884766},{"zip":"meetup68","country":"az","localized_country_name":"Azerbaijan","distance":8622.748655331681,"city":"Agstafa","lon":45.45000076293945,"ranking":92,"id":1000932,"member_count":0,"lat":41.11000061035156},{"zip":"meetup69","country":"az","localized_country_name":"Azerbaijan","distance":8473.138472415536,"city":"Haci Zeynalabdin","lon":49.540000915527344,"ranking":93,"id":1000933,"member_count":0,"lat":40.630001068115234},{"zip":"meetup70","country":"az","localized_country_name":"Azerbaijan","distance":8562.370259792287,"city":"Kizilavar","lon":48.709999084472656,"ranking":94,"id":1000934,"member_count":0,"lat":38.970001220703125},{"zip":"meetup71","country":"az","localized_country_name":"Azerbaijan","distance":8572.863010527806,"city":"Arçivan","lon":48.83000183105469,"ranking":95,"id":1000935,"member_count":0,"lat":38.5},{"zip":"meetup72","country":"az","localized_country_name":"Azerbaijan","distance":8680.086779400384,"city":"Ordubad","lon":46.0099983215332,"ranking":96,"id":1000936,"member_count":0,"lat":38.900001525878906},{"zip":"meetup73","country":"az","localized_country_name":"Azerbaijan","distance":8501.39490473935,"city":"Älät","lon":49.400001525878906,"ranking":97,"id":1000937,"member_count":0,"lat":39.939998626708984},{"zip":"meetup74","country":"az","localized_country_name":"Azerbaijan","distance":8558.067685081609,"city":"Katex","lon":46.560001373291016,"ranking":98,"id":1000938,"member_count":0,"lat":41.65999984741211},{"zip":"meetup75","country":"az","localized_country_name":"Azerbaijan","distance":8582.217291929806,"city":"Vladikavkaz","lon":47.709999084472656,"ranking":99,"id":1000939,"member_count":0,"lat":39.630001068115234},{"zip":"meetup76","country":"az","localized_country_name":"Azerbaijan","distance":8614.284075676242,"city":"Asagi Ayipli","lon":45.81999969482422,"ranking":100,"id":1000940,"member_count":0,"lat":40.93000030517578},{"zip":"meetup77","country":"az","localized_country_name":"Azerbaijan","distance":8693.778656503066,"city":"Culfa","lon":45.63999938964844,"ranking":101,"id":1000941,"member_count":0,"lat":38.959999084472656},{"zip":"meetup78","country":"az","localized_country_name":"Azerbaijan","distance":8496.490014206543,"city":"Qobustan","lon":49.400001525878906,"ranking":102,"id":1000942,"member_count":0,"lat":40.09000015258789},{"zip":"meetup79","country":"az","localized_country_name":"Azerbaijan","distance":8615.100122712762,"city":"Kovlar","lon":45.79999923706055,"ranking":103,"id":1000943,"member_count":0,"lat":40.93000030517578},{"zip":"meetup80","country":"az","localized_country_name":"Azerbaijan","distance":8561.537213486894,"city":"Port-Iliç","lon":48.79999923706055,"ranking":104,"id":1000944,"member_count":0,"lat":38.880001068115234},{"zip":"meetup81","country":"az","localized_country_name":"Azerbaijan","distance":8699.611648102675,"city":"Sädäräk","lon":44.86000061035156,"ranking":105,"id":1000945,"member_count":0,"lat":39.70000076293945},{"zip":"meetup82","country":"az","localized_country_name":"Azerbaijan","distance":8611.296368875706,"city":"Zägam","lon":45.91999816894531,"ranking":106,"id":1000946,"member_count":0,"lat":40.900001525878906},{"zip":"meetup83","country":"az","localized_country_name":"Azerbaijan","distance":8618.803830256706,"city":"Çardaxli","lon":45.869998931884766,"ranking":107,"id":1000947,"member_count":0,"lat":40.75},{"zip":"meetup84","country":"az","localized_country_name":"Azerbaijan","distance":8607.532389105292,"city":"Dälilär","lon":46.029998779296875,"ranking":108,"id":1000948,"member_count":0,"lat":40.880001068115234},{"zip":"meetup85","country":"az","localized_country_name":"Azerbaijan","distance":8542.267338641517,"city":"Mäxdili","lon":48.29999923706055,"ranking":109,"id":1000949,"member_count":0,"lat":40.08000183105469},{"zip":"meetup86","country":"az","localized_country_name":"Azerbaijan","distance":8561.88119119234,"city":"Zärdab","lon":47.709999084472656,"ranking":110,"id":1000950,"member_count":0,"lat":40.220001220703125},{"zip":"meetup87","country":"az","localized_country_name":"Azerbaijan","distance":8599.5303385646,"city":"Agdärä","lon":46.79999923706055,"ranking":111,"id":1000951,"member_count":0,"lat":40.220001220703125},{"zip":"meetup88","country":"az","localized_country_name":"Azerbaijan","distance":8629.36265261504,"city":"Das Salaxli","lon":45.2599983215332,"ranking":112,"id":1000952,"member_count":0,"lat":41.13999938964844},{"zip":"meetup89","country":"az","localized_country_name":"Azerbaijan","distance":8593.322815352321,"city":"Tapkarakoyunlu","lon":46.77000045776367,"ranking":113,"id":1000953,"member_count":0,"lat":40.43000030517578},{"zip":"meetup90","country":"az","localized_country_name":"Azerbaijan","distance":8562.34774766888,"city":"Balakän","lon":46.38999938964844,"ranking":114,"id":1000954,"member_count":0,"lat":41.72999954223633},{"zip":"meetup91","country":"az","localized_country_name":"Azerbaijan","distance":8510.351483531931,"city":"Kubalybalaoglan","lon":49.040000915527344,"ranking":115,"id":1000955,"member_count":0,"lat":40.119998931884766},{"zip":"meetup92","country":"az","localized_country_name":"Azerbaijan","distance":8455.158318701611,"city":"Bilqäx","lon":50.029998779296875,"ranking":116,"id":1000956,"member_count":0,"lat":40.56999969482422},{"zip":"meetup93","country":"az","localized_country_name":"Azerbaijan","distance":8475.5346505427,"city":"Çarxi","lon":48.86000061035156,"ranking":117,"id":1000957,"member_count":0,"lat":41.38999938964844},{"zip":"meetup94","country":"az","localized_country_name":"Azerbaijan","distance":8501.762626280908,"city":"Märäzä","lon":48.90999984741211,"ranking":118,"id":1000958,"member_count":0,"lat":40.540000915527344},{"zip":"meetup95","country":"az","localized_country_name":"Azerbaijan","distance":8629.06921655348,"city":"Gädäbäy","lon":45.779998779296875,"ranking":119,"id":1000959,"member_count":0,"lat":40.56999969482422}],"meta":{"next":"","method":"Cities","total_count":120,"link":"http:\/\/api.meetup.com\/2\/cities","count":120,"description":"Returns Meetup cities. This method supports search by latitude\/longitude\/radius, by country\/state, by query term\/zip, or a combination of all of these. Location-only searches by lat and lon return all cities within a radius of the provided coordinates. Searches with a query return up to 10 cities matching the term, and can be sorted by size or distance to a given coordinate. 'smart' ordering can be used to return the match(es) with the highest member_count, unless a smaller size match exists nearby the given coordinates. Query searches are supported for country but not country and state","lon":"None","title":"Cities","url":"http:\/\/api.meetup.com\/2\/cities?country=az&offset=0&sign=True&format=json&photo-host=public&page=200&radius=50&order=size&desc=false","id":"","updated":1251864867000,"lat":"None"}}
