{"results":[{"zip":"meetup1","country":"bb","localized_country_name":"Barbados","distance":9132.140671081916,"city":"Bridgetown","lon":-59.61000061035156,"ranking":0,"id":1001211,"member_count":86,"lat":13.109999656677246},{"zip":"meetup4","country":"bb","localized_country_name":"Barbados","distance":9136.603091841196,"city":"Bathsheba","lon":-59.529998779296875,"ranking":1,"id":1001214,"member_count":21,"lat":13.199999809265137},{"zip":"meetup3","country":"bb","localized_country_name":"Barbados","distance":9136.106453575028,"city":"Oistins","lon":-59.54999923706055,"ranking":2,"id":1001213,"member_count":14,"lat":13.069999694824219},{"zip":"meetup2","country":"bb","localized_country_name":"Barbados","distance":9130.082531958024,"city":"Speightstown","lon":-59.630001068115234,"ranking":3,"id":1001212,"member_count":9,"lat":13.25},{"zip":"meetup5","country":"bb","localized_country_name":"Barbados","distance":9130.492784074188,"city":"Holetown","lon":-59.630001068115234,"ranking":4,"id":1001215,"member_count":8,"lat":13.180000305175781},{"zip":"meetup8","country":"bb","localized_country_name":"Barbados","distance":9130.285990203829,"city":"Crab Hill","lon":-59.619998931884766,"ranking":5,"id":1001218,"member_count":3,"lat":13.319999694824219},{"zip":"meetup9","country":"bb","localized_country_name":"Barbados","distance":9133.81702815875,"city":"Greenland","lon":-59.56999969482422,"ranking":6,"id":1001219,"member_count":3,"lat":13.25},{"zip":"meetup11","country":"bb","localized_country_name":"Barbados","distance":9134.112344726227,"city":"Hillaby","lon":-59.56999969482422,"ranking":7,"id":1001221,"member_count":3,"lat":13.199999809265137},{"zip":"meetup7","country":"bb","localized_country_name":"Barbados","distance":9142.110395901023,"city":"Crane","lon":-59.45000076293945,"ranking":8,"id":1001217,"member_count":1,"lat":13.109999656677246},{"zip":"meetup6","country":"bb","localized_country_name":"Barbados","distance":9136.444890800258,"city":"Bulkeley","lon":-59.540000915527344,"ranking":9,"id":1001216,"member_count":0,"lat":13.119999885559082},{"zip":"meetup10","country":"bb","localized_country_name":"Barbados","distance":9136.03896115442,"city":"Blackmans","lon":-59.540000915527344,"ranking":10,"id":1001220,"member_count":0,"lat":13.1899995803833}],"meta":{"next":"","method":"Cities","total_count":11,"link":"http:\/\/api.meetup.com\/2\/cities","count":11,"description":"Returns Meetup cities. This method supports search by latitude\/longitude\/radius, by country\/state, by query term\/zip, or a combination of all of these. Location-only searches by lat and lon return all cities within a radius of the provided coordinates. Searches with a query return up to 10 cities matching the term, and can be sorted by size or distance to a given coordinate. 'smart' ordering can be used to return the match(es) with the highest member_count, unless a smaller size match exists nearby the given coordinates. Query searches are supported for country but not country and state","lon":"None","title":"Cities","url":"http:\/\/api.meetup.com\/2\/cities?country=bb&offset=0&sign=True&format=json&photo-host=public&page=200&radius=50&order=size&desc=false","id":"","updated":1251864867000,"lat":"None"}}
