{"results":[{"zip":"meetup1","country":"bj","localized_country_name":"Benin","distance":12205.232663298846,"city":"Cotonou","lon":2.440000057220459,"ranking":0,"id":1002244,"member_count":97,"lat":6.360000133514404},{"zip":"meetup7","country":"bj","localized_country_name":"Benin","distance":12229.563091876782,"city":"Abomey","lon":1.9900000095367432,"ranking":1,"id":1002250,"member_count":39,"lat":7.190000057220459},{"zip":"meetup2","country":"bj","localized_country_name":"Benin","distance":12191.91473288959,"city":"Porto Novo","lon":2.630000114440918,"ranking":2,"id":1002245,"member_count":16,"lat":6.480000019073486},{"zip":"meetup10","country":"bj","localized_country_name":"Benin","distance":12228.539936176596,"city":"Ouidah","lon":2.0899999141693115,"ranking":3,"id":1002253,"member_count":2,"lat":6.360000133514404},{"zip":"meetup19","country":"bj","localized_country_name":"Benin","distance":12115.397877219502,"city":"Nikki","lon":3.2200000286102295,"ranking":4,"id":1002262,"member_count":2,"lat":9.930000305175781},{"zip":"meetup3","country":"bj","localized_country_name":"Benin","distance":12163.761394390178,"city":"Parakou","lon":2.619999885559082,"ranking":5,"id":1002246,"member_count":1,"lat":9.34000015258789},{"zip":"meetup4","country":"bj","localized_country_name":"Benin","distance":12220.148853351124,"city":"Djougou","lon":1.6799999475479126,"ranking":6,"id":1002247,"member_count":1,"lat":9.699999809265137},{"zip":"meetup8","country":"bj","localized_country_name":"Benin","distance":12228.818298422613,"city":"Natitingou","lon":1.3899999856948853,"ranking":7,"id":1002251,"member_count":1,"lat":10.319999694824219},{"zip":"meetup9","country":"bj","localized_country_name":"Benin","distance":12252.292682797795,"city":"Lokossa","lon":1.7100000381469727,"ranking":8,"id":1002252,"member_count":1,"lat":6.619999885559082},{"zip":"meetup12","country":"bj","localized_country_name":"Benin","distance":12208.331500296257,"city":"Kouandé","lon":1.7000000476837158,"ranking":9,"id":1002255,"member_count":1,"lat":10.329999923706055},{"zip":"meetup13","country":"bj","localized_country_name":"Benin","distance":12224.087804461411,"city":"Savalou","lon":1.9700000286102295,"ranking":10,"id":1002256,"member_count":1,"lat":7.929999828338623},{"zip":"meetup15","country":"bj","localized_country_name":"Benin","distance":12188.628574436436,"city":"Savé","lon":2.490000009536743,"ranking":11,"id":1002258,"member_count":1,"lat":8.029999732971191},{"zip":"meetup16","country":"bj","localized_country_name":"Benin","distance":12068.568571638285,"city":"Malanville","lon":3.380000114440918,"ranking":12,"id":1002259,"member_count":1,"lat":11.869999885559082},{"zip":"meetup17","country":"bj","localized_country_name":"Benin","distance":12247.104000190393,"city":"Dogbo","lon":1.7699999809265137,"ranking":13,"id":1002260,"member_count":1,"lat":6.800000190734863},{"zip":"meetup21","country":"bj","localized_country_name":"Benin","distance":12222.825526929993,"city":"Allada","lon":2.1500000953674316,"ranking":14,"id":1002264,"member_count":1,"lat":6.650000095367432},{"zip":"meetup25","country":"bj","localized_country_name":"Benin","distance":12187.01147489444,"city":"Kétou","lon":2.609999895095825,"ranking":15,"id":1002268,"member_count":1,"lat":7.360000133514404},{"zip":"meetup26","country":"bj","localized_country_name":"Benin","distance":12212.183723278556,"city":"Batia","lon":1.4800000190734863,"ranking":16,"id":1002269,"member_count":1,"lat":10.899999618530273},{"zip":"meetup28","country":"bj","localized_country_name":"Benin","distance":12206.164367191213,"city":"Zagnanado","lon":2.3399999141693115,"ranking":17,"id":1002271,"member_count":1,"lat":7.210000038146973},{"zip":"meetup29","country":"bj","localized_country_name":"Benin","distance":12252.419716136747,"city":"Athiémé","lon":1.7100000381469727,"ranking":18,"id":1002272,"member_count":1,"lat":6.599999904632568},{"zip":"meetup30","country":"bj","localized_country_name":"Benin","distance":12231.231522050995,"city":"Tanguiété","lon":1.2699999809265137,"ranking":19,"id":1002273,"member_count":1,"lat":10.619999885559082},{"zip":"meetup31","country":"bj","localized_country_name":"Benin","distance":12250.280068810924,"city":"Boukombé","lon":1.100000023841858,"ranking":20,"id":1002274,"member_count":1,"lat":10.180000305175781},{"zip":"meetup5","country":"bj","localized_country_name":"Benin","distance":12224.411361620218,"city":"Bohicon","lon":2.069999933242798,"ranking":21,"id":1002248,"member_count":0,"lat":7.170000076293945},{"zip":"meetup6","country":"bj","localized_country_name":"Benin","distance":12112.411236633292,"city":"Kandi","lon":2.940000057220459,"ranking":22,"id":1002249,"member_count":0,"lat":11.130000114440918},{"zip":"meetup11","country":"bj","localized_country_name":"Benin","distance":12208.577149082414,"city":"Cové","lon":2.299999952316284,"ranking":23,"id":1002254,"member_count":0,"lat":7.239999771118164},{"zip":"meetup14","country":"bj","localized_country_name":"Benin","distance":12187.789624706356,"city":"Sakété","lon":2.6700000762939453,"ranking":24,"id":1002257,"member_count":0,"lat":6.71999979019165},{"zip":"meetup18","country":"bj","localized_country_name":"Benin","distance":12185.41466451703,"city":"Pobé","lon":2.680000066757202,"ranking":25,"id":1002261,"member_count":0,"lat":6.96999979019165},{"zip":"meetup20","country":"bj","localized_country_name":"Benin","distance":12242.301440442548,"city":"Comé","lon":1.8799999952316284,"ranking":26,"id":1002263,"member_count":0,"lat":6.400000095367432},{"zip":"meetup22","country":"bj","localized_country_name":"Benin","distance":12252.751815976942,"city":"Aplahoué","lon":1.6699999570846558,"ranking":27,"id":1002265,"member_count":0,"lat":6.940000057220459},{"zip":"meetup23","country":"bj","localized_country_name":"Benin","distance":12210.462509702127,"city":"Dassa","lon":2.200000047683716,"ranking":28,"id":1002266,"member_count":0,"lat":7.769999980926514},{"zip":"meetup24","country":"bj","localized_country_name":"Benin","distance":12146.682983925824,"city":"Bembéréké","lon":2.6700000762939453,"ranking":29,"id":1002267,"member_count":0,"lat":10.220000267028809},{"zip":"meetup27","country":"bj","localized_country_name":"Benin","distance":12171.377461630407,"city":"Tchaourou","lon":2.5999999046325684,"ranking":30,"id":1002270,"member_count":0,"lat":8.880000114440918},{"zip":"meetup32","country":"bj","localized_country_name":"Benin","distance":12246.29026785078,"city":"Grand Popo","lon":1.8300000429153442,"ranking":31,"id":1002275,"member_count":0,"lat":6.28000020980835}],"meta":{"next":"","method":"Cities","total_count":32,"link":"http:\/\/api.meetup.com\/2\/cities","count":32,"description":"Returns Meetup cities. This method supports search by latitude\/longitude\/radius, by country\/state, by query term\/zip, or a combination of all of these. Location-only searches by lat and lon return all cities within a radius of the provided coordinates. Searches with a query return up to 10 cities matching the term, and can be sorted by size or distance to a given coordinate. 'smart' ordering can be used to return the match(es) with the highest member_count, unless a smaller size match exists nearby the given coordinates. Query searches are supported for country but not country and state","lon":"None","title":"Cities","url":"http:\/\/api.meetup.com\/2\/cities?country=bj&offset=0&sign=True&format=json&photo-host=public&page=200&radius=50&order=size&desc=false","id":"","updated":1251864867000,"lat":"None"}}
