{"results":[{"zip":"meetup1","country":"bn","localized_country_name":"Brunei","distance":5029.124972767168,"city":"Bandar Seri Begawan","lon":114.94999694824219,"ranking":0,"id":1002278,"member_count":112,"lat":4.929999828338623},{"zip":"meetup2","country":"bn","localized_country_name":"Brunei","distance":5060.986741931373,"city":"Kuala Belait","lon":114.18000030517578,"ranking":1,"id":1002279,"member_count":10,"lat":4.590000152587891},{"zip":"meetup3","country":"bn","localized_country_name":"Brunei","distance":5055.995556940465,"city":"Seria","lon":114.27999877929688,"ranking":2,"id":1002280,"member_count":8,"lat":4.610000133514404},{"zip":"meetup4","country":"bn","localized_country_name":"Brunei","distance":5042.482098590634,"city":"Tutong","lon":114.63999938964844,"ranking":3,"id":1002281,"member_count":2,"lat":4.809999942779541},{"zip":"meetup5","country":"bn","localized_country_name":"Brunei","distance":5014.165565933117,"city":"Bangar","lon":115.08000183105469,"ranking":4,"id":1002282,"member_count":0,"lat":4.710000038146973}],"meta":{"next":"","method":"Cities","total_count":5,"link":"http:\/\/api.meetup.com\/2\/cities","count":5,"description":"Returns Meetup cities. This method supports search by latitude\/longitude\/radius, by country\/state, by query term\/zip, or a combination of all of these. Location-only searches by lat and lon return all cities within a radius of the provided coordinates. Searches with a query return up to 10 cities matching the term, and can be sorted by size or distance to a given coordinate. 'smart' ordering can be used to return the match(es) with the highest member_count, unless a smaller size match exists nearby the given coordinates. Query searches are supported for country but not country and state","lon":"None","title":"Cities","url":"http:\/\/api.meetup.com\/2\/cities?country=bn&offset=0&sign=True&format=json&photo-host=public&page=200&radius=50&order=size&desc=false","id":"","updated":1251864867000,"lat":"None"}}
