{"results":[{"zip":"meetup2","country":"bo","localized_country_name":"Bolivia","distance":7883.868061699112,"city":"La Paz","lon":-68.1500015258789,"ranking":0,"id":1002284,"member_count":47,"lat":-16.5},{"zip":"meetup1","country":"bo","localized_country_name":"Bolivia","distance":8137.211649972395,"city":"Santa Cruz","lon":-63.209999084472656,"ranking":1,"id":1002283,"member_count":31,"lat":-17.770000457763672},{"zip":"meetup3","country":"bo","localized_country_name":"Bolivia","distance":7966.249855853279,"city":"Cochabamba","lon":-66.16999816894531,"ranking":2,"id":1002285,"member_count":26,"lat":-17.3799991607666},{"zip":"meetup5","country":"bo","localized_country_name":"Bolivia","distance":7871.961209870034,"city":"Oruro","lon":-67.12000274658203,"ranking":3,"id":1002287,"member_count":3,"lat":-17.979999542236328},{"zip":"meetup43","country":"bo","localized_country_name":"Bolivia","distance":8120.060337195914,"city":"A Guarda","lon":-63.380001068115234,"ranking":4,"id":1002325,"member_count":2,"lat":-17.8799991607666},{"zip":"meetup8","country":"bo","localized_country_name":"Bolivia","distance":7870.634974918309,"city":"Potosí","lon":-65.75,"ranking":5,"id":1002290,"member_count":1,"lat":-19.56999969482422},{"zip":"meetup9","country":"bo","localized_country_name":"Bolivia","distance":8157.100663546926,"city":"Montero","lon":-63.2599983215332,"ranking":6,"id":1002291,"member_count":1,"lat":-17.350000381469727},{"zip":"meetup10","country":"bo","localized_country_name":"Bolivia","distance":8179.801862415594,"city":"Trinidad","lon":-64.91000366210938,"ranking":7,"id":1002292,"member_count":1,"lat":-14.84000015258789},{"zip":"meetup12","country":"bo","localized_country_name":"Bolivia","distance":8276.062326772377,"city":"Riberalta","lon":-66.0999984741211,"ranking":8,"id":1002294,"member_count":1,"lat":-11},{"zip":"meetup19","country":"bo","localized_country_name":"Bolivia","distance":8098.489677315708,"city":"Cobija","lon":-68.7699966430664,"ranking":9,"id":1002301,"member_count":1,"lat":-11.020000457763672},{"zip":"meetup20","country":"bo","localized_country_name":"Bolivia","distance":8359.983219946922,"city":"San Ignacio","lon":-60.959999084472656,"ranking":10,"id":1002302,"member_count":1,"lat":-16.3700008392334},{"zip":"meetup23","country":"bo","localized_country_name":"Bolivia","distance":7913.788434628445,"city":"Villamontes","lon":-63.5,"ranking":11,"id":1002305,"member_count":1,"lat":-21.25},{"zip":"meetup33","country":"bo","localized_country_name":"Bolivia","distance":8416.688718011728,"city":"Puerto Suárez","lon":-57.849998474121094,"ranking":12,"id":1002315,"member_count":1,"lat":-18.950000762939453},{"zip":"meetup55","country":"bo","localized_country_name":"Bolivia","distance":8115.891035190579,"city":"Santa Fe","lon":-63.86000061035156,"ranking":13,"id":1002337,"member_count":1,"lat":-17.389999389648438},{"zip":"meetup88","country":"bo","localized_country_name":"Bolivia","distance":7835.096650593097,"city":"Santiago de Huari","lon":-66.80999755859375,"ranking":14,"id":1002370,"member_count":1,"lat":-19},{"zip":"meetup116","country":"bo","localized_country_name":"Bolivia","distance":8061.119279458851,"city":"Abapó","lon":-63.459999084472656,"ranking":15,"id":1002398,"member_count":1,"lat":-18.829999923706055},{"zip":"meetup4","country":"bo","localized_country_name":"Bolivia","distance":7882.564434996012,"city":"El Alto","lon":-68.16999816894531,"ranking":16,"id":1002286,"member_count":0,"lat":-16.5},{"zip":"meetup6","country":"bo","localized_country_name":"Bolivia","distance":7931.68074501804,"city":"Sucre","lon":-65.26000213623047,"ranking":17,"id":1002288,"member_count":0,"lat":-19.059999465942383},{"zip":"meetup7","country":"bo","localized_country_name":"Bolivia","distance":7817.341303166713,"city":"Tarija","lon":-64.73999786376953,"ranking":18,"id":1002289,"member_count":0,"lat":-21.530000686645508},{"zip":"meetup11","country":"bo","localized_country_name":"Bolivia","distance":7852.058720979042,"city":"Yacuíba","lon":-63.70000076293945,"ranking":19,"id":1002293,"member_count":0,"lat":-22.030000686645508},{"zip":"meetup13","country":"bo","localized_country_name":"Bolivia","distance":8328.838889026802,"city":"Guayaramerín","lon":-65.41000366210938,"ranking":20,"id":1002295,"member_count":0,"lat":-10.829999923706055},{"zip":"meetup14","country":"bo","localized_country_name":"Bolivia","distance":7878.721095104094,"city":"Llallagua","lon":-66.63999938964844,"ranking":21,"id":1002296,"member_count":0,"lat":-18.420000076293945},{"zip":"meetup15","country":"bo","localized_country_name":"Bolivia","distance":7728.267467133082,"city":"Villazón","lon":-65.5999984741211,"ranking":22,"id":1002297,"member_count":0,"lat":-22.079999923706055},{"zip":"meetup16","country":"bo","localized_country_name":"Bolivia","distance":7985.680297419413,"city":"Camiri","lon":-63.52000045776367,"ranking":23,"id":1002298,"member_count":0,"lat":-20.049999237060547},{"zip":"meetup17","country":"bo","localized_country_name":"Bolivia","distance":7766.0415868362925,"city":"Bermejo","lon":-64.3499984741211,"ranking":24,"id":1002299,"member_count":0,"lat":-22.729999542236328},{"zip":"meetup18","country":"bo","localized_country_name":"Bolivia","distance":7760.489345448375,"city":"Tupiza","lon":-65.72000122070312,"ranking":25,"id":1002300,"member_count":0,"lat":-21.440000534057617},{"zip":"meetup21","country":"bo","localized_country_name":"Bolivia","distance":8152.9780652274985,"city":"Warnes","lon":-63.18000030517578,"ranking":26,"id":1002303,"member_count":0,"lat":-17.520000457763672},{"zip":"meetup22","country":"bo","localized_country_name":"Bolivia","distance":8053.493342252674,"city":"San Borja","lon":-66.8499984741211,"ranking":27,"id":1002304,"member_count":0,"lat":-14.819999694824219},{"zip":"meetup24","country":"bo","localized_country_name":"Bolivia","distance":7873.007672257849,"city":"Huanuni","lon":-66.83999633789062,"ranking":28,"id":1002306,"member_count":0,"lat":-18.290000915527344},{"zip":"meetup25","country":"bo","localized_country_name":"Bolivia","distance":8144.82110030776,"city":"Cotoca","lon":-63.04999923706055,"ranking":29,"id":1002307,"member_count":0,"lat":-17.81999969482422},{"zip":"meetup26","country":"bo","localized_country_name":"Bolivia","distance":8115.240838440105,"city":"Yapacaní","lon":-63.869998931884766,"ranking":30,"id":1002308,"member_count":0,"lat":-17.389999389648438},{"zip":"meetup27","country":"bo","localized_country_name":"Bolivia","distance":7978.487789393368,"city":"Punata","lon":-65.83999633789062,"ranking":31,"id":1002309,"member_count":0,"lat":-17.549999237060547},{"zip":"meetup28","country":"bo","localized_country_name":"Bolivia","distance":8170.925612167409,"city":"Mineros","lon":-63.2400016784668,"ranking":32,"id":1002310,"member_count":0,"lat":-17.1200008392334},{"zip":"meetup29","country":"bo","localized_country_name":"Bolivia","distance":8187.861756787239,"city":"Santa Ana","lon":-65.58000183105469,"ranking":33,"id":1002311,"member_count":0,"lat":-13.760000228881836},{"zip":"meetup30","country":"bo","localized_country_name":"Bolivia","distance":8256.416011683576,"city":"Ascensión","lon":-63.08000183105469,"ranking":34,"id":1002312,"member_count":0,"lat":-15.699999809265137},{"zip":"meetup31","country":"bo","localized_country_name":"Bolivia","distance":7956.324714201726,"city":"Caranavi","lon":-67.62000274658203,"ranking":35,"id":1002313,"member_count":0,"lat":-15.760000228881836},{"zip":"meetup32","country":"bo","localized_country_name":"Bolivia","distance":8114.482871202439,"city":"El Torno","lon":-63.380001068115234,"ranking":36,"id":1002314,"member_count":0,"lat":-17.979999542236328},{"zip":"meetup34","country":"bo","localized_country_name":"Bolivia","distance":8147.447084413867,"city":"Portachuelo","lon":-63.400001525878906,"ranking":37,"id":1002316,"member_count":0,"lat":-17.360000610351562},{"zip":"meetup35","country":"bo","localized_country_name":"Bolivia","distance":7748.934588609898,"city":"Uyuni","lon":-66.83000183105469,"ranking":38,"id":1002317,"member_count":0,"lat":-20.459999084472656},{"zip":"meetup36","country":"bo","localized_country_name":"Bolivia","distance":8133.784395411732,"city":"El Carmen","lon":-63.220001220703125,"ranking":39,"id":1002318,"member_count":0,"lat":-17.81999969482422},{"zip":"meetup37","country":"bo","localized_country_name":"Bolivia","distance":8329.35881105539,"city":"Roboré","lon":-59.7599983215332,"ranking":40,"id":1002319,"member_count":0,"lat":-18.329999923706055},{"zip":"meetup38","country":"bo","localized_country_name":"Bolivia","distance":7859.994506220139,"city":"Patacamaya","lon":-67.91999816894531,"ranking":41,"id":1002320,"member_count":0,"lat":-17.239999771118164},{"zip":"meetup39","country":"bo","localized_country_name":"Bolivia","distance":8024.359235311257,"city":"Rurrenabaque","lon":-67.55999755859375,"ranking":42,"id":1002321,"member_count":0,"lat":-14.460000038146973},{"zip":"meetup41","country":"bo","localized_country_name":"Bolivia","distance":8490.080843385647,"city":"Puerto Quijarro","lon":-57.77000045776367,"ranking":43,"id":1002323,"member_count":0,"lat":-17.780000686645508},{"zip":"meetup42","country":"bo","localized_country_name":"Bolivia","distance":8290.539560422976,"city":"Chiapa","lon":-60.779998779296875,"ranking":44,"id":1002324,"member_count":0,"lat":-17.850000381469727},{"zip":"meetup44","country":"bo","localized_country_name":"Bolivia","distance":8038.491427555174,"city":"Valle Grande","lon":-64.11000061035156,"ranking":45,"id":1002326,"member_count":0,"lat":-18.489999771118164},{"zip":"meetup45","country":"bo","localized_country_name":"Bolivia","distance":7842.702913405556,"city":"Challapata","lon":-66.77999877929688,"ranking":46,"id":1002327,"member_count":0,"lat":-18.899999618530273},{"zip":"meetup46","country":"bo","localized_country_name":"Bolivia","distance":7871.721836657402,"city":"Achacachi","lon":-68.69000244140625,"ranking":47,"id":1002328,"member_count":0,"lat":-16.049999237060547},{"zip":"meetup47","country":"bo","localized_country_name":"Bolivia","distance":7970.466761634383,"city":"Cliza","lon":-65.93000030517578,"ranking":48,"id":1002329,"member_count":0,"lat":-17.59000015258789},{"zip":"meetup48","country":"bo","localized_country_name":"Bolivia","distance":7986.069448730916,"city":"Aiquile","lon":-65.18000030517578,"ranking":49,"id":1002330,"member_count":0,"lat":-18.190000534057617},{"zip":"meetup49","country":"bo","localized_country_name":"Bolivia","distance":7969.1704831779625,"city":"Monteagudo","lon":-63.9900016784668,"ranking":50,"id":1002331,"member_count":0,"lat":-19.81999969482422},{"zip":"meetup50","country":"bo","localized_country_name":"Bolivia","distance":8174.299508733432,"city":"Pailón","lon":-62.75,"ranking":51,"id":1002332,"member_count":0,"lat":-17.639999389648438},{"zip":"meetup51","country":"bo","localized_country_name":"Bolivia","distance":8302.603397796438,"city":"Kino","lon":-64.12999725341797,"ranking":52,"id":1002333,"member_count":0,"lat":-13.350000381469727},{"zip":"meetup52","country":"bo","localized_country_name":"Bolivia","distance":8157.528067920521,"city":"San Julián","lon":-62.880001068115234,"ranking":53,"id":1002334,"member_count":0,"lat":-17.790000915527344},{"zip":"meetup53","country":"bo","localized_country_name":"Bolivia","distance":8044.031779177023,"city":"Los Reyes","lon":-67.37000274658203,"ranking":54,"id":1002335,"member_count":0,"lat":-14.3100004196167},{"zip":"meetup54","country":"bo","localized_country_name":"Bolivia","distance":7962.340276255733,"city":"Tarata","lon":-66.02999877929688,"ranking":55,"id":1002336,"member_count":0,"lat":-17.6200008392334},{"zip":"meetup56","country":"bo","localized_country_name":"Bolivia","distance":7880.458524660088,"city":"Uncía","lon":-66.56999969482422,"ranking":56,"id":1002338,"member_count":0,"lat":-18.469999313354492},{"zip":"meetup57","country":"bo","localized_country_name":"Bolivia","distance":8360.699708026466,"city":"Concepción","lon":-60.900001525878906,"ranking":57,"id":1002339,"member_count":0,"lat":-16.43000030517578},{"zip":"meetup58","country":"bo","localized_country_name":"Bolivia","distance":8263.60236870088,"city":"San Javier","lon":-62.5,"ranking":58,"id":1002340,"member_count":0,"lat":-16.290000915527344},{"zip":"meetup59","country":"bo","localized_country_name":"Bolivia","distance":8526.540227453848,"city":"San Matías","lon":-58.41999816894531,"ranking":59,"id":1002341,"member_count":0,"lat":-16.360000610351562},{"zip":"meetup60","country":"bo","localized_country_name":"Bolivia","distance":8149.37658005392,"city":"La Bélgica","lon":-63.209999084472656,"ranking":60,"id":1002342,"member_count":0,"lat":-17.549999237060547},{"zip":"meetup61","country":"bo","localized_country_name":"Bolivia","distance":8311.968760234808,"city":"Apaseo el Grande","lon":-63.15999984741211,"ranking":61,"id":1002343,"member_count":0,"lat":-14.489999771118164},{"zip":"meetup62","country":"bo","localized_country_name":"Bolivia","distance":7941.9590909060535,"city":"Capinota","lon":-66.26000213623047,"ranking":62,"id":1002344,"member_count":0,"lat":-17.719999313354492},{"zip":"meetup63","country":"bo","localized_country_name":"Bolivia","distance":7841.869428536282,"city":"Camargo","lon":-65.20999908447266,"ranking":63,"id":1002345,"member_count":0,"lat":-20.639999389648438},{"zip":"meetup64","country":"bo","localized_country_name":"Bolivia","distance":8342.163291113802,"city":"San Miguel","lon":-60.970001220703125,"ranking":64,"id":1002346,"member_count":0,"lat":-16.690000534057617},{"zip":"meetup65","country":"bo","localized_country_name":"Bolivia","distance":7883.995816224333,"city":"Caracollo","lon":-67.22000122070312,"ranking":65,"id":1002347,"member_count":0,"lat":-17.639999389648438},{"zip":"meetup66","country":"bo","localized_country_name":"Bolivia","distance":7890.525048017174,"city":"Betanzos","lon":-65.44999694824219,"ranking":66,"id":1002348,"member_count":0,"lat":-19.559999465942383},{"zip":"meetup67","country":"bo","localized_country_name":"Bolivia","distance":7840.159433123671,"city":"Copacabana","lon":-69.08000183105469,"ranking":67,"id":1002349,"member_count":0,"lat":-16.170000076293945},{"zip":"meetup69","country":"bo","localized_country_name":"Bolivia","distance":8191.634192184519,"city":"Okinawa","lon":-62.83000183105469,"ranking":68,"id":1002351,"member_count":0,"lat":-17.229999542236328},{"zip":"meetup70","country":"bo","localized_country_name":"Bolivia","distance":8277.42017242538,"city":"Santa Rosa","lon":-61.83000183105469,"ranking":69,"id":1002352,"member_count":0,"lat":-16.850000381469727},{"zip":"meetup71","country":"bo","localized_country_name":"Bolivia","distance":8047.570404504278,"city":"Comarapa","lon":-64.4800033569336,"ranking":70,"id":1002353,"member_count":0,"lat":-17.899999618530273},{"zip":"meetup72","country":"bo","localized_country_name":"Bolivia","distance":7903.3217347969485,"city":"Colquiri","lon":-67.12999725341797,"ranking":71,"id":1002354,"member_count":0,"lat":-17.389999389648438},{"zip":"meetup74","country":"bo","localized_country_name":"Bolivia","distance":8123.798875107303,"city":"Benito Juárez","lon":-63.72999954223633,"ranking":72,"id":1002356,"member_count":0,"lat":-17.399999618530273},{"zip":"meetup75","country":"bo","localized_country_name":"Bolivia","distance":8055.3919609987215,"city":"Chimoré","lon":-65.12999725341797,"ranking":73,"id":1002357,"member_count":0,"lat":-16.979999542236328},{"zip":"meetup76","country":"bo","localized_country_name":"Bolivia","distance":7956.84548440111,"city":"Guanay","lon":-67.8499984741211,"ranking":74,"id":1002358,"member_count":0,"lat":-15.449999809265137},{"zip":"meetup77","country":"bo","localized_country_name":"Bolivia","distance":8068.4821354755,"city":"Mairana","lon":-63.959999084472656,"ranking":75,"id":1002359,"member_count":0,"lat":-18.1299991607666},{"zip":"meetup78","country":"bo","localized_country_name":"Bolivia","distance":8125.615393995675,"city":"Buena Vista","lon":-63.65999984741211,"ranking":76,"id":1002360,"member_count":0,"lat":-17.450000762939453},{"zip":"meetup79","country":"bo","localized_country_name":"Bolivia","distance":7987.909077224086,"city":"Colomi","lon":-65.87000274658203,"ranking":77,"id":1002361,"member_count":0,"lat":-17.34000015258789},{"zip":"meetup80","country":"bo","localized_country_name":"Bolivia","distance":8166.901492824637,"city":"Agustín Saavedra","lon":-63.209999084472656,"ranking":78,"id":1002362,"member_count":0,"lat":-17.229999542236328},{"zip":"meetup81","country":"bo","localized_country_name":"Bolivia","distance":7981.402766487936,"city":"Arani","lon":-65.7699966430664,"ranking":79,"id":1002363,"member_count":0,"lat":-17.579999923706055},{"zip":"meetup82","country":"bo","localized_country_name":"Bolivia","distance":8335.963152462878,"city":"San Joaquín","lon":-59.560001373291016,"ranking":80,"id":1002364,"member_count":0,"lat":-18.440000534057617},{"zip":"meetup83","country":"bo","localized_country_name":"Bolivia","distance":8106.764507447259,"city":"Jorochito","lon":-63.43000030517578,"ranking":81,"id":1002365,"member_count":0,"lat":-18.059999465942383},{"zip":"meetup84","country":"bo","localized_country_name":"Bolivia","distance":8120.823225743574,"city":"San Juan","lon":-63.70000076293945,"ranking":82,"id":1002366,"member_count":0,"lat":-17.489999771118164},{"zip":"meetup85","country":"bo","localized_country_name":"Bolivia","distance":7950.663445733841,"city":"Sipe Sipe","lon":-66.36000061035156,"ranking":83,"id":1002367,"member_count":0,"lat":-17.440000534057617},{"zip":"meetup86","country":"bo","localized_country_name":"Bolivia","distance":7871.024648447667,"city":"Lahuachaca","lon":-67.66000366210938,"ranking":84,"id":1002368,"member_count":0,"lat":-17.350000381469727},{"zip":"meetup87","country":"bo","localized_country_name":"Bolivia","distance":8110.389595096311,"city":"Limoncito","lon":-63.400001525878906,"ranking":85,"id":1002369,"member_count":0,"lat":-18.030000686645508},{"zip":"meetup89","country":"bo","localized_country_name":"Bolivia","distance":8077.993152773046,"city":"Samaipata","lon":-63.77000045776367,"ranking":86,"id":1002371,"member_count":0,"lat":-18.18000030517578},{"zip":"meetup90","country":"bo","localized_country_name":"Bolivia","distance":8280.794418229445,"city":"Urubichá","lon":-62.95000076293945,"ranking":87,"id":1002372,"member_count":0,"lat":-15.390000343322754},{"zip":"meetup91","country":"bo","localized_country_name":"Bolivia","distance":7980.008297893966,"city":"Boyuibe","lon":-63.279998779296875,"ranking":88,"id":1002373,"member_count":0,"lat":-20.399999618530273},{"zip":"meetup92","country":"bo","localized_country_name":"Bolivia","distance":7988.874248462348,"city":"Villa Serano","lon":-64.31999969482422,"ranking":89,"id":1002374,"member_count":0,"lat":-19.1200008392334},{"zip":"meetup93","country":"bo","localized_country_name":"Bolivia","distance":7818.537423621935,"city":"Chiautzingo","lon":-64.7699966430664,"ranking":90,"id":1002375,"member_count":0,"lat":-21.479999542236328},{"zip":"meetup94","country":"bo","localized_country_name":"Bolivia","distance":8327.772806950457,"city":"San Pedro","lon":-59.81999969482422,"ranking":91,"id":1002376,"member_count":0,"lat":-18.290000915527344},{"zip":"meetup95","country":"bo","localized_country_name":"Bolivia","distance":7979.085913486615,"city":"Padilla","lon":-64.30999755859375,"ranking":92,"id":1002377,"member_count":0,"lat":-19.299999237060547},{"zip":"meetup96","country":"bo","localized_country_name":"Bolivia","distance":8019.87018524549,"city":"Charagua","lon":-63.220001220703125,"ranking":93,"id":1002378,"member_count":0,"lat":-19.799999237060547},{"zip":"meetup97","country":"bo","localized_country_name":"Bolivia","distance":7929.60980987983,"city":"Chulumani","lon":-67.5199966430664,"ranking":94,"id":1002379,"member_count":0,"lat":-16.40999984741211},{"zip":"meetup99","country":"bo","localized_country_name":"Bolivia","distance":7941.75182936697,"city":"Irpa Irpa","lon":-66.27999877929688,"ranking":95,"id":1002381,"member_count":0,"lat":-17.700000762939453},{"zip":"meetup100","country":"bo","localized_country_name":"Bolivia","distance":8125.142793984539,"city":"Los Negros","lon":-63.43000030517578,"ranking":96,"id":1002382,"member_count":0,"lat":-17.729999542236328},{"zip":"meetup101","country":"bo","localized_country_name":"Bolivia","distance":7990.676346708986,"city":"Mizque","lon":-65.33999633789062,"ranking":97,"id":1002383,"member_count":0,"lat":-17.920000076293945},{"zip":"meetup102","country":"bo","localized_country_name":"Bolivia","distance":7951.508976373802,"city":"Tipuani","lon":-68,"ranking":98,"id":1002384,"member_count":0,"lat":-15.359999656677246},{"zip":"meetup103","country":"bo","localized_country_name":"Bolivia","distance":7771.1859297768,"city":"Emilio Carranza","lon":-66.05999755859375,"ranking":99,"id":1002385,"member_count":0,"lat":-20.90999984741211},{"zip":"meetup104","country":"bo","localized_country_name":"Bolivia","distance":7867.333142164712,"city":"Eucaliptus","lon":-67.51000213623047,"ranking":100,"id":1002386,"member_count":0,"lat":-17.600000381469727},{"zip":"meetup105","country":"bo","localized_country_name":"Bolivia","distance":7945.9917039961065,"city":"Mapiri","lon":-68.16000366210938,"ranking":101,"id":1002387,"member_count":0,"lat":-15.260000228881836},{"zip":"meetup106","country":"bo","localized_country_name":"Bolivia","distance":7852.3704186115565,"city":"Entre Ríos","lon":-64.19000244140625,"ranking":102,"id":1002388,"member_count":0,"lat":-21.530000686645508},{"zip":"meetup107","country":"bo","localized_country_name":"Bolivia","distance":7919.323662711213,"city":"Quime","lon":-67.22000122070312,"ranking":103,"id":1002389,"member_count":0,"lat":-16.979999542236328},{"zip":"meetup108","country":"bo","localized_country_name":"Bolivia","distance":7946.707316434199,"city":"Tarabuco","lon":-64.91999816894531,"ranking":104,"id":1002390,"member_count":0,"lat":-19.18000030517578},{"zip":"meetup109","country":"bo","localized_country_name":"Bolivia","distance":8169.847016886243,"city":"Puerto Pailas","lon":-62.810001373291016,"ranking":105,"id":1002391,"member_count":0,"lat":-17.649999618530273},{"zip":"meetup110","country":"bo","localized_country_name":"Bolivia","distance":7867.343895553981,"city":"Machacamarca","lon":-67.02999877929688,"ranking":106,"id":1002392,"member_count":0,"lat":-18.170000076293945},{"zip":"meetup111","country":"bo","localized_country_name":"Bolivia","distance":7927.897660878302,"city":"Coroico","lon":-67.72000122070312,"ranking":107,"id":1002393,"member_count":0,"lat":-16.190000534057617},{"zip":"meetup112","country":"bo","localized_country_name":"Bolivia","distance":7929.557186792851,"city":"Coripata","lon":-67.5999984741211,"ranking":108,"id":1002394,"member_count":0,"lat":-16.309999465942383},{"zip":"meetup113","country":"bo","localized_country_name":"Bolivia","distance":8052.277456315366,"city":"La Angostura","lon":-64.20999908447266,"ranking":109,"id":1002395,"member_count":0,"lat":-18.1299991607666},{"zip":"meetup114","country":"bo","localized_country_name":"Bolivia","distance":8115.780340306078,"city":"Santa Rita","lon":-63.36000061035156,"ranking":110,"id":1002396,"member_count":0,"lat":-17.979999542236328},{"zip":"meetup115","country":"bo","localized_country_name":"Bolivia","distance":7886.832547713301,"city":"Sorata","lon":-68.66000366210938,"ranking":111,"id":1002397,"member_count":0,"lat":-15.789999961853027},{"zip":"meetup117","country":"bo","localized_country_name":"Bolivia","distance":8356.217111123977,"city":"San Rafael","lon":-60.68000030517578,"ranking":112,"id":1002399,"member_count":0,"lat":-16.780000686645508},{"zip":"meetup118","country":"bo","localized_country_name":"Bolivia","distance":7759.0792822197545,"city":"Atocha","lon":-66.23999786376953,"ranking":113,"id":1002400,"member_count":0,"lat":-20.920000076293945},{"zip":"meetup119","country":"bo","localized_country_name":"Bolivia","distance":7860.152296368441,"city":"Poopó","lon":-66.97000122070312,"ranking":114,"id":1002401,"member_count":0,"lat":-18.3700008392334},{"zip":"meetup120","country":"bo","localized_country_name":"Bolivia","distance":7904.79176285722,"city":"Colquechaca","lon":-66.0199966430664,"ranking":115,"id":1002402,"member_count":0,"lat":-18.670000076293945},{"zip":"meetup121","country":"bo","localized_country_name":"Bolivia","distance":7900.484516124889,"city":"Viloco","lon":-67.55000305175781,"ranking":116,"id":1002403,"member_count":0,"lat":-16.93000030517578},{"zip":"meetup122","country":"bo","localized_country_name":"Bolivia","distance":7858.261866652139,"city":"Totoral","lon":-66.87000274658203,"ranking":117,"id":1002404,"member_count":0,"lat":-18.520000457763672}],"meta":{"next":"","method":"Cities","total_count":118,"link":"http:\/\/api.meetup.com\/2\/cities","count":118,"description":"Returns Meetup cities. This method supports search by latitude\/longitude\/radius, by country\/state, by query term\/zip, or a combination of all of these. Location-only searches by lat and lon return all cities within a radius of the provided coordinates. Searches with a query return up to 10 cities matching the term, and can be sorted by size or distance to a given coordinate. 'smart' ordering can be used to return the match(es) with the highest member_count, unless a smaller size match exists nearby the given coordinates. Query searches are supported for country but not country and state","lon":"None","title":"Cities","url":"http:\/\/api.meetup.com\/2\/cities?country=bo&offset=0&sign=True&format=json&photo-host=public&page=200&radius=50&order=size&desc=false","id":"","updated":1251864867000,"lat":"None"}}
