{"results":[{"zip":"meetup1","country":"by","localized_country_name":"Belarus","distance":8674.398976916895,"city":"Minsk","lon":27.549999237060547,"ranking":0,"id":1004767,"member_count":84,"lat":53.90999984741211},{"zip":"meetup52","country":"by","localized_country_name":"Belarus","distance":8693.721032288648,"city":"Ashmjany","lon":25.93000030517578,"ranking":1,"id":1004818,"member_count":9,"lat":54.43000030517578},{"zip":"meetup2","country":"by","localized_country_name":"Belarus","distance":8646.40612398776,"city":"Homjel'","lon":30.989999771118164,"ranking":2,"id":1004768,"member_count":5,"lat":52.43000030517578},{"zip":"meetup4","country":"by","localized_country_name":"Belarus","distance":8543.053913535143,"city":"Vicebsk","lon":30.18000030517578,"ranking":3,"id":1004770,"member_count":5,"lat":55.189998626708984},{"zip":"meetup5","country":"by","localized_country_name":"Belarus","distance":8792.595598898757,"city":"Hrodna","lon":23.829999923706055,"ranking":4,"id":1004771,"member_count":4,"lat":53.66999816894531},{"zip":"meetup54","country":"by","localized_country_name":"Belarus","distance":8764.588739512288,"city":"Hancavichy","lon":26.440000534057617,"ranking":5,"id":1004820,"member_count":2,"lat":52.7599983215332},{"zip":"meetup11","country":"by","localized_country_name":"Belarus","distance":8567.180404721908,"city":"Orsha","lon":30.40999984741211,"ranking":6,"id":1004777,"member_count":2,"lat":54.5099983215332},{"zip":"meetup34","country":"by","localized_country_name":"Belarus","distance":8663.708619454836,"city":"Viljejka","lon":26.90999984741211,"ranking":7,"id":1004800,"member_count":1,"lat":54.4900016784668},{"zip":"meetup35","country":"by","localized_country_name":"Belarus","distance":8834.268998893493,"city":"Pruzhany","lon":24.459999084472656,"ranking":8,"id":1004801,"member_count":1,"lat":52.560001373291016},{"zip":"meetup40","country":"by","localized_country_name":"Belarus","distance":8617.140178576474,"city":"Byhau","lon":30.239999771118164,"ranking":9,"id":1004806,"member_count":1,"lat":53.52000045776367},{"zip":"meetup41","country":"by","localized_country_name":"Belarus","distance":8637.135404807834,"city":"Dobrush","lon":31.31999969482422,"ranking":10,"id":1004807,"member_count":1,"lat":52.41999816894531},{"zip":"meetup53","country":"by","localized_country_name":"Belarus","distance":8535.961579166482,"city":"Haradok","lon":29.979999542236328,"ranking":11,"id":1004819,"member_count":1,"lat":55.470001220703125},{"zip":"meetup61","country":"by","localized_country_name":"Belarus","distance":8833.528989715343,"city":"Drahichyn","lon":25.149999618530273,"ranking":12,"id":1004827,"member_count":1,"lat":52.189998626708984},{"zip":"meetup64","country":"by","localized_country_name":"Belarus","distance":8582.87245312312,"city":"Chausy","lon":30.969999313354492,"ranking":13,"id":1004830,"member_count":1,"lat":53.81999969482422},{"zip":"meetup66","country":"by","localized_country_name":"Belarus","distance":8659.054950621186,"city":"Chèrven'","lon":28.440000534057617,"ranking":14,"id":1004832,"member_count":1,"lat":53.709999084472656},{"zip":"meetup67","country":"by","localized_country_name":"Belarus","distance":8591.31739829624,"city":"Talachyn","lon":29.690000534057617,"ranking":15,"id":1004833,"member_count":1,"lat":54.40999984741211},{"zip":"meetup79","country":"by","localized_country_name":"Belarus","distance":8743.28117972305,"city":"Kleck","lon":26.6200008392334,"ranking":16,"id":1004845,"member_count":1,"lat":53.06999969482422},{"zip":"meetup86","country":"by","localized_country_name":"Belarus","distance":8590.412320453659,"city":"Mjory","lon":27.6299991607666,"ranking":17,"id":1004852,"member_count":1,"lat":55.619998931884766},{"zip":"meetup3","country":"by","localized_country_name":"Belarus","distance":8597.064547302502,"city":"Mahiljow","lon":30.329999923706055,"ranking":18,"id":1004769,"member_count":1,"lat":53.900001525878906},{"zip":"meetup12","country":"by","localized_country_name":"Belarus","distance":8716.045665131756,"city":"Mazyr","lon":29.270000457763672,"ranking":19,"id":1004778,"member_count":1,"lat":52.04999923706055},{"zip":"meetup16","country":"by","localized_country_name":"Belarus","distance":8739.531015682167,"city":"Lida","lon":25.280000686645508,"ranking":20,"id":1004782,"member_count":1,"lat":53.88999938964844},{"zip":"meetup17","country":"by","localized_country_name":"Belarus","distance":8566.098766045103,"city":"Polack","lon":28.790000915527344,"ranking":21,"id":1004783,"member_count":1,"lat":55.4900016784668},{"zip":"meetup18","country":"by","localized_country_name":"Belarus","distance":8672.653878392322,"city":"Svetlahorsk","lon":29.760000228881836,"ranking":22,"id":1004784,"member_count":1,"lat":52.63999938964844},{"zip":"meetup36","country":"by","localized_country_name":"Belarus","distance":8696.890732888683,"city":"Dzerzhyns'k","lon":27.139999389648438,"ranking":23,"id":1004802,"member_count":0,"lat":53.689998626708984},{"zip":"meetup37","country":"by","localized_country_name":"Belarus","distance":8677.026807750055,"city":"Marjina Horka","lon":28.149999618530273,"ranking":24,"id":1004803,"member_count":0,"lat":53.5099983215332},{"zip":"meetup38","country":"by","localized_country_name":"Belarus","distance":8779.772568151395,"city":"Luninjec","lon":26.81999969482422,"ranking":25,"id":1004804,"member_count":0,"lat":52.25},{"zip":"meetup39","country":"by","localized_country_name":"Belarus","distance":8634.956672828559,"city":"Pastavy","lon":26.84000015258789,"ranking":26,"id":1004805,"member_count":0,"lat":55.119998931884766},{"zip":"meetup42","country":"by","localized_country_name":"Belarus","distance":8596.25251890795,"city":"Ljepjel'","lon":28.690000534057617,"ranking":27,"id":1004808,"member_count":0,"lat":54.88999938964844},{"zip":"meetup43","country":"by","localized_country_name":"Belarus","distance":8565.160303543353,"city":"Klimavichy","lon":31.940000534057617,"ranking":28,"id":1004809,"member_count":0,"lat":53.61000061035156},{"zip":"meetup44","country":"by","localized_country_name":"Belarus","distance":8611.573160370435,"city":"Hlybokaje","lon":27.68000030517578,"ranking":29,"id":1004810,"member_count":0,"lat":55.13999938964844},{"zip":"meetup45","country":"by","localized_country_name":"Belarus","distance":8799.039279769937,"city":"Ivacevichy","lon":25.350000381469727,"ranking":30,"id":1004811,"member_count":0,"lat":52.720001220703125},{"zip":"meetup46","country":"by","localized_country_name":"Belarus","distance":8702.760523401088,"city":"Hojniki","lon":29.969999313354492,"ranking":31,"id":1004812,"member_count":0,"lat":51.88999938964844},{"zip":"meetup47","country":"by","localized_country_name":"Belarus","distance":8786.318716421349,"city":"Masty","lon":24.530000686645508,"ranking":32,"id":1004813,"member_count":0,"lat":53.40999984741211},{"zip":"meetup48","country":"by","localized_country_name":"Belarus","distance":8749.985387468265,"city":"Zhytkavichy","lon":27.860000610351562,"ranking":33,"id":1004814,"member_count":0,"lat":52.220001220703125},{"zip":"meetup49","country":"by","localized_country_name":"Belarus","distance":8769.335284625462,"city":"Shchuchyn","lon":24.75,"ranking":34,"id":1004815,"member_count":0,"lat":53.61000061035156},{"zip":"meetup50","country":"by","localized_country_name":"Belarus","distance":8643.009393659544,"city":"Kascjukovka","lon":30.93000030517578,"ranking":35,"id":1004816,"member_count":0,"lat":52.540000915527344},{"zip":"meetup51","country":"by","localized_country_name":"Belarus","distance":8583.378775827565,"city":"Shklov","lon":30.280000686645508,"ranking":36,"id":1004817,"member_count":0,"lat":54.22999954223633},{"zip":"meetup55","country":"by","localized_country_name":"Belarus","distance":8733.849355865019,"city":"Njasvizh","lon":26.68000030517578,"ranking":37,"id":1004821,"member_count":0,"lat":53.220001220703125},{"zip":"meetup56","country":"by","localized_country_name":"Belarus","distance":8593.059395616341,"city":"Novalukoml'","lon":29.219999313354492,"ranking":38,"id":1004822,"member_count":0,"lat":54.650001525878906},{"zip":"meetup57","country":"by","localized_country_name":"Belarus","distance":8823.82916032093,"city":"Ivanava","lon":25.540000915527344,"ranking":39,"id":1004823,"member_count":0,"lat":52.150001525878906},{"zip":"meetup58","country":"by","localized_country_name":"Belarus","distance":8653.416264341327,"city":"Smaljavichy","lon":28.09000015258789,"ranking":40,"id":1004824,"member_count":0,"lat":54.029998779296875},{"zip":"meetup59","country":"by","localized_country_name":"Belarus","distance":8718.884338322436,"city":"Stovbcy","lon":26.739999771118164,"ranking":41,"id":1004825,"member_count":0,"lat":53.47999954223633},{"zip":"meetup60","country":"by","localized_country_name":"Belarus","distance":8570.4292409449,"city":"Baran'","lon":30.34000015258789,"ranking":42,"id":1004826,"member_count":0,"lat":54.47999954223633},{"zip":"meetup62","country":"by","localized_country_name":"Belarus","distance":8573.338996753613,"city":"Kascjukovichy","lon":32.060001373291016,"ranking":43,"id":1004828,"member_count":0,"lat":53.349998474121094},{"zip":"meetup63","country":"by","localized_country_name":"Belarus","distance":8636.85460770264,"city":"Bjarèzina","lon":28.989999771118164,"ranking":44,"id":1004829,"member_count":0,"lat":53.849998474121094},{"zip":"meetup65","country":"by","localized_country_name":"Belarus","distance":8735.567398995103,"city":"Pjetrykav","lon":28.489999771118164,"ranking":45,"id":1004831,"member_count":0,"lat":52.130001068115234},{"zip":"meetup68","country":"by","localized_country_name":"Belarus","distance":8552.710990095831,"city":"Mstislav","lon":31.719999313354492,"ranking":46,"id":1004834,"member_count":0,"lat":54.029998779296875},{"zip":"meetup69","country":"by","localized_country_name":"Belarus","distance":8721.442812294505,"city":"Narovlja","lon":29.5,"ranking":47,"id":1004835,"member_count":0,"lat":51.79999923706055},{"zip":"meetup70","country":"by","localized_country_name":"Belarus","distance":8585.021197273092,"city":"Chashniki","lon":29.15999984741211,"ranking":48,"id":1004836,"member_count":0,"lat":54.86000061035156},{"zip":"meetup71","country":"by","localized_country_name":"Belarus","distance":8716.53550433682,"city":"Ljuban'","lon":28,"ranking":49,"id":1004837,"member_count":0,"lat":52.79999923706055},{"zip":"meetup72","country":"by","localized_country_name":"Belarus","distance":8696.409345729573,"city":"Staryja Darohi","lon":28.280000686645508,"ranking":50,"id":1004838,"member_count":0,"lat":53.040000915527344},{"zip":"meetup73","country":"by","localized_country_name":"Belarus","distance":8604.874851986504,"city":"Braslav","lon":27.040000915527344,"ranking":51,"id":1004839,"member_count":0,"lat":55.63999938964844},{"zip":"meetup74","country":"by","localized_country_name":"Belarus","distance":8867.442620317335,"city":"Zhabinka","lon":24,"ranking":52,"id":1004840,"member_count":0,"lat":52.209999084472656},{"zip":"meetup75","country":"by","localized_country_name":"Belarus","distance":8784.79502795889,"city":"Skidel'","lon":24.25,"ranking":53,"id":1004841,"member_count":0,"lat":53.59000015258789},{"zip":"meetup76","country":"by","localized_country_name":"Belarus","distance":8818.111278049268,"city":"Bjeloozersk","lon":25.15999984741211,"ranking":54,"id":1004842,"member_count":0,"lat":52.470001220703125},{"zip":"meetup77","country":"by","localized_country_name":"Belarus","distance":8755.065302968,"city":"Ljahavichy","lon":26.270000457763672,"ranking":55,"id":1004843,"member_count":0,"lat":53.040000915527344},{"zip":"meetup78","country":"by","localized_country_name":"Belarus","distance":8693.593193623288,"city":"Valozhyn","lon":26.530000686645508,"ranking":56,"id":1004844,"member_count":0,"lat":54.099998474121094},{"zip":"meetup80","country":"by","localized_country_name":"Belarus","distance":8797.162115203697,"city":"Stolin","lon":26.850000381469727,"ranking":57,"id":1004846,"member_count":0,"lat":51.900001525878906},{"zip":"meetup81","country":"by","localized_country_name":"Belarus","distance":8677.549260159187,"city":"Zaslavje","lon":27.280000686645508,"ranking":58,"id":1004847,"member_count":0,"lat":54},{"zip":"meetup82","country":"by","localized_country_name":"Belarus","distance":8635.024117983887,"city":"Vjetka","lon":31.170000076293945,"ranking":59,"id":1004848,"member_count":0,"lat":52.560001373291016},{"zip":"meetup83","country":"by","localized_country_name":"Belarus","distance":8556.473955760262,"city":"Dubrovna","lon":30.690000534057617,"ranking":60,"id":1004849,"member_count":0,"lat":54.58000183105469},{"zip":"meetup84","country":"by","localized_country_name":"Belarus","distance":8625.847816528212,"city":"Chechersk","lon":30.90999984741211,"ranking":61,"id":1004850,"member_count":0,"lat":52.91999816894531},{"zip":"meetup85","country":"by","localized_country_name":"Belarus","distance":8887.805991106889,"city":"Malaryta","lon":24.079999923706055,"ranking":62,"id":1004851,"member_count":0,"lat":51.79999923706055},{"zip":"meetup87","country":"by","localized_country_name":"Belarus","distance":8731.292853323625,"city":"Jel'sk","lon":29.15999984741211,"ranking":63,"id":1004853,"member_count":0,"lat":51.810001373291016},{"zip":"meetup88","country":"by","localized_country_name":"Belarus","distance":8724.995257136456,"city":"Kapyl'","lon":27.09000015258789,"ranking":64,"id":1004854,"member_count":0,"lat":53.15999984741211},{"zip":"meetup89","country":"by","localized_country_name":"Belarus","distance":8645.569183536176,"city":"Buda Kosheljovo","lon":30.56999969482422,"ranking":65,"id":1004855,"member_count":0,"lat":52.709999084472656},{"zip":"meetup90","country":"by","localized_country_name":"Belarus","distance":8572.35537851254,"city":"Senno","lon":29.700000762939453,"ranking":66,"id":1004856,"member_count":0,"lat":54.81999969482422},{"zip":"meetup91","country":"by","localized_country_name":"Belarus","distance":8582.394063465032,"city":"Cherikov","lon":31.389999389648438,"ranking":67,"id":1004857,"member_count":0,"lat":53.56999969482422},{"zip":"meetup92","country":"by","localized_country_name":"Belarus","distance":8742.370762278568,"city":"Berjozovka","lon":25.489999771118164,"ranking":68,"id":1004858,"member_count":0,"lat":53.720001220703125},{"zip":"meetup93","country":"by","localized_country_name":"Belarus","distance":8762.030545195383,"city":"Mikashevichy","lon":27.459999084472656,"ranking":69,"id":1004859,"member_count":0,"lat":52.220001220703125},{"zip":"meetup94","country":"by","localized_country_name":"Belarus","distance":8862.672698238832,"city":"Kamjenec","lon":23.809999465942383,"ranking":70,"id":1004860,"member_count":0,"lat":52.400001525878906},{"zip":"meetup95","country":"by","localized_country_name":"Belarus","distance":8598.84685102623,"city":"Slaeuharad","lon":31,"ranking":71,"id":1004861,"member_count":0,"lat":53.45000076293945},{"zip":"meetup96","country":"by","localized_country_name":"Belarus","distance":8777.547121724858,"city":"David-Haradok","lon":27.219999313354492,"ranking":72,"id":1004862,"member_count":0,"lat":52.060001373291016},{"zip":"meetup97","country":"by","localized_country_name":"Belarus","distance":8575.233916118439,"city":"Verhnjadzvimsk","lon":27.93000030517578,"ranking":73,"id":1004863,"member_count":0,"lat":55.779998779296875},{"zip":"meetup98","country":"by","localized_country_name":"Belarus","distance":8620.517795085378,"city":"Dokshicy","lon":27.770000457763672,"ranking":74,"id":1004864,"member_count":0,"lat":54.900001525878906},{"zip":"meetup99","country":"by","localized_country_name":"Belarus","distance":8689.443928764713,"city":"Vasilevichy","lon":29.829999923706055,"ranking":75,"id":1004865,"member_count":0,"lat":52.25},{"zip":"meetup100","country":"by","localized_country_name":"Belarus","distance":8877.640167740727,"city":"Vysokoje","lon":23.389999389648438,"ranking":76,"id":1004866,"member_count":0,"lat":52.36000061035156},{"zip":"meetup101","country":"by","localized_country_name":"Belarus","distance":8802.554341542756,"city":"Kosava","lon":25.15999984741211,"ranking":77,"id":1004867,"member_count":0,"lat":52.7599983215332},{"zip":"meetup102","country":"by","localized_country_name":"Belarus","distance":8577.331336295896,"city":"Dishna","lon":28.219999313354492,"ranking":78,"id":1004868,"member_count":0,"lat":55.56999969482422},{"zip":"meetup6","country":"by","localized_country_name":"Belarus","distance":8882.235812941415,"city":"Brèst","lon":23.68000030517578,"ranking":79,"id":1004772,"member_count":0,"lat":52.119998931884766},{"zip":"meetup7","country":"by","localized_country_name":"Belarus","distance":8665.64080216312,"city":"Babrujsk","lon":29.190000534057617,"ranking":80,"id":1004773,"member_count":0,"lat":53.130001068115234},{"zip":"meetup8","country":"by","localized_country_name":"Belarus","distance":8757.184450550158,"city":"Baranavichy","lon":26.020000457763672,"ranking":81,"id":1004774,"member_count":0,"lat":53.13999938964844},{"zip":"meetup9","country":"by","localized_country_name":"Belarus","distance":8632.63142690146,"city":"Barisaw","lon":28.510000228881836,"ranking":82,"id":1004775,"member_count":0,"lat":54.220001220703125},{"zip":"meetup10","country":"by","localized_country_name":"Belarus","distance":8808.409299669665,"city":"Pinsk","lon":26.100000381469727,"ranking":83,"id":1004776,"member_count":0,"lat":52.119998931884766},{"zip":"meetup13","country":"by","localized_country_name":"Belarus","distance":8729.349309642404,"city":"Salihorsk","lon":27.530000686645508,"ranking":84,"id":1004779,"member_count":0,"lat":52.81999969482422},{"zip":"meetup14","country":"by","localized_country_name":"Belarus","distance":8567.224541385121,"city":"Navapolack","lon":28.65999984741211,"ranking":85,"id":1004780,"member_count":0,"lat":55.540000915527344},{"zip":"meetup15","country":"by","localized_country_name":"Belarus","distance":8673.458822615125,"city":"Maladzechna","lon":26.860000610351562,"ranking":86,"id":1004781,"member_count":0,"lat":54.31999969482422},{"zip":"meetup19","country":"by","localized_country_name":"Belarus","distance":8667.182751628932,"city":"Rèchyca","lon":30.399999618530273,"ranking":87,"id":1004785,"member_count":0,"lat":52.36000061035156},{"zip":"meetup20","country":"by","localized_country_name":"Belarus","distance":8652.792375193954,"city":"Zhlobin","lon":30.030000686645508,"ranking":88,"id":1004786,"member_count":0,"lat":52.88999938964844},{"zip":"meetup21","country":"by","localized_country_name":"Belarus","distance":8718.168550879745,"city":"Sluck","lon":27.549999237060547,"ranking":89,"id":1004787,"member_count":0,"lat":53.029998779296875},{"zip":"meetup22","country":"by","localized_country_name":"Belarus","distance":8642.799990403328,"city":"Zhodzina","lon":28.350000381469727,"ranking":90,"id":1004788,"member_count":0,"lat":54.099998474121094},{"zip":"meetup23","country":"by","localized_country_name":"Belarus","distance":8642.730330379816,"city":"Rahachow","lon":30.049999237060547,"ranking":91,"id":1004789,"member_count":0,"lat":53.09000015258789},{"zip":"meetup24","country":"by","localized_country_name":"Belarus","distance":8779.754380610735,"city":"Slonim","lon":25.31999969482422,"ranking":92,"id":1004790,"member_count":0,"lat":53.099998474121094},{"zip":"meetup25","country":"by","localized_country_name":"Belarus","distance":8856.777823082666,"city":"Kobryn","lon":24.350000381469727,"ranking":93,"id":1004791,"member_count":0,"lat":52.209999084472656},{"zip":"meetup26","country":"by","localized_country_name":"Belarus","distance":8802.348617450978,"city":"Vawkavysk","lon":24.440000534057617,"ranking":94,"id":1004792,"member_count":0,"lat":53.15999984741211},{"zip":"meetup27","country":"by","localized_country_name":"Belarus","distance":8710.29043550008,"city":"Kalinkavichy","lon":29.329999923706055,"ranking":95,"id":1004793,"member_count":0,"lat":52.130001068115234},{"zip":"meetup28","country":"by","localized_country_name":"Belarus","distance":8677.46971613628,"city":"Smarhon'","lon":26.40999984741211,"ranking":96,"id":1004794,"member_count":0,"lat":54.4900016784668},{"zip":"meetup29","country":"by","localized_country_name":"Belarus","distance":8672.960810893328,"city":"Asipovichy","lon":28.649999618530273,"ranking":97,"id":1004795,"member_count":0,"lat":53.29999923706055},{"zip":"meetup30","country":"by","localized_country_name":"Belarus","distance":8561.501269125818,"city":"Horki","lon":30.979999542236328,"ranking":98,"id":1004796,"member_count":0,"lat":54.290000915527344},{"zip":"meetup31","country":"by","localized_country_name":"Belarus","distance":8567.319343842393,"city":"Krychaw","lon":31.719999313354492,"ranking":99,"id":1004797,"member_count":0,"lat":53.70000076293945},{"zip":"meetup32","country":"by","localized_country_name":"Belarus","distance":8820.285433774312,"city":"Bjaroza","lon":24.979999542236328,"ranking":100,"id":1004798,"member_count":0,"lat":52.529998779296875},{"zip":"meetup33","country":"by","localized_country_name":"Belarus","distance":8739.139024630484,"city":"Navahrudak","lon":25.81999969482422,"ranking":101,"id":1004799,"member_count":0,"lat":53.599998474121094}],"meta":{"next":"","method":"Cities","total_count":102,"link":"http:\/\/api.meetup.com\/2\/cities","count":102,"description":"Returns Meetup cities. This method supports search by latitude\/longitude\/radius, by country\/state, by query term\/zip, or a combination of all of these. Location-only searches by lat and lon return all cities within a radius of the provided coordinates. Searches with a query return up to 10 cities matching the term, and can be sorted by size or distance to a given coordinate. 'smart' ordering can be used to return the match(es) with the highest member_count, unless a smaller size match exists nearby the given coordinates. Query searches are supported for country but not country and state","lon":"None","title":"Cities","url":"http:\/\/api.meetup.com\/2\/cities?country=by&offset=0&sign=True&format=json&photo-host=public&page=200&radius=50&order=size&desc=false","id":"","updated":1251864867000,"lat":"None"}}
