{"results":[{"zip":"meetup1","country":"cg","localized_country_name":"Congo","distance":11219.95537577061,"city":"Brazzaville","lon":15.260000228881836,"ranking":0,"id":1005045,"member_count":9,"lat":-4.25},{"zip":"meetup26","country":"cg","localized_country_name":"Congo","distance":11247.32161383142,"city":"Boko","lon":14.630000114440918,"ranking":1,"id":1005070,"member_count":7,"lat":-4.78000020980835},{"zip":"meetup2","country":"cg","localized_country_name":"Congo","distance":11434.004657191936,"city":"Pointe Noire","lon":11.869999885559082,"ranking":2,"id":1005046,"member_count":3,"lat":-4.769999980926514},{"zip":"meetup18","country":"cg","localized_country_name":"Congo","distance":11187.188274807606,"city":"Mossaka","lon":16.799999237060547,"ranking":3,"id":1005062,"member_count":2,"lat":-1.2200000286102295},{"zip":"meetup20","country":"cg","localized_country_name":"Congo","distance":11237.985914156328,"city":"Gamboma","lon":15.850000381469727,"ranking":4,"id":1005064,"member_count":1,"lat":-1.8799999952316284},{"zip":"meetup27","country":"cg","localized_country_name":"Congo","distance":11382.659635128644,"city":"Komomo","lon":13.229999542236328,"ranking":5,"id":1005071,"member_count":1,"lat":-3.2799999713897705},{"zip":"meetup8","country":"cg","localized_country_name":"Congo","distance":11250.912253151791,"city":"Kinkala","lon":14.760000228881836,"ranking":6,"id":1005052,"member_count":1,"lat":-4.349999904632568},{"zip":"meetup11","country":"cg","localized_country_name":"Congo","distance":11297.734081720759,"city":"Djambala","lon":14.75,"ranking":7,"id":1005055,"member_count":1,"lat":-2.5399999618530273},{"zip":"meetup12","country":"cg","localized_country_name":"Congo","distance":11440.792290796642,"city":"Ngamaba-Mfilou","lon":11.989999771118164,"ranking":8,"id":1005056,"member_count":0,"lat":-4.25},{"zip":"meetup13","country":"cg","localized_country_name":"Congo","distance":11147.201791861788,"city":"Impfondo","lon":18.040000915527344,"ranking":9,"id":1005057,"member_count":0,"lat":1.6399999856948853},{"zip":"meetup14","country":"cg","localized_country_name":"Congo","distance":11326.966706604442,"city":"Ewo","lon":14.819999694824219,"ranking":10,"id":1005058,"member_count":0,"lat":-0.8799999952316284},{"zip":"meetup15","country":"cg","localized_country_name":"Congo","distance":11338.187216074202,"city":"Madingou","lon":13.550000190734863,"ranking":11,"id":1005059,"member_count":0,"lat":-4.150000095367432},{"zip":"meetup16","country":"cg","localized_country_name":"Congo","distance":11451.89080202311,"city":"Matsanga","lon":12.680000305175781,"ranking":12,"id":1005060,"member_count":0,"lat":-1.8799999952316284},{"zip":"meetup17","country":"cg","localized_country_name":"Congo","distance":11150.701653621418,"city":"Dongou","lon":18.049999237060547,"ranking":13,"id":1005061,"member_count":0,"lat":2.0299999713897705},{"zip":"meetup19","country":"cg","localized_country_name":"Congo","distance":11286.526956145282,"city":"Makoua","lon":15.640000343322754,"ranking":14,"id":1005063,"member_count":0,"lat":0},{"zip":"meetup21","country":"cg","localized_country_name":"Congo","distance":11379.430664609747,"city":"Sembé","lon":14.579999923706055,"ranking":15,"id":1005065,"member_count":0,"lat":1.6399999856948853},{"zip":"meetup22","country":"cg","localized_country_name":"Congo","distance":11280.160990453227,"city":"Mindouli","lon":14.359999656677246,"ranking":16,"id":1005066,"member_count":0,"lat":-4.269999980926514},{"zip":"meetup23","country":"cg","localized_country_name":"Congo","distance":11362.192958077272,"city":"Kellé","lon":14.5,"ranking":17,"id":1005067,"member_count":0,"lat":-0.07000000029802322},{"zip":"meetup24","country":"cg","localized_country_name":"Congo","distance":11437.810889875911,"city":"Kibangou","lon":12.350000381469727,"ranking":18,"id":1005068,"member_count":0,"lat":-3.450000047683716},{"zip":"meetup25","country":"cg","localized_country_name":"Congo","distance":11181.65380954593,"city":"Epéna","lon":17.479999542236328,"ranking":19,"id":1005069,"member_count":0,"lat":1.3700000047683716},{"zip":"meetup28","country":"cg","localized_country_name":"Congo","distance":11353.293846939227,"city":"Zanaga","lon":13.819999694824219,"ranking":20,"id":1005072,"member_count":0,"lat":-2.8499999046325684},{"zip":"meetup29","country":"cg","localized_country_name":"Congo","distance":11244.54848039191,"city":"Ikélemba","lon":16.520000457763672,"ranking":21,"id":1005073,"member_count":0,"lat":1.2400000095367432},{"zip":"meetup30","country":"cg","localized_country_name":"Congo","distance":11371.031218930257,"city":"Loudima","lon":13.079999923706055,"ranking":22,"id":1005074,"member_count":0,"lat":-4.110000133514404},{"zip":"meetup31","country":"cg","localized_country_name":"Congo","distance":11413.901956645193,"city":"Souanké","lon":14.130000114440918,"ranking":23,"id":1005075,"member_count":0,"lat":2.059999942779541},{"zip":"meetup3","country":"cg","localized_country_name":"Congo","distance":11396.79743080952,"city":"Loubomo","lon":12.670000076293945,"ranking":24,"id":1005047,"member_count":0,"lat":-4.179999828338623},{"zip":"meetup4","country":"cg","localized_country_name":"Congo","distance":11355.594592528492,"city":"Nkayi","lon":13.279999732971191,"ranking":25,"id":1005048,"member_count":0,"lat":-4.179999828338623},{"zip":"meetup5","country":"cg","localized_country_name":"Congo","distance":11425.431099768437,"city":"Mossendjo","lon":12.720000267028809,"ranking":26,"id":1005049,"member_count":0,"lat":-2.940000057220459},{"zip":"meetup6","country":"cg","localized_country_name":"Congo","distance":11259.85410467495,"city":"Owando","lon":15.920000076293945,"ranking":27,"id":1005050,"member_count":0,"lat":-0.47999998927116394},{"zip":"meetup7","country":"cg","localized_country_name":"Congo","distance":11280.402194922817,"city":"Ouesso","lon":16.049999237060547,"ranking":28,"id":1005051,"member_count":0,"lat":1.6100000143051147},{"zip":"meetup9","country":"cg","localized_country_name":"Congo","distance":11435.268035145304,"city":"Loandjili","lon":11.859999656677246,"ranking":29,"id":1005053,"member_count":0,"lat":-4.75},{"zip":"meetup10","country":"cg","localized_country_name":"Congo","distance":11364.059714430923,"city":"Sibiti","lon":13.350000381469727,"ranking":30,"id":1005054,"member_count":0,"lat":-3.690000057220459}],"meta":{"next":"","method":"Cities","total_count":31,"link":"http:\/\/api.meetup.com\/2\/cities","count":31,"description":"Returns Meetup cities. This method supports search by latitude\/longitude\/radius, by country\/state, by query term\/zip, or a combination of all of these. Location-only searches by lat and lon return all cities within a radius of the provided coordinates. Searches with a query return up to 10 cities matching the term, and can be sorted by size or distance to a given coordinate. 'smart' ordering can be used to return the match(es) with the highest member_count, unless a smaller size match exists nearby the given coordinates. Query searches are supported for country but not country and state","lon":"None","title":"Cities","url":"http:\/\/api.meetup.com\/2\/cities?country=cg&offset=0&sign=True&format=json&photo-host=public&page=200&radius=50&order=size&desc=false","id":"","updated":1251864867000,"lat":"None"}}
