{"results":[{"zip":"meetup1","country":"cy","localized_country_name":"Cyprus","distance":9410.569699290065,"city":"Nicosia","lon":33.380001068115234,"ranking":0,"id":1007410,"member_count":109,"lat":35.15999984741211},{"zip":"meetup2","country":"cy","localized_country_name":"Cyprus","distance":9448.91833207461,"city":"Lemesos","lon":33.04999923706055,"ranking":1,"id":1007411,"member_count":78,"lat":34.68000030517578},{"zip":"meetup3","country":"cy","localized_country_name":"Cyprus","distance":9409.737144836368,"city":"Larnaca","lon":33.630001068115234,"ranking":2,"id":1007412,"member_count":47,"lat":34.91999816894531},{"zip":"meetup6","country":"cy","localized_country_name":"Cyprus","distance":9475.671142715846,"city":"Pafos","lon":32.40999984741211,"ranking":3,"id":1007415,"member_count":35,"lat":34.77000045776367},{"zip":"meetup9","country":"cy","localized_country_name":"Cyprus","distance":9410.75174307494,"city":"Aradippou","lon":33.58000183105469,"ranking":4,"id":1007418,"member_count":33,"lat":34.95000076293945},{"zip":"meetup10","country":"cy","localized_country_name":"Cyprus","distance":9386.897095639952,"city":"Paralimni","lon":33.97999954223633,"ranking":5,"id":1007419,"member_count":15,"lat":35.04999923706055},{"zip":"meetup5","country":"cy","localized_country_name":"Cyprus","distance":9386.044621668285,"city":"Famagusta","lon":33.939998626708984,"ranking":6,"id":1007414,"member_count":6,"lat":35.11000061035156},{"zip":"meetup7","country":"cy","localized_country_name":"Cyprus","distance":9404.993168114599,"city":"Kyrenia","lon":33.33000183105469,"ranking":7,"id":1007416,"member_count":6,"lat":35.33000183105469},{"zip":"meetup24","country":"cy","localized_country_name":"Cyprus","distance":9463.321662905344,"city":"Polis","lon":32.40999984741211,"ranking":8,"id":1007433,"member_count":4,"lat":35.029998779296875},{"zip":"meetup11","country":"cy","localized_country_name":"Cyprus","distance":9438.360708476794,"city":"Lefka","lon":32.849998474121094,"ranking":9,"id":1007420,"member_count":3,"lat":35.11000061035156},{"zip":"meetup8","country":"cy","localized_country_name":"Cyprus","distance":9427.870222897682,"city":"Morphou","lon":32.97999954223633,"ranking":10,"id":1007417,"member_count":2,"lat":35.20000076293945},{"zip":"meetup12","country":"cy","localized_country_name":"Cyprus","distance":9411.455974991437,"city":"Geri","lon":33.41999816894531,"ranking":11,"id":1007421,"member_count":2,"lat":35.099998474121094},{"zip":"meetup13","country":"cy","localized_country_name":"Cyprus","distance":9452.325063543207,"city":"Ypsonas","lon":32.970001220703125,"ranking":12,"id":1007422,"member_count":2,"lat":34.689998626708984},{"zip":"meetup14","country":"cy","localized_country_name":"Cyprus","distance":9413.519061489744,"city":"Dromolaxia","lon":33.59000015258789,"ranking":13,"id":1007423,"member_count":2,"lat":34.880001068115234},{"zip":"meetup22","country":"cy","localized_country_name":"Cyprus","distance":9450.404370095132,"city":"Pano Polemidia","lon":33,"ranking":14,"id":1007431,"member_count":2,"lat":34.70000076293945},{"zip":"meetup15","country":"cy","localized_country_name":"Cyprus","distance":9408.345447718224,"city":"Baru","lon":33.630001068115234,"ranking":15,"id":1007424,"member_count":1,"lat":34.95000076293945},{"zip":"meetup16","country":"cy","localized_country_name":"Cyprus","distance":9341.9458483533,"city":"Rizokarpaso","lon":34.38999938964844,"ranking":16,"id":1007425,"member_count":1,"lat":35.599998474121094},{"zip":"meetup23","country":"cy","localized_country_name":"Cyprus","distance":9474.249052453782,"city":"Chlorakas","lon":32.40999984741211,"ranking":17,"id":1007432,"member_count":1,"lat":34.79999923706055},{"zip":"meetup17","country":"cy","localized_country_name":"Cyprus","distance":9413.119871026262,"city":"Lapithos","lon":33.15999984741211,"ranking":18,"id":1007426,"member_count":0,"lat":35.33000183105469},{"zip":"meetup18","country":"cy","localized_country_name":"Cyprus","distance":9329.945308376162,"city":"Kythrea","lon":34.72999954223633,"ranking":19,"id":1007427,"member_count":0,"lat":35.5099983215332},{"zip":"meetup19","country":"cy","localized_country_name":"Cyprus","distance":9380.086063303475,"city":"Iskele","lon":33.900001525878906,"ranking":20,"id":1007428,"member_count":0,"lat":35.279998779296875},{"zip":"meetup20","country":"cy","localized_country_name":"Cyprus","distance":9472.807344507159,"city":"Ãˆmbi","lon":32.43000030517578,"ranking":21,"id":1007429,"member_count":0,"lat":34.810001373291016},{"zip":"meetup21","country":"cy","localized_country_name":"Cyprus","distance":9354.215216739245,"city":"Yialousa","lon":34.189998626708984,"ranking":22,"id":1007430,"member_count":0,"lat":35.540000915527344},{"zip":"meetup25","country":"cy","localized_country_name":"Cyprus","distance":9359.834306160057,"city":"Leonarisso","lon":34.13999938964844,"ranking":23,"id":1007434,"member_count":0,"lat":35.470001220703125}],"meta":{"next":"","method":"Cities","total_count":24,"link":"http:\/\/api.meetup.com\/2\/cities","count":24,"description":"Returns Meetup cities. This method supports search by latitude\/longitude\/radius, by country\/state, by query term\/zip, or a combination of all of these. Location-only searches by lat and lon return all cities within a radius of the provided coordinates. Searches with a query return up to 10 cities matching the term, and can be sorted by size or distance to a given coordinate. 'smart' ordering can be used to return the match(es) with the highest member_count, unless a smaller size match exists nearby the given coordinates. Query searches are supported for country but not country and state","lon":"None","title":"Cities","url":"http:\/\/api.meetup.com\/2\/cities?country=cy&offset=0&sign=True&format=json&photo-host=public&page=200&radius=50&order=size&desc=false","id":"","updated":1381176529000,"lat":"None"}}
