{"results":[{"zip":"meetup1","country":"dm","localized_country_name":"Dominica","distance":9006.73294887761,"city":"Roseau","lon":-61.38999938964844,"ranking":0,"id":1009644,"member_count":6,"lat":15.300000190734863},{"zip":"meetup6","country":"dm","localized_country_name":"Dominica","distance":9011.626778363068,"city":"Atkinson","lon":-61.279998779296875,"ranking":1,"id":1009649,"member_count":5,"lat":15.510000228881836},{"zip":"meetup3","country":"dm","localized_country_name":"Dominica","distance":9000.122354237921,"city":"Portsmouth","lon":-61.459999084472656,"ranking":2,"id":1009646,"member_count":4,"lat":15.569999694824219},{"zip":"meetup5","country":"dm","localized_country_name":"Dominica","distance":9002.654304203503,"city":"Saint Joseph","lon":-61.439998626708984,"ranking":3,"id":1009648,"member_count":3,"lat":15.420000076293945},{"zip":"meetup16","country":"dm","localized_country_name":"Dominica","distance":9013.462413076137,"city":"Rosalie","lon":-61.27000045776367,"ranking":4,"id":1009659,"member_count":3,"lat":15.369999885559082},{"zip":"meetup21","country":"dm","localized_country_name":"Dominica","distance":9009.53165087803,"city":"Laudat","lon":-61.34000015258789,"ranking":5,"id":1009664,"member_count":2,"lat":15.329999923706055},{"zip":"meetup7","country":"dm","localized_country_name":"Dominica","distance":9014.50356474942,"city":"La Plaine","lon":-61.2599983215332,"ranking":6,"id":1009650,"member_count":2,"lat":15.319999694824219},{"zip":"meetup22","country":"dm","localized_country_name":"Dominica","distance":9012.501850462077,"city":"Salybia","lon":-61.27000045776367,"ranking":7,"id":1009665,"member_count":1,"lat":15.479999542236328},{"zip":"meetup2","country":"dm","localized_country_name":"Dominica","distance":9011.516406328306,"city":"Berekua","lon":-61.31999969482422,"ranking":8,"id":1009645,"member_count":1,"lat":15.239999771118164},{"zip":"meetup13","country":"dm","localized_country_name":"Dominica","distance":9002.203211850818,"city":"Vieille Case","lon":-61.41999816894531,"ranking":9,"id":1009656,"member_count":1,"lat":15.609999656677246},{"zip":"meetup18","country":"dm","localized_country_name":"Dominica","distance":9007.967620240792,"city":"Pont Cassé","lon":-61.36000061035156,"ranking":10,"id":1009661,"member_count":1,"lat":15.369999885559082},{"zip":"meetup20","country":"dm","localized_country_name":"Dominica","distance":9014.233847132886,"city":"Délices","lon":-61.27000045776367,"ranking":11,"id":1009663,"member_count":1,"lat":15.279999732971191},{"zip":"meetup4","country":"dm","localized_country_name":"Dominica","distance":9010.839350888007,"city":"Marigot","lon":-61.290000915527344,"ranking":12,"id":1009647,"member_count":0,"lat":15.529999732971191},{"zip":"meetup8","country":"dm","localized_country_name":"Dominica","distance":9005.696826388716,"city":"Mahaut","lon":-61.400001525878906,"ranking":13,"id":1009651,"member_count":0,"lat":15.350000381469727},{"zip":"meetup9","country":"dm","localized_country_name":"Dominica","distance":9008.6540889376,"city":"Wesley","lon":-61.31999969482422,"ranking":14,"id":1009652,"member_count":0,"lat":15.569999694824219},{"zip":"meetup10","country":"dm","localized_country_name":"Dominica","distance":9000.913638752161,"city":"Coulihaut","lon":-61.459999084472656,"ranking":15,"id":1009653,"member_count":0,"lat":15.479999542236328},{"zip":"meetup11","country":"dm","localized_country_name":"Dominica","distance":9001.957634807199,"city":"Barroui","lon":-61.45000076293945,"ranking":16,"id":1009654,"member_count":0,"lat":15.430000305175781},{"zip":"meetup12","country":"dm","localized_country_name":"Dominica","distance":9012.940875636985,"city":"Castle Bruce","lon":-61.27000045776367,"ranking":17,"id":1009655,"member_count":0,"lat":15.430000305175781},{"zip":"meetup14","country":"dm","localized_country_name":"Dominica","distance":9007.681337450005,"city":"Pointe Michel","lon":-61.380001068115234,"ranking":18,"id":1009657,"member_count":0,"lat":15.260000228881836},{"zip":"meetup15","country":"dm","localized_country_name":"Dominica","distance":9008.460496239306,"city":"Soufrière","lon":-61.369998931884766,"ranking":19,"id":1009658,"member_count":0,"lat":15.239999771118164},{"zip":"meetup17","country":"dm","localized_country_name":"Dominica","distance":9013.289207956805,"city":"Petite Soufrière","lon":-61.27000045776367,"ranking":20,"id":1009660,"member_count":0,"lat":15.390000343322754},{"zip":"meetup19","country":"dm","localized_country_name":"Dominica","distance":9004.20967808383,"city":"Hampstead","lon":-61.38999938964844,"ranking":21,"id":1009662,"member_count":0,"lat":15.59000015258789}],"meta":{"next":"","method":"Cities","total_count":22,"link":"http:\/\/api.meetup.com\/2\/cities","count":22,"description":"Returns Meetup cities. This method supports search by latitude\/longitude\/radius, by country\/state, by query term\/zip, or a combination of all of these. Location-only searches by lat and lon return all cities within a radius of the provided coordinates. Searches with a query return up to 10 cities matching the term, and can be sorted by size or distance to a given coordinate. 'smart' ordering can be used to return the match(es) with the highest member_count, unless a smaller size match exists nearby the given coordinates. Query searches are supported for country but not country and state","lon":"None","title":"Cities","url":"http:\/\/api.meetup.com\/2\/cities?country=dm&offset=0&sign=True&format=json&photo-host=public&page=200&radius=50&order=size&desc=false","id":"","updated":1251864867000,"lat":"None"}}
