{"results":[{"zip":"meetup1","country":"fj","localized_country_name":"Fiji","distance":1315.752353076128,"city":"Suva","lon":178.42999267578125,"ranking":0,"id":1011694,"member_count":59,"lat":-18.1299991607666},{"zip":"meetup7","country":"fj","localized_country_name":"Fiji","distance":1347.4819180935883,"city":"Ba","lon":177.69000244140625,"ranking":1,"id":1011700,"member_count":14,"lat":-17.549999237060547},{"zip":"meetup3","country":"fj","localized_country_name":"Fiji","distance":1327.8946703825181,"city":"Nadi","lon":177.4199981689453,"ranking":2,"id":1011696,"member_count":10,"lat":-17.799999237060547},{"zip":"meetup2","country":"fj","localized_country_name":"Fiji","distance":1341.193791648466,"city":"Lautoka","lon":177.4499969482422,"ranking":3,"id":1011695,"member_count":9,"lat":-17.610000610351562},{"zip":"meetup5","country":"fj","localized_country_name":"Fiji","distance":1324.4649544758142,"city":"Nausori","lon":178.52999877929688,"ranking":4,"id":1011698,"member_count":6,"lat":-18.020000457763672},{"zip":"meetup4","country":"fj","localized_country_name":"Fiji","distance":1441.0806535830282,"city":"Labasa","lon":179.3800048828125,"ranking":5,"id":1011697,"member_count":5,"lat":-16.469999313354492},{"zip":"meetup8","country":"fj","localized_country_name":"Fiji","distance":1305.366472536559,"city":"Sigatoka","lon":177.50999450683594,"ranking":6,"id":1011701,"member_count":3,"lat":-18.139999389648438},{"zip":"meetup10","country":"fj","localized_country_name":"Fiji","distance":1419.4817744380548,"city":"Savusavu","lon":179.33999633789062,"ranking":7,"id":1011703,"member_count":3,"lat":-16.780000686645508},{"zip":"meetup6","country":"fj","localized_country_name":"Fiji","distance":1316.8766946614003,"city":"Lami","lon":178.41000366210938,"ranking":8,"id":1011699,"member_count":2,"lat":-18.110000610351562},{"zip":"meetup21","country":"fj","localized_country_name":"Fiji","distance":1688.5030388041148,"city":"Malhaha","lon":177.08999633789062,"ranking":9,"id":1011714,"member_count":1,"lat":-12.520000457763672},{"zip":"meetup22","country":"fj","localized_country_name":"Fiji","distance":1319.1245466432176,"city":"Namosi","lon":178.1300048828125,"ranking":10,"id":1011715,"member_count":1,"lat":-18.030000686645508},{"zip":"meetup9","country":"fj","localized_country_name":"Fiji","distance":1352.4539149458035,"city":"Vatukoula","lon":177.85000610351562,"ranking":11,"id":1011702,"member_count":1,"lat":-17.5},{"zip":"meetup11","country":"fj","localized_country_name":"Fiji","distance":1364.8654388472025,"city":"Rakiraki","lon":178.25,"ranking":12,"id":1011704,"member_count":1,"lat":-17.3799991607666},{"zip":"meetup13","country":"fj","localized_country_name":"Fiji","distance":1351.2817346314857,"city":"Levuka","lon":178.82000732421875,"ranking":13,"id":1011706,"member_count":1,"lat":-17.68000030517578},{"zip":"meetup14","country":"fj","localized_country_name":"Fiji","distance":1356.761135549452,"city":"Tavua","lon":177.8699951171875,"ranking":14,"id":1011707,"member_count":1,"lat":-17.440000534057617},{"zip":"meetup19","country":"fj","localized_country_name":"Fiji","distance":1338.899399053935,"city":"Korovou","lon":178.5399932861328,"ranking":15,"id":1011712,"member_count":0,"lat":-17.809999465942383},{"zip":"meetup20","country":"fj","localized_country_name":"Fiji","distance":1424.7087203693843,"city":"Vunisea","lon":178.9199981689453,"ranking":16,"id":1011713,"member_count":0,"lat":-16.6200008392334},{"zip":"meetup12","country":"fj","localized_country_name":"Fiji","distance":1306.7014664233957,"city":"Navua","lon":178.17999267578125,"ranking":17,"id":1011705,"member_count":0,"lat":-18.219999313354492},{"zip":"meetup15","country":"fj","localized_country_name":"Fiji","distance":1301.6220879157268,"city":"Deuba","lon":177.89999389648438,"ranking":18,"id":1011708,"member_count":0,"lat":-18.25},{"zip":"meetup16","country":"fj","localized_country_name":"Fiji","distance":1354.1868279365003,"city":"Tubou","lon":-178.8000030517578,"ranking":19,"id":1011709,"member_count":0,"lat":-18.229999542236328},{"zip":"meetup17","country":"fj","localized_country_name":"Fiji","distance":1396.7467930707708,"city":"Navouvalu","lon":178.6999969482422,"ranking":20,"id":1011710,"member_count":0,"lat":-16.989999771118164},{"zip":"meetup18","country":"fj","localized_country_name":"Fiji","distance":1433.0310064226621,"city":"Seaqaqa","lon":179.13999938964844,"ranking":21,"id":1011711,"member_count":0,"lat":-16.540000915527344}],"meta":{"next":"","method":"Cities","total_count":22,"link":"http:\/\/api.meetup.com\/2\/cities","count":22,"description":"Returns Meetup cities. This method supports search by latitude\/longitude\/radius, by country\/state, by query term\/zip, or a combination of all of these. Location-only searches by lat and lon return all cities within a radius of the provided coordinates. Searches with a query return up to 10 cities matching the term, and can be sorted by size or distance to a given coordinate. 'smart' ordering can be used to return the match(es) with the highest member_count, unless a smaller size match exists nearby the given coordinates. Query searches are supported for country but not country and state","lon":"None","title":"Cities","url":"http:\/\/api.meetup.com\/2\/cities?country=fj&offset=0&sign=True&format=json&photo-host=public&page=200&radius=50&order=size&desc=false","id":"","updated":1251864867000,"lat":"None"}}
