{"results":[{"zip":"meetup1","country":"fo","localized_country_name":"Faroe Islands","distance":8951.846128357116,"city":"Tórshavn","lon":-6.800000190734863,"ranking":0,"id":1011726,"member_count":7,"lat":62.029998779296875},{"zip":"meetup13","country":"fo","localized_country_name":"Faroe Islands","distance":8926.582396669242,"city":"Eiði","lon":-7.079999923706055,"ranking":1,"id":1011738,"member_count":4,"lat":62.310001373291016},{"zip":"meetup14","country":"fo","localized_country_name":"Faroe Islands","distance":8970.081827229751,"city":"Húsavík","lon":-6.670000076293945,"ranking":2,"id":1011739,"member_count":2,"lat":61.810001373291016},{"zip":"meetup2","country":"fo","localized_country_name":"Faroe Islands","distance":8941.133245541716,"city":"Klaksvík","lon":-6.610000133514404,"ranking":3,"id":1011727,"member_count":1,"lat":62.2400016784668},{"zip":"meetup9","country":"fo","localized_country_name":"Faroe Islands","distance":8940.943925868392,"city":"Gøta","lon":-6.71999979019165,"ranking":4,"id":1011734,"member_count":1,"lat":62.209999084472656},{"zip":"meetup3","country":"fo","localized_country_name":"Faroe Islands","distance":8947.221065904896,"city":"Runavík","lon":-6.71999979019165,"ranking":5,"id":1011728,"member_count":0,"lat":62.119998931884766},{"zip":"meetup4","country":"fo","localized_country_name":"Faroe Islands","distance":8985.578028218075,"city":"Tvøroyri","lon":-6.809999942779541,"ranking":6,"id":1011729,"member_count":0,"lat":61.54999923706055},{"zip":"meetup5","country":"fo","localized_country_name":"Faroe Islands","distance":8936.507356766648,"city":"Fuglafjarð","lon":-6.800000190734863,"ranking":7,"id":1011730,"member_count":0,"lat":62.25},{"zip":"meetup6","country":"fo","localized_country_name":"Faroe Islands","distance":8990.865228295868,"city":"Vágs","lon":-6.829999923706055,"ranking":8,"id":1011731,"member_count":0,"lat":61.470001220703125},{"zip":"meetup7","country":"fo","localized_country_name":"Faroe Islands","distance":8949.318587837102,"city":"Nes","lon":-6.71999979019165,"ranking":9,"id":1011732,"member_count":0,"lat":62.09000015258789},{"zip":"meetup8","country":"fo","localized_country_name":"Faroe Islands","distance":8938.752286148067,"city":"Vestmanna","lon":-7.159999847412109,"ranking":10,"id":1011733,"member_count":0,"lat":62.11000061035156},{"zip":"meetup10","country":"fo","localized_country_name":"Faroe Islands","distance":8943.190971863181,"city":"Kollafjarð","lon":-6.880000114440918,"ranking":11,"id":1011735,"member_count":0,"lat":62.130001068115234},{"zip":"meetup11","country":"fo","localized_country_name":"Faroe Islands","distance":8945.481066577633,"city":"Sjó","lon":-6.769999980926514,"ranking":12,"id":1011736,"member_count":0,"lat":62.130001068115234},{"zip":"meetup12","country":"fo","localized_country_name":"Faroe Islands","distance":8942.570258146743,"city":"Midvágs","lon":-7.210000038146973,"ranking":13,"id":1011737,"member_count":0,"lat":62.040000915527344}],"meta":{"next":"","method":"Cities","total_count":14,"link":"http:\/\/api.meetup.com\/2\/cities","count":14,"description":"Returns Meetup cities. This method supports search by latitude\/longitude\/radius, by country\/state, by query term\/zip, or a combination of all of these. Location-only searches by lat and lon return all cities within a radius of the provided coordinates. Searches with a query return up to 10 cities matching the term, and can be sorted by size or distance to a given coordinate. 'smart' ordering can be used to return the match(es) with the highest member_count, unless a smaller size match exists nearby the given coordinates. Query searches are supported for country but not country and state","lon":"None","title":"Cities","url":"http:\/\/api.meetup.com\/2\/cities?country=fo&offset=0&sign=True&format=json&photo-host=public&page=200&radius=50&order=size&desc=false","id":"","updated":1251864867000,"lat":"None"}}
