{"results":[{"zip":"meetup1","country":"ga","localized_country_name":"Gabon","distance":11709.260809282561,"city":"Libreville","lon":9.449999809265137,"ranking":0,"id":1012682,"member_count":14,"lat":0.38999998569488525},{"zip":"meetup2","country":"ga","localized_country_name":"Gabon","distance":11737.251371564987,"city":"Port-Gentil","lon":8.779999732971191,"ranking":1,"id":1012683,"member_count":4,"lat":-0.7200000286102295},{"zip":"meetup12","country":"ga","localized_country_name":"Gabon","distance":11616.021809412836,"city":"Gamba","lon":10,"ranking":2,"id":1012693,"member_count":2,"lat":-2.6500000953674316},{"zip":"meetup9","country":"ga","localized_country_name":"Gabon","distance":11541.508442447423,"city":"Tchibanga","lon":11.029999732971191,"ranking":3,"id":1012690,"member_count":1,"lat":-2.859999895095825},{"zip":"meetup11","country":"ga","localized_country_name":"Gabon","distance":11592.011444582206,"city":"Bitam","lon":11.479999542236328,"ranking":4,"id":1012692,"member_count":1,"lat":2.0799999237060547},{"zip":"meetup29","country":"ga","localized_country_name":"Gabon","distance":11526.541211479893,"city":"Mimongo","lon":11.649999618530273,"ranking":5,"id":1012710,"member_count":1,"lat":-1.6299999952316284},{"zip":"meetup3","country":"ga","localized_country_name":"Gabon","distance":11394.922618604885,"city":"Masuku","lon":13.600000381469727,"ranking":6,"id":1012684,"member_count":0,"lat":-1.6299999952316284},{"zip":"meetup4","country":"ga","localized_country_name":"Gabon","distance":11421.968278571065,"city":"Moanda","lon":13.220000267028809,"ranking":7,"id":1012685,"member_count":0,"lat":-1.559999942779541},{"zip":"meetup5","country":"ga","localized_country_name":"Gabon","distance":11581.262180157732,"city":"Oyem","lon":11.569999694824219,"ranking":8,"id":1012686,"member_count":0,"lat":1.600000023841858},{"zip":"meetup6","country":"ga","localized_country_name":"Gabon","distance":11482.556485987765,"city":"Makokou","lon":12.850000381469727,"ranking":9,"id":1012687,"member_count":0,"lat":0.5600000023841858},{"zip":"meetup7","country":"ga","localized_country_name":"Gabon","distance":11565.329894562288,"city":"Mouila","lon":11,"ranking":10,"id":1012688,"member_count":0,"lat":-1.8799999952316284},{"zip":"meetup8","country":"ga","localized_country_name":"Gabon","distance":11641.070663792048,"city":"Lambaréné","lon":10.210000038146973,"ranking":11,"id":1012689,"member_count":0,"lat":-0.699999988079071},{"zip":"meetup10","country":"ga","localized_country_name":"Gabon","distance":11479.02837126548,"city":"Koulamoutou","lon":12.5,"ranking":12,"id":1012691,"member_count":0,"lat":-1.1200000047683716},{"zip":"meetup13","country":"ga","localized_country_name":"Gabon","distance":11427.908598144808,"city":"Mounana","lon":13.170000076293945,"ranking":13,"id":1012694,"member_count":0,"lat":-1.4299999475479126},{"zip":"meetup14","country":"ga","localized_country_name":"Gabon","distance":11686.877785286773,"city":"Ntoum","lon":9.779999732971191,"ranking":14,"id":1012695,"member_count":0,"lat":0.3799999952316284},{"zip":"meetup15","country":"ga","localized_country_name":"Gabon","distance":11689.03894169446,"city":"Nkan","lon":9.75,"ranking":15,"id":1012696,"member_count":0,"lat":0.38999998569488525},{"zip":"meetup16","country":"ga","localized_country_name":"Gabon","distance":11470.488075627705,"city":"Lastoursville","lon":12.710000038146973,"ranking":16,"id":1012697,"member_count":0,"lat":-0.8100000023841858},{"zip":"meetup17","country":"ga","localized_country_name":"Gabon","distance":11399.596706598035,"city":"Okandja","lon":13.789999961853027,"ranking":17,"id":1012698,"member_count":0,"lat":-0.699999988079071},{"zip":"meetup18","country":"ga","localized_country_name":"Gabon","distance":11605.330646216533,"city":"Tsogni","lon":10.109999656677246,"ranking":18,"id":1012699,"member_count":0,"lat":-2.7899999618530273},{"zip":"meetup19","country":"ga","localized_country_name":"Gabon","distance":11528.89891318846,"city":"Ndendé","lon":11.380000114440918,"ranking":19,"id":1012700,"member_count":0,"lat":-2.380000114440918},{"zip":"meetup20","country":"ga","localized_country_name":"Gabon","distance":11533.690812610364,"city":"Booué","lon":11.949999809265137,"ranking":20,"id":1012701,"member_count":0,"lat":-0.09000000357627869},{"zip":"meetup21","country":"ga","localized_country_name":"Gabon","distance":11605.392600314182,"city":"Fougamou","lon":10.600000381469727,"ranking":21,"id":1012702,"member_count":0,"lat":-1.2200000286102295},{"zip":"meetup22","country":"ga","localized_country_name":"Gabon","distance":11612.515314054213,"city":"Ndjolé","lon":10.760000228881836,"ranking":22,"id":1012703,"member_count":0,"lat":-0.18000000715255737},{"zip":"meetup23","country":"ga","localized_country_name":"Gabon","distance":11635.661681184947,"city":"Setté Cama","lon":9.75,"ranking":23,"id":1012704,"member_count":0,"lat":-2.5299999713897705},{"zip":"meetup24","country":"ga","localized_country_name":"Gabon","distance":11552.767382762602,"city":"Mayumba","lon":10.65999984741211,"ranking":24,"id":1012705,"member_count":0,"lat":-3.4200000762939453},{"zip":"meetup25","country":"ga","localized_country_name":"Gabon","distance":11502.526869232672,"city":"Mbigou","lon":11.930000305175781,"ranking":25,"id":1012706,"member_count":0,"lat":-1.8799999952316284},{"zip":"meetup26","country":"ga","localized_country_name":"Gabon","distance":11573.13561270626,"city":"Mitzic","lon":11.550000190734863,"ranking":26,"id":1012707,"member_count":0,"lat":0.7900000214576721},{"zip":"meetup27","country":"ga","localized_country_name":"Gabon","distance":11384.420574028423,"city":"Mékambo","lon":13.930000305175781,"ranking":27,"id":1012708,"member_count":0,"lat":-1.0199999809265137},{"zip":"meetup28","country":"ga","localized_country_name":"Gabon","distance":11353.421116932428,"city":"Lékoni","lon":14.229999542236328,"ranking":28,"id":1012709,"member_count":0,"lat":-1.5800000429153442},{"zip":"meetup30","country":"ga","localized_country_name":"Gabon","distance":11483.292606425746,"city":"Minvoul","lon":12.130000114440918,"ranking":29,"id":1012711,"member_count":0,"lat":-2.1500000953674316},{"zip":"meetup31","country":"ga","localized_country_name":"Gabon","distance":11689.820276549768,"city":"Omboué","lon":9.25,"ranking":30,"id":1012712,"member_count":0,"lat":-1.5700000524520874},{"zip":"meetup32","country":"ga","localized_country_name":"Gabon","distance":11706.936105901566,"city":"Cocobeach","lon":9.600000381469727,"ranking":31,"id":1012713,"member_count":0,"lat":0.9900000095367432},{"zip":"meetup33","country":"ga","localized_country_name":"Gabon","distance":11572.853220661307,"city":"Lalara","lon":11.470000267028809,"ranking":32,"id":1012714,"member_count":0,"lat":0.3700000047683716},{"zip":"meetup34","country":"ga","localized_country_name":"Gabon","distance":11598.204870213474,"city":"Médouneu","lon":10.779999732971191,"ranking":33,"id":1012715,"member_count":0,"lat":-0.949999988079071},{"zip":"meetup35","country":"ga","localized_country_name":"Gabon","distance":11655.470580014897,"city":"Kango","lon":10.130000114440918,"ranking":34,"id":1012716,"member_count":0,"lat":-0.15000000596046448}],"meta":{"next":"","method":"Cities","total_count":35,"link":"http:\/\/api.meetup.com\/2\/cities","count":35,"description":"Returns Meetup cities. This method supports search by latitude\/longitude\/radius, by country\/state, by query term\/zip, or a combination of all of these. Location-only searches by lat and lon return all cities within a radius of the provided coordinates. Searches with a query return up to 10 cities matching the term, and can be sorted by size or distance to a given coordinate. 'smart' ordering can be used to return the match(es) with the highest member_count, unless a smaller size match exists nearby the given coordinates. Query searches are supported for country but not country and state","lon":"None","title":"Cities","url":"http:\/\/api.meetup.com\/2\/cities?country=ga&offset=0&sign=True&format=json&photo-host=public&page=200&radius=50&order=size&desc=false","id":"","updated":1251864867000,"lat":"None"}}
