{"results":[{"zip":"meetup1","country":"gd","localized_country_name":"Grenada","distance":9003.580323989261,"city":"Carlisle","lon":-61.7400016784668,"ranking":0,"id":1013706,"member_count":12,"lat":12.0600004196167},{"zip":"meetup5","country":"gd","localized_country_name":"Grenada","distance":9008.052259456088,"city":"Saint Davids","lon":-61.66999816894531,"ranking":1,"id":1013710,"member_count":5,"lat":12.029999732971191},{"zip":"meetup6","country":"gd","localized_country_name":"Grenada","distance":9009.350946333567,"city":"Sauteurs","lon":-61.63999938964844,"ranking":2,"id":1013711,"member_count":4,"lat":12.220000267028809},{"zip":"meetup2","country":"gd","localized_country_name":"Grenada","distance":9003.876853313857,"city":"Gouyave","lon":-61.72999954223633,"ranking":3,"id":1013707,"member_count":3,"lat":12.170000076293945},{"zip":"meetup4","country":"gd","localized_country_name":"Grenada","distance":9005.691872331543,"city":"Victoria","lon":-61.70000076293945,"ranking":4,"id":1013709,"member_count":3,"lat":12.1899995803833},{"zip":"meetup3","country":"gd","localized_country_name":"Grenada","distance":9010.886045935644,"city":"Grenville","lon":-61.619998931884766,"ranking":5,"id":1013708,"member_count":1,"lat":12.130000114440918},{"zip":"meetup8","country":"gd","localized_country_name":"Grenada","distance":9007.159824429635,"city":"Saint Georges","lon":-61.68000030517578,"ranking":6,"id":1110392,"member_count":0,"lat":12.119999885559082},{"zip":"meetup7","country":"gd","localized_country_name":"Grenada","distance":9019.69816988159,"city":"Hillsborough","lon":-61.459999084472656,"ranking":7,"id":1013712,"member_count":0,"lat":12.479999542236328}],"meta":{"next":"","method":"Cities","total_count":8,"link":"http:\/\/api.meetup.com\/2\/cities","count":8,"description":"Returns Meetup cities. This method supports search by latitude\/longitude\/radius, by country\/state, by query term\/zip, or a combination of all of these. Location-only searches by lat and lon return all cities within a radius of the provided coordinates. Searches with a query return up to 10 cities matching the term, and can be sorted by size or distance to a given coordinate. 'smart' ordering can be used to return the match(es) with the highest member_count, unless a smaller size match exists nearby the given coordinates. Query searches are supported for country but not country and state","lon":"None","title":"Cities","url":"http:\/\/api.meetup.com\/2\/cities?country=gd&offset=0&sign=True&format=json&photo-host=public&page=200&radius=50&order=size&desc=false","id":"","updated":1408129496000,"lat":"None"}}
