{"results":[{"zip":"meetup1","country":"gh","localized_country_name":"Ghana","distance":12384.916981236318,"city":"Accra","lon":-0.20000000298023224,"ranking":0,"id":1013842,"member_count":934,"lat":5.559999942779541},{"zip":"meetup2","country":"gh","localized_country_name":"Ghana","distance":12474.169408179345,"city":"Kumasi","lon":-1.6299999952316284,"ranking":1,"id":1013843,"member_count":117,"lat":6.690000057220459},{"zip":"meetup75","country":"gh","localized_country_name":"Ghana","distance":12501.228182349192,"city":"Aboso","lon":-1.9299999475479126,"ranking":2,"id":1013916,"member_count":83,"lat":5.369999885559082},{"zip":"meetup3","country":"gh","localized_country_name":"Ghana","distance":12390.636345932422,"city":"Tamale","lon":-0.8399999737739563,"ranking":3,"id":1013844,"member_count":55,"lat":9.399999618530273},{"zip":"meetup19","country":"gh","localized_country_name":"Ghana","distance":12366.43876401392,"city":"Tema New Town","lon":0.07000000029802322,"ranking":4,"id":1013860,"member_count":29,"lat":5.679999828338623},{"zip":"meetup13","country":"gh","localized_country_name":"Ghana","distance":12456.44848317295,"city":"Cape Coast","lon":-1.25,"ranking":5,"id":1013854,"member_count":21,"lat":5.110000133514404},{"zip":"meetup9","country":"gh","localized_country_name":"Ghana","distance":12491.039040806358,"city":"Takoradi","lon":-1.7599999904632568,"ranking":6,"id":1013850,"member_count":19,"lat":4.889999866485596},{"zip":"meetup8","country":"gh","localized_country_name":"Ghana","distance":12386.618106262677,"city":"Koforidua","lon":-0.25999999046325684,"ranking":7,"id":1013849,"member_count":12,"lat":6.090000152587891},{"zip":"meetup12","country":"gh","localized_country_name":"Ghana","distance":12393.077932980239,"city":"Ashiaman","lon":-0.33000001311302185,"ranking":8,"id":1013853,"member_count":12,"lat":5.699999809265137},{"zip":"meetup14","country":"gh","localized_country_name":"Ghana","distance":12334.958537347879,"city":"Ho","lon":0.4699999988079071,"ranking":9,"id":1013855,"member_count":10,"lat":6.599999904632568},{"zip":"meetup51","country":"gh","localized_country_name":"Ghana","distance":12382.431668612242,"city":"Aburi","lon":-0.18000000715255737,"ranking":10,"id":1013892,"member_count":9,"lat":5.849999904632568},{"zip":"meetup32","country":"gh","localized_country_name":"Ghana","distance":12394.624541414878,"city":"Nsawam","lon":-0.36000001430511475,"ranking":11,"id":1013873,"member_count":8,"lat":5.809999942779541},{"zip":"meetup11","country":"gh","localized_country_name":"Ghana","distance":12516.554266352767,"city":"Sunyani","lon":-2.3499999046325684,"ranking":12,"id":1013852,"member_count":7,"lat":7.340000152587891},{"zip":"meetup22","country":"gh","localized_country_name":"Ghana","distance":12473.205668248154,"city":"Tafo","lon":-1.6200000047683716,"ranking":13,"id":1013863,"member_count":7,"lat":6.730000019073486},{"zip":"meetup31","country":"gh","localized_country_name":"Ghana","distance":12506.132684855205,"city":"Tarkwa","lon":-2,"ranking":14,"id":1013872,"member_count":7,"lat":5.300000190734863},{"zip":"meetup7","country":"gh","localized_country_name":"Ghana","distance":12366.674838773273,"city":"Bolgatanga","lon":-0.8500000238418579,"ranking":15,"id":1013848,"member_count":6,"lat":10.789999961853027},{"zip":"meetup20","country":"gh","localized_country_name":"Ghana","distance":12419.070612255082,"city":"Swedru","lon":-0.7099999785423279,"ranking":16,"id":1013861,"member_count":6,"lat":5.539999961853027},{"zip":"meetup24","country":"gh","localized_country_name":"Ghana","distance":12382.469207474145,"city":"Madina","lon":-0.17000000178813934,"ranking":17,"id":1013865,"member_count":6,"lat":5.679999828338623},{"zip":"meetup30","country":"gh","localized_country_name":"Ghana","distance":12294.48158340326,"city":"Aflao","lon":1.1200000047683716,"ranking":18,"id":1013871,"member_count":6,"lat":6.110000133514404},{"zip":"meetup49","country":"gh","localized_country_name":"Ghana","distance":12376.508222283577,"city":"Somanya","lon":-0.10999999940395355,"ranking":19,"id":1013890,"member_count":6,"lat":6.110000133514404},{"zip":"meetup4","country":"gh","localized_country_name":"Ghana","distance":12371.265483739344,"city":"Tima","lon":0,"ranking":20,"id":1013845,"member_count":5,"lat":5.639999866485596},{"zip":"meetup6","country":"gh","localized_country_name":"Ghana","distance":12378.128795253064,"city":"Teshie","lon":-0.10000000149011612,"ranking":21,"id":1013847,"member_count":5,"lat":5.590000152587891},{"zip":"meetup15","country":"gh","localized_country_name":"Ghana","distance":12488.717922035841,"city":"Wa","lon":-2.5,"ranking":22,"id":1013856,"member_count":5,"lat":10.0600004196167},{"zip":"meetup23","country":"gh","localized_country_name":"Ghana","distance":12376.088467923708,"city":"Nungua","lon":-0.07000000029802322,"ranking":23,"id":1013864,"member_count":5,"lat":5.599999904632568},{"zip":"meetup25","country":"gh","localized_country_name":"Ghana","distance":12414.338790378428,"city":"Winneba","lon":-0.6299999952316284,"ranking":24,"id":1013866,"member_count":5,"lat":5.349999904632568},{"zip":"meetup27","country":"gh","localized_country_name":"Ghana","distance":12531.424043198624,"city":"Berekum","lon":-2.5899999141693115,"ranking":25,"id":1013868,"member_count":5,"lat":7.449999809265137},{"zip":"meetup16","country":"gh","localized_country_name":"Ghana","distance":12321.36146092105,"city":"Bawku","lon":-0.23999999463558197,"ranking":26,"id":1013857,"member_count":4,"lat":11.0600004196167},{"zip":"meetup41","country":"gh","localized_country_name":"Ghana","distance":12463.187862280442,"city":"Elmina","lon":-1.350000023841858,"ranking":27,"id":1013882,"member_count":4,"lat":5.090000152587891},{"zip":"meetup68","country":"gh","localized_country_name":"Ghana","distance":12412.159032619973,"city":"Ada","lon":-0.6200000047683716,"ranking":28,"id":1013909,"member_count":4,"lat":5.769999980926514},{"zip":"meetup36","country":"gh","localized_country_name":"Ghana","distance":12399.550812666044,"city":"Suhum","lon":-0.44999998807907104,"ranking":29,"id":1013877,"member_count":3,"lat":6.039999961853027},{"zip":"meetup54","country":"gh","localized_country_name":"Ghana","distance":12446.700055350831,"city":"Konongo","lon":-1.2100000381469727,"ranking":30,"id":1013895,"member_count":3,"lat":6.619999885559082},{"zip":"meetup55","country":"gh","localized_country_name":"Ghana","distance":12457.211275001337,"city":"Foso","lon":-1.2899999618530273,"ranking":31,"id":1013896,"member_count":3,"lat":5.699999809265137},{"zip":"meetup60","country":"gh","localized_country_name":"Ghana","distance":12304.081789092514,"city":"Keta","lon":0.9900000095367432,"ranking":32,"id":1013901,"member_count":3,"lat":5.909999847412109},{"zip":"meetup5","country":"gh","localized_country_name":"Ghana","distance":12479.467612085182,"city":"Obuasi","lon":-1.659999966621399,"ranking":33,"id":1013846,"member_count":2,"lat":6.190000057220459},{"zip":"meetup17","country":"gh","localized_country_name":"Ghana","distance":12418.539366996723,"city":"Nkawkaw","lon":-0.7799999713897705,"ranking":34,"id":1013858,"member_count":2,"lat":6.550000190734863},{"zip":"meetup33","country":"gh","localized_country_name":"Ghana","distance":12456.589713229005,"city":"Mampong","lon":-1.409999966621399,"ranking":35,"id":1013874,"member_count":2,"lat":7.059999942779541},{"zip":"meetup34","country":"gh","localized_country_name":"Ghana","distance":12436.900984293849,"city":"Oda","lon":-1,"ranking":36,"id":1013875,"member_count":2,"lat":5.909999847412109},{"zip":"meetup37","country":"gh","localized_country_name":"Ghana","distance":12310.588893592021,"city":"Anloga","lon":0.8999999761581421,"ranking":37,"id":1013878,"member_count":2,"lat":5.789999961853027},{"zip":"meetup38","country":"gh","localized_country_name":"Ghana","distance":12393.646463383255,"city":"Begoro","lon":-0.38999998569488525,"ranking":38,"id":1013879,"member_count":2,"lat":6.380000114440918},{"zip":"meetup58","country":"gh","localized_country_name":"Ghana","distance":12474.46572387906,"city":"Ofinso","lon":-1.659999966621399,"ranking":39,"id":1013899,"member_count":2,"lat":6.909999847412109},{"zip":"meetup63","country":"gh","localized_country_name":"Ghana","distance":12375.873112425357,"city":"Akropong","lon":-0.09000000357627869,"ranking":40,"id":1013904,"member_count":2,"lat":5.96999979019165},{"zip":"meetup71","country":"gh","localized_country_name":"Ghana","distance":12415.005127177124,"city":"Mpraeso","lon":-0.7300000190734863,"ranking":41,"id":1013912,"member_count":2,"lat":6.579999923706055},{"zip":"meetup10","country":"gh","localized_country_name":"Ghana","distance":12488.270973423234,"city":"Sekondi","lon":-1.7200000286102295,"ranking":42,"id":1013851,"member_count":1,"lat":4.940000057220459},{"zip":"meetup18","country":"gh","localized_country_name":"Ghana","distance":12335.360302651206,"city":"Yendi","lon":-0.009999999776482582,"ranking":43,"id":1013859,"member_count":1,"lat":9.4399995803833},{"zip":"meetup21","country":"gh","localized_country_name":"Ghana","distance":12436.723935194956,"city":"Agogo","lon":-1.0800000429153442,"ranking":44,"id":1013862,"member_count":1,"lat":6.800000190734863},{"zip":"meetup26","country":"gh","localized_country_name":"Ghana","distance":12486.93540905435,"city":"Techiman","lon":-1.940000057220459,"ranking":45,"id":1013867,"member_count":1,"lat":7.579999923706055},{"zip":"meetup28","country":"gh","localized_country_name":"Ghana","distance":12415.101343866683,"city":"Asamankese","lon":-0.6700000166893005,"ranking":46,"id":1013869,"member_count":1,"lat":5.860000133514404},{"zip":"meetup29","country":"gh","localized_country_name":"Ghana","distance":12330.853842713292,"city":"Hohoe","lon":0.4699999988079071,"ranking":47,"id":1013870,"member_count":1,"lat":7.150000095367432},{"zip":"meetup40","country":"gh","localized_country_name":"Ghana","distance":12386.474146946566,"city":"Savelugu","lon":-0.8299999833106995,"ranking":48,"id":1013881,"member_count":1,"lat":9.619999885559082},{"zip":"meetup43","country":"gh","localized_country_name":"Ghana","distance":12489.400339831058,"city":"Dunkwa","lon":-1.7899999618530273,"ranking":49,"id":1013884,"member_count":1,"lat":5.960000038146973},{"zip":"meetup50","country":"gh","localized_country_name":"Ghana","distance":12443.514631430247,"city":"Saltpond","lon":-1.059999942779541,"ranking":50,"id":1013891,"member_count":1,"lat":5.199999809265137},{"zip":"meetup59","country":"gh","localized_country_name":"Ghana","distance":12497.569931271182,"city":"Bechem","lon":-2.0299999713897705,"ranking":51,"id":1013900,"member_count":1,"lat":7.090000152587891},{"zip":"meetup62","country":"gh","localized_country_name":"Ghana","distance":12430.097423761368,"city":"Nyakrom","lon":-0.8799999952316284,"ranking":52,"id":1013903,"member_count":1,"lat":5.630000114440918},{"zip":"meetup64","country":"gh","localized_country_name":"Ghana","distance":12472.648630405169,"city":"Komenda","lon":-1.4900000095367432,"ranking":53,"id":1013905,"member_count":1,"lat":5.050000190734863},{"zip":"meetup69","country":"gh","localized_country_name":"Ghana","distance":12357.278525820697,"city":"Kete-Krachi","lon":-0.019999999552965164,"ranking":54,"id":1013910,"member_count":1,"lat":7.800000190734863},{"zip":"meetup70","country":"gh","localized_country_name":"Ghana","distance":12406.256619148786,"city":"Kibi","lon":-0.5600000023841858,"ranking":55,"id":1013911,"member_count":1,"lat":6.159999847412109},{"zip":"meetup35","country":"gh","localized_country_name":"Ghana","distance":12412.647484585204,"city":"Okitsiu","lon":-0.6200000047683716,"ranking":56,"id":1013876,"member_count":0,"lat":5.650000095367432},{"zip":"meetup39","country":"gh","localized_country_name":"Ghana","distance":12496.5347482946,"city":"Wenchi","lon":-2.109999895095825,"ranking":57,"id":1013880,"member_count":0,"lat":7.739999771118164},{"zip":"meetup42","country":"gh","localized_country_name":"Ghana","distance":12343.368544682597,"city":"Kpandu","lon":0.30000001192092896,"ranking":58,"id":1013883,"member_count":0,"lat":7},{"zip":"meetup44","country":"gh","localized_country_name":"Ghana","distance":12467.852965651698,"city":"Kintampo","lon":-1.7300000190734863,"ranking":59,"id":1013885,"member_count":0,"lat":8.050000190734863},{"zip":"meetup45","country":"gh","localized_country_name":"Ghana","distance":12515.70666550194,"city":"Prestea","lon":-2.1500000953674316,"ranking":60,"id":1013886,"member_count":0,"lat":5.440000057220459},{"zip":"meetup46","country":"gh","localized_country_name":"Ghana","distance":12421.19808046476,"city":"Apan","lon":-0.7300000190734863,"ranking":61,"id":1013887,"member_count":0,"lat":5.289999961853027},{"zip":"meetup47","country":"gh","localized_country_name":"Ghana","distance":12523.230777809124,"city":"Axim","lon":-2.240000009536743,"ranking":62,"id":1013888,"member_count":0,"lat":4.869999885559082},{"zip":"meetup48","country":"gh","localized_country_name":"Ghana","distance":12489.161289248965,"city":"Mankranso","lon":-1.8700000047683716,"ranking":63,"id":1013889,"member_count":0,"lat":6.820000171661377},{"zip":"meetup52","country":"gh","localized_country_name":"Ghana","distance":12381.75552773339,"city":"Salaga","lon":-0.5199999809265137,"ranking":64,"id":1013893,"member_count":0,"lat":8.539999961853027},{"zip":"meetup53","country":"gh","localized_country_name":"Ghana","distance":12483.46658701388,"city":"Shama","lon":-1.649999976158142,"ranking":65,"id":1013894,"member_count":0,"lat":5},{"zip":"meetup56","country":"gh","localized_country_name":"Ghana","distance":12425.31334665356,"city":"Kade","lon":-0.8399999737739563,"ranking":66,"id":1013897,"member_count":0,"lat":6.090000152587891},{"zip":"meetup57","country":"gh","localized_country_name":"Ghana","distance":12380.373600611973,"city":"Navrongo","lon":-1.090000033378601,"ranking":67,"id":1013898,"member_count":0,"lat":10.890000343322754},{"zip":"meetup61","country":"gh","localized_country_name":"Ghana","distance":12501.515763561521,"city":"Duayaw Nkwanta","lon":-2.0999999046325684,"ranking":68,"id":1013902,"member_count":0,"lat":7.170000076293945},{"zip":"meetup65","country":"gh","localized_country_name":"Ghana","distance":12422.5906589866,"city":"Mumford","lon":-0.75,"ranking":69,"id":1013906,"member_count":0,"lat":5.269999980926514},{"zip":"meetup66","country":"gh","localized_country_name":"Ghana","distance":12453.055304360385,"city":"Mauri","lon":-1.2000000476837158,"ranking":70,"id":1013907,"member_count":0,"lat":5.130000114440918},{"zip":"meetup67","country":"gh","localized_country_name":"Ghana","distance":12522.448771337235,"city":"Bibiani","lon":-2.3299999237060547,"ranking":71,"id":1013908,"member_count":0,"lat":6.460000038146973},{"zip":"meetup72","country":"gh","localized_country_name":"Ghana","distance":12512.397359671275,"city":"Anomabu","lon":-2.0999999046325684,"ranking":72,"id":1013913,"member_count":0,"lat":5.429999828338623},{"zip":"meetup73","country":"gh","localized_country_name":"Ghana","distance":12349.588925390188,"city":"Kpandae","lon":-0.019999999552965164,"ranking":73,"id":1013914,"member_count":0,"lat":8.470000267028809},{"zip":"meetup74","country":"gh","localized_country_name":"Ghana","distance":12438.283987393019,"city":"Akim Swedru","lon":-1.0199999809265137,"ranking":74,"id":1013915,"member_count":0,"lat":5.900000095367432},{"zip":"meetup76","country":"gh","localized_country_name":"Ghana","distance":12472.51738573431,"city":"Bekwai","lon":-1.5800000429153442,"ranking":75,"id":1013917,"member_count":0,"lat":6.449999809265137},{"zip":"meetup77","country":"gh","localized_country_name":"Ghana","distance":12316.419324268745,"city":"Nkwanta","lon":0.5199999809265137,"ranking":76,"id":1111027,"member_count":0,"lat":8.260000228881836}],"meta":{"next":"","method":"Cities","total_count":77,"link":"http:\/\/api.meetup.com\/2\/cities","count":77,"description":"Returns Meetup cities. This method supports search by latitude\/longitude\/radius, by country\/state, by query term\/zip, or a combination of all of these. Location-only searches by lat and lon return all cities within a radius of the provided coordinates. Searches with a query return up to 10 cities matching the term, and can be sorted by size or distance to a given coordinate. 'smart' ordering can be used to return the match(es) with the highest member_count, unless a smaller size match exists nearby the given coordinates. Query searches are supported for country but not country and state","lon":"None","title":"Cities","url":"http:\/\/api.meetup.com\/2\/cities?country=gh&offset=0&sign=True&format=json&photo-host=public&page=200&radius=50&order=size&desc=false","id":"","updated":1473457549000,"lat":"None"}}
