{"results":[{"zip":"meetup1","country":"gq","localized_country_name":"Equatorial Guinea","distance":11783.132679463577,"city":"Malabo","lon":8.789999961853027,"ranking":0,"id":1014091,"member_count":15,"lat":3.740000009536743},{"zip":"meetup9","country":"gq","localized_country_name":"Equatorial Guinea","distance":11621.034327270374,"city":"Aconibe","lon":10.930000305175781,"ranking":1,"id":1014099,"member_count":6,"lat":1.2999999523162842},{"zip":"meetup8","country":"gq","localized_country_name":"Equatorial Guinea","distance":11599.055697802098,"city":"Mongomo","lon":11.3100004196167,"ranking":2,"id":1014098,"member_count":2,"lat":1.6299999952316284},{"zip":"meetup3","country":"gq","localized_country_name":"Equatorial Guinea","distance":11602.714334661268,"city":"Ebebiyin","lon":11.329999923706055,"ranking":3,"id":1014093,"member_count":1,"lat":2.1500000953674316},{"zip":"meetup2","country":"gq","localized_country_name":"Equatorial Guinea","distance":11705.651345915177,"city":"Báta","lon":9.760000228881836,"ranking":4,"id":1014092,"member_count":0,"lat":1.8700000047683716},{"zip":"meetup4","country":"gq","localized_country_name":"Equatorial Guinea","distance":11712.870008942073,"city":"Mbini","lon":9.609999656677246,"ranking":5,"id":1014094,"member_count":0,"lat":1.5800000429153442},{"zip":"meetup5","country":"gq","localized_country_name":"Equatorial Guinea","distance":11798.046317107803,"city":"Luba","lon":8.550000190734863,"ranking":6,"id":1014095,"member_count":0,"lat":3.4600000381469727},{"zip":"meetup6","country":"gq","localized_country_name":"Equatorial Guinea","distance":11646.913718953623,"city":"Evinayong","lon":10.569999694824219,"ranking":7,"id":1014096,"member_count":0,"lat":1.4500000476837158},{"zip":"meetup7","country":"gq","localized_country_name":"Equatorial Guinea","distance":11789.383072510633,"city":"Moca","lon":8.670000076293945,"ranking":8,"id":1014097,"member_count":0,"lat":3.3299999237060547},{"zip":"meetup10","country":"gq","localized_country_name":"Equatorial Guinea","distance":11636.048102128036,"city":"Acurenam","lon":10.65999984741211,"ranking":9,"id":1014100,"member_count":0,"lat":1.0299999713897705},{"zip":"meetup11","country":"gq","localized_country_name":"Equatorial Guinea","distance":11650.317881876741,"city":"Mikomeseng","lon":10.619999885559082,"ranking":10,"id":1014101,"member_count":0,"lat":2.140000104904175},{"zip":"meetup12","country":"gq","localized_country_name":"Equatorial Guinea","distance":11682.21883015948,"city":"Niefang","lon":10.050000190734863,"ranking":11,"id":1014102,"member_count":0,"lat":1.4800000190734863},{"zip":"meetup13","country":"gq","localized_country_name":"Equatorial Guinea","distance":11637.56225035791,"city":"Añisoc","lon":10.770000457763672,"ranking":12,"id":1014103,"member_count":0,"lat":1.850000023841858},{"zip":"meetup14","country":"gq","localized_country_name":"Equatorial Guinea","distance":11938.930438163694,"city":"Palé","lon":5.610000133514404,"ranking":13,"id":1014104,"member_count":0,"lat":-1.409999966621399},{"zip":"meetup15","country":"gq","localized_country_name":"Equatorial Guinea","distance":11596.860724252681,"city":"Nsok","lon":11.260000228881836,"ranking":14,"id":1014105,"member_count":0,"lat":1.1299999952316284},{"zip":"meetup16","country":"gq","localized_country_name":"Equatorial Guinea","distance":11783.690686115036,"city":"Riaba","lon":8.760000228881836,"ranking":15,"id":1014106,"member_count":0,"lat":3.4000000953674316}],"meta":{"next":"","method":"Cities","total_count":16,"link":"http:\/\/api.meetup.com\/2\/cities","count":16,"description":"Returns Meetup cities. This method supports search by latitude\/longitude\/radius, by country\/state, by query term\/zip, or a combination of all of these. Location-only searches by lat and lon return all cities within a radius of the provided coordinates. Searches with a query return up to 10 cities matching the term, and can be sorted by size or distance to a given coordinate. 'smart' ordering can be used to return the match(es) with the highest member_count, unless a smaller size match exists nearby the given coordinates. Query searches are supported for country but not country and state","lon":"None","title":"Cities","url":"http:\/\/api.meetup.com\/2\/cities?country=gq&offset=0&sign=True&format=json&photo-host=public&page=200&radius=50&order=size&desc=false","id":"","updated":1251864867000,"lat":"None"}}
