{"results":[{"zip":"meetup1","country":"hu","localized_country_name":"Hungary","distance":9316.092324662606,"city":"Budapest","lon":19.079999923706055,"ranking":0,"id":1016532,"member_count":2322,"lat":47.5099983215332},{"zip":"meetup2","country":"hu","localized_country_name":"Hungary","distance":9221.690324670404,"city":"Debrecen","lon":21.6299991607666,"ranking":1,"id":1016533,"member_count":46,"lat":47.540000915527344},{"zip":"meetup4","country":"hu","localized_country_name":"Hungary","distance":9356.499867370574,"city":"Szeged","lon":20.15999984741211,"ranking":2,"id":1016535,"member_count":39,"lat":46.2599983215332},{"zip":"meetup314","country":"hu","localized_country_name":"Hungary","distance":9367.552492527875,"city":"Aba","lon":18.530000686645508,"ranking":3,"id":1016845,"member_count":29,"lat":47.029998779296875},{"zip":"meetup3","country":"hu","localized_country_name":"Hungary","distance":9216.985016659984,"city":"Miskolc","lon":20.790000915527344,"ranking":4,"id":1016534,"member_count":24,"lat":48.099998474121094},{"zip":"meetup5","country":"hu","localized_country_name":"Hungary","distance":9441.746415487994,"city":"Pécs","lon":18.219999313354492,"ranking":5,"id":1016536,"member_count":19,"lat":46.08000183105469},{"zip":"meetup9","country":"hu","localized_country_name":"Hungary","distance":9360.833137188227,"city":"Székesfehérvár","lon":18.40999984741211,"ranking":6,"id":1016540,"member_count":19,"lat":47.20000076293945},{"zip":"meetup6","country":"hu","localized_country_name":"Hungary","distance":9356.6756454953,"city":"Györ","lon":17.639999389648438,"ranking":7,"id":1016537,"member_count":12,"lat":47.689998626708984},{"zip":"meetup17","country":"hu","localized_country_name":"Hungary","distance":9244.191933217506,"city":"Eger","lon":20.3799991607666,"ranking":8,"id":1016548,"member_count":12,"lat":47.900001525878906},{"zip":"meetup8","country":"hu","localized_country_name":"Hungary","distance":9332.399940352394,"city":"Kecskemét","lon":19.690000534057617,"ranking":9,"id":1016539,"member_count":11,"lat":46.90999984741211},{"zip":"meetup18","country":"hu","localized_country_name":"Hungary","distance":9330.728904934098,"city":"Érd","lon":18.90999984741211,"ranking":10,"id":1016549,"member_count":10,"lat":47.380001068115234},{"zip":"meetup11","country":"hu","localized_country_name":"Hungary","distance":9297.072668855932,"city":"Szolnok","lon":20.18000030517578,"ranking":11,"id":1016542,"member_count":9,"lat":47.18000030517578},{"zip":"meetup13","country":"hu","localized_country_name":"Hungary","distance":9439.493703379858,"city":"Kaposvár","lon":17.790000915527344,"ranking":12,"id":1016544,"member_count":9,"lat":46.36000061035156},{"zip":"meetup709","country":"hu","localized_country_name":"Hungary","distance":9397.564732530393,"city":"Úrkút","lon":17.6299991607666,"ranking":13,"id":1017240,"member_count":8,"lat":47.08000183105469},{"zip":"meetup48","country":"hu","localized_country_name":"Hungary","distance":9335.627997289132,"city":"Tata","lon":18.309999465942383,"ranking":14,"id":1016579,"member_count":7,"lat":47.63999938964844},{"zip":"meetup7","country":"hu","localized_country_name":"Hungary","distance":9192.547423990576,"city":"Nyíregyháza","lon":21.719999313354492,"ranking":15,"id":1016538,"member_count":7,"lat":47.959999084472656},{"zip":"meetup14","country":"hu","localized_country_name":"Hungary","distance":9295.444345193351,"city":"Békéscsaba","lon":21.079999923706055,"ranking":16,"id":1016545,"member_count":7,"lat":46.68000030517578},{"zip":"meetup26","country":"hu","localized_country_name":"Hungary","distance":9311.75326336498,"city":"Cegléd","lon":19.780000686645508,"ranking":17,"id":1016557,"member_count":7,"lat":47.18000030517578},{"zip":"meetup37","country":"hu","localized_country_name":"Hungary","distance":9300.466585186447,"city":"Gödöllö","lon":19.350000381469727,"ranking":18,"id":1016568,"member_count":7,"lat":47.599998474121094},{"zip":"meetup47","country":"hu","localized_country_name":"Hungary","distance":9323.706959222087,"city":"Budaörs","lon":18.959999084472656,"ranking":19,"id":1016578,"member_count":6,"lat":47.459999084472656},{"zip":"meetup15","country":"hu","localized_country_name":"Hungary","distance":9442.735650558692,"city":"Zalaegerszeg","lon":16.829999923706055,"ranking":20,"id":1016546,"member_count":6,"lat":46.849998474121094},{"zip":"meetup19","country":"hu","localized_country_name":"Hungary","distance":9395.918528737602,"city":"Sopron","lon":16.579999923706055,"ranking":21,"id":1016550,"member_count":6,"lat":47.68000030517578},{"zip":"meetup23","country":"hu","localized_country_name":"Hungary","distance":9250.905529114614,"city":"Salgótarján","lon":19.81999969482422,"ranking":22,"id":1016554,"member_count":6,"lat":48.11000061035156},{"zip":"meetup10","country":"hu","localized_country_name":"Hungary","distance":9424.491284498623,"city":"Szombathely","lon":16.6299991607666,"ranking":23,"id":1016541,"member_count":5,"lat":47.22999954223633},{"zip":"meetup20","country":"hu","localized_country_name":"Hungary","distance":9356.013222199921,"city":"Dunaújváros","lon":18.93000030517578,"ranking":24,"id":1016551,"member_count":5,"lat":46.97999954223633},{"zip":"meetup69","country":"hu","localized_country_name":"Hungary","distance":9315.911543833912,"city":"Vecsés","lon":19.280000686645508,"ranking":25,"id":1016600,"member_count":4,"lat":47.400001525878906},{"zip":"meetup78","country":"hu","localized_country_name":"Hungary","distance":9417.290663467587,"city":"Tapolca","lon":17.440000534057617,"ranking":26,"id":1016609,"member_count":4,"lat":46.88999938964844},{"zip":"meetup21","country":"hu","localized_country_name":"Hungary","distance":9463.036718750904,"city":"Nagykanizsa","lon":16.989999771118164,"ranking":27,"id":1016552,"member_count":4,"lat":46.459999084472656},{"zip":"meetup280","country":"hu","localized_country_name":"Hungary","distance":9332.80395270093,"city":"Szegvár","lon":20.229999542236328,"ranking":28,"id":1016811,"member_count":4,"lat":46.59000015258789},{"zip":"meetup29","country":"hu","localized_country_name":"Hungary","distance":9268.330133135762,"city":"Gyöngyös","lon":19.920000076293945,"ranking":29,"id":1016560,"member_count":4,"lat":47.779998779296875},{"zip":"meetup31","country":"hu","localized_country_name":"Hungary","distance":9289.518470787109,"city":"Gyula","lon":21.290000915527344,"ranking":30,"id":1016562,"member_count":4,"lat":46.650001525878906},{"zip":"meetup311","country":"hu","localized_country_name":"Hungary","distance":9367.19144729626,"city":"Szabadbattyán","lon":18.3799991607666,"ranking":31,"id":1016842,"member_count":3,"lat":47.119998931884766},{"zip":"meetup57","country":"hu","localized_country_name":"Hungary","distance":9370.778551168003,"city":"Várpalota","lon":18.139999389648438,"ranking":32,"id":1016588,"member_count":3,"lat":47.20000076293945},{"zip":"meetup840","country":"hu","localized_country_name":"Hungary","distance":9390.768233009543,"city":"Ozora","lon":18.399999618530273,"ranking":33,"id":1017371,"member_count":3,"lat":46.75},{"zip":"meetup80","country":"hu","localized_country_name":"Hungary","distance":9332.230352217519,"city":"Százhalombatta","lon":18.940000534057617,"ranking":34,"id":1016611,"member_count":3,"lat":47.34000015258789},{"zip":"meetup83","country":"hu","localized_country_name":"Hungary","distance":9304.618689941388,"city":"Fót","lon":19.200000762939453,"ranking":35,"id":1016614,"member_count":3,"lat":47.619998931884766},{"zip":"meetup95","country":"hu","localized_country_name":"Hungary","distance":9308.559015098494,"city":"Pomáz","lon":19.020000457763672,"ranking":36,"id":1016626,"member_count":3,"lat":47.65999984741211},{"zip":"meetup135","country":"hu","localized_country_name":"Hungary","distance":9384.525015741881,"city":"Kapuvár","lon":17.040000915527344,"ranking":37,"id":1016666,"member_count":3,"lat":47.599998474121094},{"zip":"meetup172","country":"hu","localized_country_name":"Hungary","distance":9328.52885869122,"city":"Biatorbágy","lon":18.809999465942383,"ranking":38,"id":1016703,"member_count":3,"lat":47.470001220703125},{"zip":"meetup12","country":"hu","localized_country_name":"Hungary","distance":9336.795094947654,"city":"Tatabánya","lon":18.440000534057617,"ranking":39,"id":1016543,"member_count":3,"lat":47.54999923706055},{"zip":"meetup16","country":"hu","localized_country_name":"Hungary","distance":9385.876081706516,"city":"Veszprém","lon":17.90999984741211,"ranking":40,"id":1016547,"member_count":3,"lat":47.099998474121094},{"zip":"meetup24","country":"hu","localized_country_name":"Hungary","distance":9226.232049549779,"city":"Ózd","lon":20.299999237060547,"ranking":41,"id":1016555,"member_count":3,"lat":48.22999954223633},{"zip":"meetup28","country":"hu","localized_country_name":"Hungary","distance":9296.174005699537,"city":"Vác","lon":19.1299991607666,"ranking":42,"id":1016559,"member_count":3,"lat":47.790000915527344},{"zip":"meetup39","country":"hu","localized_country_name":"Hungary","distance":9358.787836979938,"city":"Mosonmagyaróvár","lon":17.270000457763672,"ranking":43,"id":1016570,"member_count":3,"lat":47.86000061035156},{"zip":"meetup40","country":"hu","localized_country_name":"Hungary","distance":9371.176946785621,"city":"Kiskunhalas","lon":19.479999542236328,"ranking":44,"id":1016571,"member_count":3,"lat":46.43000030517578},{"zip":"meetup41","country":"hu","localized_country_name":"Hungary","distance":9306.874256561494,"city":"Dunakeszi","lon":19.1200008392334,"ranking":45,"id":1016572,"member_count":3,"lat":47.630001068115234},{"zip":"meetup49","country":"hu","localized_country_name":"Hungary","distance":9327.554841096568,"city":"Szigetszentmiklós","lon":19.049999237060547,"ranking":46,"id":1016580,"member_count":2,"lat":47.349998474121094},{"zip":"meetup51","country":"hu","localized_country_name":"Hungary","distance":9393.545869331807,"city":"Siófok","lon":18.059999465942383,"ranking":47,"id":1016582,"member_count":2,"lat":46.900001525878906},{"zip":"meetup307","country":"hu","localized_country_name":"Hungary","distance":9433.692751854122,"city":"Hévíz","lon":17.18000030517578,"ranking":48,"id":1016838,"member_count":2,"lat":46.790000915527344},{"zip":"meetup53","country":"hu","localized_country_name":"Hungary","distance":9284.01681879195,"city":"Hatvan","lon":19.68000030517578,"ranking":49,"id":1016584,"member_count":2,"lat":47.66999816894531},{"zip":"meetup62","country":"hu","localized_country_name":"Hungary","distance":9382.091272624375,"city":"Paks","lon":18.860000610351562,"ranking":50,"id":1016593,"member_count":2,"lat":46.619998931884766},{"zip":"meetup70","country":"hu","localized_country_name":"Hungary","distance":9302.748212184264,"city":"Szarvas","lon":20.559999465942383,"ranking":51,"id":1016601,"member_count":2,"lat":46.869998931884766},{"zip":"meetup79","country":"hu","localized_country_name":"Hungary","distance":9216.987560955433,"city":"Tiszaújváros","lon":21.06999969482422,"ranking":52,"id":1016610,"member_count":2,"lat":47.939998626708984},{"zip":"meetup86","country":"hu","localized_country_name":"Hungary","distance":9302.672053090833,"city":"Abony","lon":20.010000228881836,"ranking":53,"id":1016617,"member_count":2,"lat":47.189998626708984},{"zip":"meetup99","country":"hu","localized_country_name":"Hungary","distance":9184.913083127973,"city":"Nyírbátor","lon":22.139999389648438,"ranking":54,"id":1016630,"member_count":2,"lat":47.84000015258789},{"zip":"meetup105","country":"hu","localized_country_name":"Hungary","distance":9298.483176982161,"city":"Nagykáta","lon":19.739999771118164,"ranking":55,"id":1016636,"member_count":2,"lat":47.40999984741211},{"zip":"meetup623","country":"hu","localized_country_name":"Hungary","distance":9398.899366145783,"city":"Bogyiszló","lon":18.829999923706055,"ranking":56,"id":1017154,"member_count":2,"lat":46.380001068115234},{"zip":"meetup124","country":"hu","localized_country_name":"Hungary","distance":9459.371143233668,"city":"Szigetvár","lon":17.809999465942383,"ranking":57,"id":1016655,"member_count":2,"lat":46.04999923706055},{"zip":"meetup127","country":"hu","localized_country_name":"Hungary","distance":9327.114702368648,"city":"Törökbálint","lon":18.920000076293945,"ranking":58,"id":1016658,"member_count":2,"lat":47.43000030517578},{"zip":"meetup129","country":"hu","localized_country_name":"Hungary","distance":9334.444253871668,"city":"Bicske","lon":18.6299991607666,"ranking":59,"id":1016660,"member_count":2,"lat":47.47999954223633},{"zip":"meetup146","country":"hu","localized_country_name":"Hungary","distance":9324.201674909345,"city":"Üllö","lon":19.229999542236328,"ranking":60,"id":1016677,"member_count":2,"lat":47.29999923706055},{"zip":"meetup150","country":"hu","localized_country_name":"Hungary","distance":9310.060996322885,"city":"Budakalász","lon":19.049999237060547,"ranking":61,"id":1016681,"member_count":2,"lat":47.619998931884766},{"zip":"meetup163","country":"hu","localized_country_name":"Hungary","distance":9331.414994370045,"city":"Tököl","lon":18.979999542236328,"ranking":62,"id":1016694,"member_count":2,"lat":47.33000183105469},{"zip":"meetup441","country":"hu","localized_country_name":"Hungary","distance":9236.41894673586,"city":"Hajdúszovát","lon":21.479999542236328,"ranking":63,"id":1016972,"member_count":2,"lat":47.38999938964844},{"zip":"meetup198","country":"hu","localized_country_name":"Hungary","distance":9328.086701733617,"city":"Halásztelek","lon":19,"ranking":64,"id":1016729,"member_count":2,"lat":47.369998931884766},{"zip":"meetup264","country":"hu","localized_country_name":"Hungary","distance":9349.27638669188,"city":"Algyö","lon":20.25,"ranking":65,"id":1016795,"member_count":2,"lat":46.31999969482422},{"zip":"meetup776","country":"hu","localized_country_name":"Hungary","distance":9172.030908534052,"city":"Petneháza","lon":22.09000015258789,"ranking":66,"id":1017307,"member_count":2,"lat":48.08000183105469},{"zip":"meetup33","country":"hu","localized_country_name":"Hungary","distance":9217.355090763178,"city":"Hajdúböszörmény","lon":21.510000228881836,"ranking":67,"id":1016564,"member_count":2,"lat":47.68000030517578},{"zip":"meetup34","country":"hu","localized_country_name":"Hungary","distance":9339.672981687587,"city":"Kiskunfélegyháza","lon":19.84000015258789,"ranking":68,"id":1016565,"member_count":2,"lat":46.709999084472656},{"zip":"meetup36","country":"hu","localized_country_name":"Hungary","distance":9398.824828633196,"city":"Ajka","lon":17.559999465942383,"ranking":69,"id":1016567,"member_count":2,"lat":47.099998474121094},{"zip":"meetup42","country":"hu","localized_country_name":"Hungary","distance":9310.255261421175,"city":"Esztergom","lon":18.739999771118164,"ranking":70,"id":1016573,"member_count":2,"lat":47.790000915527344},{"zip":"meetup43","country":"hu","localized_country_name":"Hungary","distance":9286.54112404017,"city":"Jászberény","lon":19.90999984741211,"ranking":71,"id":1016574,"member_count":2,"lat":47.5},{"zip":"meetup555","country":"hu","localized_country_name":"Hungary","distance":9397.696959246961,"city":"Répcelak","lon":17.010000228881836,"ranking":72,"id":1017086,"member_count":2,"lat":47.41999816894531},{"zip":"meetup561","country":"hu","localized_country_name":"Hungary","distance":9332.792965581819,"city":"Baj","lon":18.3700008392334,"ranking":73,"id":1017092,"member_count":1,"lat":47.650001525878906},{"zip":"meetup52","country":"hu","localized_country_name":"Hungary","distance":9288.638037333765,"city":"Törökszentmiklós","lon":20.40999984741211,"ranking":74,"id":1016583,"member_count":1,"lat":47.18000030517578},{"zip":"meetup309","country":"hu","localized_country_name":"Hungary","distance":9153.51866708346,"city":"Mándok","lon":22.200000762939453,"ranking":75,"id":1016840,"member_count":1,"lat":48.31999969482422},{"zip":"meetup823","country":"hu","localized_country_name":"Hungary","distance":9230.238633640995,"city":"Szilvásvárad","lon":20.399999618530273,"ranking":76,"id":1017354,"member_count":1,"lat":48.11000061035156},{"zip":"meetup56","country":"hu","localized_country_name":"Hungary","distance":9432.790589320226,"city":"Keszthely","lon":17.239999771118164,"ranking":77,"id":1016587,"member_count":1,"lat":46.77000045776367},{"zip":"meetup60","country":"hu","localized_country_name":"Hungary","distance":9425.315957733797,"city":"Dombóvár","lon":18.1299991607666,"ranking":78,"id":1016591,"member_count":1,"lat":46.380001068115234},{"zip":"meetup61","country":"hu","localized_country_name":"Hungary","distance":9312.9242393924,"city":"Monor","lon":19.450000762939453,"ranking":79,"id":1016592,"member_count":1,"lat":47.349998474121094},{"zip":"meetup63","country":"hu","localized_country_name":"Hungary","distance":9346.124337893463,"city":"Oroszlány","lon":18.309999465942383,"ranking":80,"id":1016594,"member_count":1,"lat":47.47999954223633},{"zip":"meetup319","country":"hu","localized_country_name":"Hungary","distance":9322.841928727328,"city":"Lakitelek","lon":20,"ranking":81,"id":1016850,"member_count":1,"lat":46.880001068115234},{"zip":"meetup65","country":"hu","localized_country_name":"Hungary","distance":9292.678802365659,"city":"Mezötúr","lon":20.610000610351562,"ranking":82,"id":1016596,"member_count":1,"lat":47},{"zip":"meetup66","country":"hu","localized_country_name":"Hungary","distance":9429.481581438255,"city":"Mohács","lon":18.68000030517578,"ranking":83,"id":1016597,"member_count":1,"lat":46},{"zip":"meetup67","country":"hu","localized_country_name":"Hungary","distance":9327.865494036641,"city":"Csongrád","lon":20.139999389648438,"ranking":84,"id":1016598,"member_count":1,"lat":46.720001220703125},{"zip":"meetup579","country":"hu","localized_country_name":"Hungary","distance":9312.635653395837,"city":"Kesztölc","lon":18.799999237060547,"ranking":85,"id":1017110,"member_count":1,"lat":47.720001220703125},{"zip":"meetup325","country":"hu","localized_country_name":"Hungary","distance":9364.686965423081,"city":"Domaszék","lon":19.959999084472656,"ranking":86,"id":1016856,"member_count":1,"lat":46.25},{"zip":"meetup838","country":"hu","localized_country_name":"Hungary","distance":9197.351123624609,"city":"Monok","lon":21.149999618530273,"ranking":87,"id":1017369,"member_count":1,"lat":48.209999084472656},{"zip":"meetup71","country":"hu","localized_country_name":"Hungary","distance":9383.74122237776,"city":"Kalocsa","lon":18.989999771118164,"ranking":88,"id":1016602,"member_count":1,"lat":46.52000045776367},{"zip":"meetup327","country":"hu","localized_country_name":"Hungary","distance":9200.360550177047,"city":"Smederevo","lon":20.729999542236328,"ranking":89,"id":1016858,"member_count":1,"lat":48.400001525878906},{"zip":"meetup72","country":"hu","localized_country_name":"Hungary","distance":9167.62538460791,"city":"Sátoraljaújhely","lon":21.65999984741211,"ranking":90,"id":1016603,"member_count":1,"lat":48.400001525878906},{"zip":"meetup74","country":"hu","localized_country_name":"Hungary","distance":9209.70010580138,"city":"Hajdúnánás","lon":21.43000030517578,"ranking":91,"id":1016605,"member_count":1,"lat":47.849998474121094},{"zip":"meetup75","country":"hu","localized_country_name":"Hungary","distance":9163.840313581903,"city":"Kisvárda","lon":22.079999923706055,"ranking":92,"id":1016606,"member_count":1,"lat":48.220001220703125},{"zip":"meetup76","country":"hu","localized_country_name":"Hungary","distance":9242.685000620026,"city":"Mezökövesd","lon":20.579999923706055,"ranking":93,"id":1016607,"member_count":1,"lat":47.810001373291016},{"zip":"meetup81","country":"hu","localized_country_name":"Hungary","distance":9326.09109350449,"city":"Dunaharaszti","lon":19.09000015258789,"ranking":94,"id":1016612,"member_count":1,"lat":47.349998474121094},{"zip":"meetup338","country":"hu","localized_country_name":"Hungary","distance":9442.382759148706,"city":"Kozármisleny","lon":18.290000915527344,"ranking":95,"id":1016869,"member_count":1,"lat":46.029998779296875},{"zip":"meetup87","country":"hu","localized_country_name":"Hungary","distance":9411.392483610067,"city":"Sárvár","lon":16.93000030517578,"ranking":96,"id":1016618,"member_count":1,"lat":47.2599983215332},{"zip":"meetup88","country":"hu","localized_country_name":"Hungary","distance":9288.352981847862,"city":"Gyomaendröd","lon":20.829999923706055,"ranking":97,"id":1016619,"member_count":1,"lat":46.939998626708984},{"zip":"meetup344","country":"hu","localized_country_name":"Hungary","distance":9358.065846870844,"city":"Dunavecse","lon":18.979999542236328,"ranking":98,"id":1016875,"member_count":1,"lat":46.91999816894531},{"zip":"meetup89","country":"hu","localized_country_name":"Hungary","distance":9301.987598735905,"city":"Göd","lon":19.1299991607666,"ranking":99,"id":1016620,"member_count":1,"lat":47.70000076293945},{"zip":"meetup345","country":"hu","localized_country_name":"Hungary","distance":9350.773197572424,"city":"Kiszombor","lon":20.43000030517578,"ranking":100,"id":1016876,"member_count":1,"lat":46.189998626708984},{"zip":"meetup92","country":"hu","localized_country_name":"Hungary","distance":9175.09532186956,"city":"Sárospatak","lon":21.56999969482422,"ranking":101,"id":1016623,"member_count":1,"lat":48.33000183105469},{"zip":"meetup93","country":"hu","localized_country_name":"Hungary","distance":9259.461919227873,"city":"Bátonyterenye","lon":19.829999923706055,"ranking":102,"id":1016624,"member_count":1,"lat":47.970001220703125},{"zip":"meetup96","country":"hu","localized_country_name":"Hungary","distance":9310.24192878182,"city":"Gyömrö","lon":19.399999618530273,"ranking":103,"id":1016627,"member_count":1,"lat":47.41999816894531},{"zip":"meetup353","country":"hu","localized_country_name":"Hungary","distance":9205.5145474702,"city":"Taktaharkány","lon":21.1299991607666,"ranking":104,"id":1016884,"member_count":1,"lat":48.09000015258789},{"zip":"meetup98","country":"hu","localized_country_name":"Hungary","distance":9209.04958549456,"city":"Újfehértó","lon":21.5,"ranking":105,"id":1016629,"member_count":1,"lat":47.81999969482422},{"zip":"meetup610","country":"hu","localized_country_name":"Hungary","distance":9366.417590232368,"city":"Rábapatona","lon":17.5,"ranking":106,"id":1017141,"member_count":1,"lat":47.619998931884766},{"zip":"meetup100","country":"hu","localized_country_name":"Hungary","distance":9373.0156933504,"city":"Sárbogárd","lon":18.6299991607666,"ranking":107,"id":1016631,"member_count":1,"lat":46.88999938964844},{"zip":"meetup102","country":"hu","localized_country_name":"Hungary","distance":9396.926739059756,"city":"Balatonfüred","lon":17.8799991607666,"ranking":108,"id":1016633,"member_count":1,"lat":46.95000076293945},{"zip":"meetup615","country":"hu","localized_country_name":"Hungary","distance":9265.143045146364,"city":"Bucsa","lon":21,"ranking":109,"id":1017146,"member_count":1,"lat":47.209999084472656},{"zip":"meetup106","country":"hu","localized_country_name":"Hungary","distance":9320.905630355668,"city":"Budakeszi","lon":18.93000030517578,"ranking":110,"id":1016637,"member_count":1,"lat":47.52000045776367},{"zip":"meetup109","country":"hu","localized_country_name":"Hungary","distance":9315.142268013175,"city":"Pilisvörösvár","lon":18.90999984741211,"ranking":111,"id":1016640,"member_count":1,"lat":47.619998931884766},{"zip":"meetup621","country":"hu","localized_country_name":"Hungary","distance":9331.833253800787,"city":"Almásfüzitö","lon":18.270000457763672,"ranking":112,"id":1017152,"member_count":1,"lat":47.720001220703125},{"zip":"meetup110","country":"hu","localized_country_name":"Hungary","distance":9328.28669996061,"city":"Szigethalom","lon":19.030000686645508,"ranking":113,"id":1016641,"member_count":1,"lat":47.349998474121094},{"zip":"meetup624","country":"hu","localized_country_name":"Hungary","distance":9275.258113974118,"city":"Buják","lon":19.549999237060547,"ranking":114,"id":1017155,"member_count":1,"lat":47.880001068115234},{"zip":"meetup628","country":"hu","localized_country_name":"Hungary","distance":9298.471333026995,"city":"Forró","lon":19.670000076293945,"ranking":115,"id":1017159,"member_count":1,"lat":47.45000076293945},{"zip":"meetup117","country":"hu","localized_country_name":"Hungary","distance":9306.852860482093,"city":"Tiszaföldvár","lon":20.260000228881836,"ranking":116,"id":1016648,"member_count":1,"lat":46.97999954223633},{"zip":"meetup120","country":"hu","localized_country_name":"Hungary","distance":9416.61785015614,"city":"Köszeg","lon":16.549999237060547,"ranking":117,"id":1016651,"member_count":1,"lat":47.38999938964844},{"zip":"meetup377","country":"hu","localized_country_name":"Hungary","distance":9174.072279928438,"city":"Vaja","lon":22.170000076293945,"ranking":118,"id":1016908,"member_count":1,"lat":48},{"zip":"meetup378","country":"hu","localized_country_name":"Hungary","distance":9437.559998226696,"city":"Bóly","lon":18.520000457763672,"ranking":119,"id":1016909,"member_count":1,"lat":45.970001220703125},{"zip":"meetup634","country":"hu","localized_country_name":"Hungary","distance":9248.794618333366,"city":"Maklár","lon":20.40999984741211,"ranking":120,"id":1017165,"member_count":1,"lat":47.810001373291016},{"zip":"meetup642","country":"hu","localized_country_name":"Hungary","distance":9295.946723795863,"city":"Valkó","lon":19.510000228881836,"ranking":121,"id":1017173,"member_count":1,"lat":47.58000183105469},{"zip":"meetup133","country":"hu","localized_country_name":"Hungary","distance":9376.195434216455,"city":"Csorna","lon":17.25,"ranking":122,"id":1016664,"member_count":1,"lat":47.61000061035156},{"zip":"meetup389","country":"hu","localized_country_name":"Hungary","distance":9434.677824172373,"city":"Sásd","lon":18.110000610351562,"ranking":123,"id":1016920,"member_count":1,"lat":46.25},{"zip":"meetup134","country":"hu","localized_country_name":"Hungary","distance":9313.76927433136,"city":"Pilis","lon":19.549999237060547,"ranking":124,"id":1016665,"member_count":1,"lat":47.279998779296875},{"zip":"meetup136","country":"hu","localized_country_name":"Hungary","distance":9299.782702018765,"city":"Veresegyház","lon":19.280000686645508,"ranking":125,"id":1016667,"member_count":1,"lat":47.650001525878906},{"zip":"meetup137","country":"hu","localized_country_name":"Hungary","distance":9267.312129866783,"city":"Pásztó","lon":19.700000762939453,"ranking":126,"id":1016668,"member_count":1,"lat":47.91999816894531},{"zip":"meetup138","country":"hu","localized_country_name":"Hungary","distance":9454.276131321009,"city":"Siklós","lon":18.290000915527344,"ranking":127,"id":1016669,"member_count":1,"lat":45.849998474121094},{"zip":"meetup140","country":"hu","localized_country_name":"Hungary","distance":9198.0612043035,"city":"Szerencs","lon":21.200000762939453,"ranking":128,"id":1016671,"member_count":1,"lat":48.16999816894531},{"zip":"meetup142","country":"hu","localized_country_name":"Hungary","distance":9270.182443888521,"city":"Szeghalom","lon":21.170000076293945,"ranking":129,"id":1016673,"member_count":1,"lat":47.029998779296875},{"zip":"meetup143","country":"hu","localized_country_name":"Hungary","distance":9277.548724829709,"city":"Jászapáti","lon":20.139999389648438,"ranking":130,"id":1016674,"member_count":1,"lat":47.5099983215332},{"zip":"meetup657","country":"hu","localized_country_name":"Hungary","distance":9378.610405940613,"city":"Kunfehértó","lon":19.420000076293945,"ranking":131,"id":1017188,"member_count":1,"lat":46.349998474121094},{"zip":"meetup658","country":"hu","localized_country_name":"Hungary","distance":9462.689805009164,"city":"Lábod","lon":17.459999084472656,"ranking":132,"id":1017189,"member_count":1,"lat":46.20000076293945},{"zip":"meetup403","country":"hu","localized_country_name":"Hungary","distance":9210.253606626777,"city":"Múcsony","lon":20.68000030517578,"ranking":133,"id":1016934,"member_count":1,"lat":48.27000045776367},{"zip":"meetup148","country":"hu","localized_country_name":"Hungary","distance":9309.402789034166,"city":"Maglód","lon":19.3700008392334,"ranking":134,"id":1016679,"member_count":1,"lat":47.45000076293945},{"zip":"meetup660","country":"hu","localized_country_name":"Hungary","distance":9251.778594686739,"city":"Mátraderecske","lon":20.079999923706055,"ranking":135,"id":1017191,"member_count":1,"lat":47.95000076293945},{"zip":"meetup405","country":"hu","localized_country_name":"Hungary","distance":9350.504266906237,"city":"Orgovány","lon":19.479999542236328,"ranking":136,"id":1016936,"member_count":1,"lat":46.75},{"zip":"meetup155","country":"hu","localized_country_name":"Hungary","distance":9235.009457934217,"city":"Derecske","lon":21.56999969482422,"ranking":137,"id":1016686,"member_count":1,"lat":47.36000061035156},{"zip":"meetup157","country":"hu","localized_country_name":"Hungary","distance":9162.236615001158,"city":"Fehérgyarmat","lon":22.520000457763672,"ranking":138,"id":1016688,"member_count":1,"lat":47.9900016784668},{"zip":"meetup158","country":"hu","localized_country_name":"Hungary","distance":9345.366777633259,"city":"Kunszentmiklós","lon":19.1299991607666,"ranking":139,"id":1016689,"member_count":1,"lat":47.029998779296875},{"zip":"meetup162","country":"hu","localized_country_name":"Hungary","distance":9316.362588802602,"city":"Solymár","lon":18.93000030517578,"ranking":140,"id":1016693,"member_count":1,"lat":47.59000015258789},{"zip":"meetup677","country":"hu","localized_country_name":"Hungary","distance":9418.860844739474,"city":"Hidas","lon":18.510000228881836,"ranking":141,"id":1017208,"member_count":1,"lat":46.2599983215332},{"zip":"meetup166","country":"hu","localized_country_name":"Hungary","distance":9268.224792633086,"city":"Kunhegyes","lon":20.639999389648438,"ranking":142,"id":1016697,"member_count":1,"lat":47.369998931884766},{"zip":"meetup168","country":"hu","localized_country_name":"Hungary","distance":9468.805513048375,"city":"Lenti","lon":16.549999237060547,"ranking":143,"id":1016699,"member_count":1,"lat":46.619998931884766},{"zip":"meetup684","country":"hu","localized_country_name":"Hungary","distance":9155.217730692793,"city":"Tarpa","lon":22.530000686645508,"ranking":144,"id":1017215,"member_count":1,"lat":48.099998474121094},{"zip":"meetup175","country":"hu","localized_country_name":"Hungary","distance":9351.998340227103,"city":"Gárdony","lon":18.649999618530273,"ranking":145,"id":1016706,"member_count":1,"lat":47.20000076293945},{"zip":"meetup183","country":"hu","localized_country_name":"Hungary","distance":9332.557666354456,"city":"Tárnok","lon":18.860000610351562,"ranking":146,"id":1016714,"member_count":1,"lat":47.380001068115234},{"zip":"meetup696","country":"hu","localized_country_name":"Hungary","distance":9277.449936902569,"city":"Jászdózsa","lon":20.020000457763672,"ranking":147,"id":1017227,"member_count":1,"lat":47.58000183105469},{"zip":"meetup450","country":"hu","localized_country_name":"Hungary","distance":9310.860978761883,"city":"Ecser","lon":19.329999923706055,"ranking":148,"id":1016981,"member_count":1,"lat":47.45000076293945},{"zip":"meetup197","country":"hu","localized_country_name":"Hungary","distance":9192.058428864799,"city":"Nyírtelek","lon":21.6299991607666,"ranking":149,"id":1016728,"member_count":1,"lat":48.02000045776367},{"zip":"meetup711","country":"hu","localized_country_name":"Hungary","distance":9351.938546683907,"city":"Zámoly","lon":18.420000076293945,"ranking":150,"id":1017242,"member_count":1,"lat":47.33000183105469},{"zip":"meetup200","country":"hu","localized_country_name":"Hungary","distance":9190.611812542676,"city":"Encs","lon":21.1299991607666,"ranking":151,"id":1016731,"member_count":1,"lat":48.33000183105469},{"zip":"meetup205","country":"hu","localized_country_name":"Hungary","distance":9294.097853248817,"city":"Újszász","lon":20.06999969482422,"ranking":152,"id":1016736,"member_count":1,"lat":47.290000915527344},{"zip":"meetup717","country":"hu","localized_country_name":"Hungary","distance":9158.34676811687,"city":"Aranyosapáti","lon":22.270000457763672,"ranking":153,"id":1017248,"member_count":1,"lat":48.20000076293945},{"zip":"meetup462","country":"hu","localized_country_name":"Hungary","distance":9311.875510488584,"city":"Pilisborosjenö","lon":19,"ranking":154,"id":1016993,"member_count":1,"lat":47.619998931884766},{"zip":"meetup465","country":"hu","localized_country_name":"Hungary","distance":9286.492693542741,"city":"Rétság","lon":19.1299991607666,"ranking":155,"id":1016996,"member_count":1,"lat":47.939998626708984},{"zip":"meetup210","country":"hu","localized_country_name":"Hungary","distance":9351.388598349336,"city":"Szabadszállás","lon":19.229999542236328,"ranking":156,"id":1016741,"member_count":1,"lat":46.880001068115234},{"zip":"meetup724","country":"hu","localized_country_name":"Hungary","distance":9257.954331005398,"city":"Domoszló","lon":20.1200008392334,"ranking":157,"id":1017255,"member_count":1,"lat":47.83000183105469},{"zip":"meetup214","country":"hu","localized_country_name":"Hungary","distance":9373.064129498014,"city":"Polgárdi","lon":18.309999465942383,"ranking":158,"id":1016745,"member_count":1,"lat":47.06999969482422},{"zip":"meetup728","country":"hu","localized_country_name":"Hungary","distance":9283.903926433413,"city":"Heréd","lon":19.6299991607666,"ranking":159,"id":1017259,"member_count":1,"lat":47.70000076293945},{"zip":"meetup478","country":"hu","localized_country_name":"Hungary","distance":9196.094603982678,"city":"Nyírlugos","lon":22.049999237060547,"ranking":160,"id":1017009,"member_count":1,"lat":47.709999084472656},{"zip":"meetup479","country":"hu","localized_country_name":"Hungary","distance":9272.045518242892,"city":"Okány","lon":21.34000015258789,"ranking":161,"id":1017010,"member_count":1,"lat":46.900001525878906},{"zip":"meetup225","country":"hu","localized_country_name":"Hungary","distance":9318.046666671882,"city":"Piliscsaba","lon":18.829999923706055,"ranking":162,"id":1016756,"member_count":1,"lat":47.619998931884766},{"zip":"meetup738","country":"hu","localized_country_name":"Hungary","distance":9386.965298487288,"city":"Szentkirályszabadja","lon":17.969999313354492,"ranking":163,"id":1017269,"member_count":1,"lat":47.04999923706055},{"zip":"meetup739","country":"hu","localized_country_name":"Hungary","distance":9339.746901971208,"city":"Szigetújfalu","lon":18.93000030517578,"ranking":164,"id":1017270,"member_count":1,"lat":47.22999954223633},{"zip":"meetup740","country":"hu","localized_country_name":"Hungary","distance":9289.399438767266,"city":"Tiszapüspöki","lon":20.31999969482422,"ranking":165,"id":1017271,"member_count":1,"lat":47.220001220703125},{"zip":"meetup235","country":"hu","localized_country_name":"Hungary","distance":9328.698114984936,"city":"Diósd","lon":18.93000030517578,"ranking":166,"id":1016766,"member_count":1,"lat":47.400001525878906},{"zip":"meetup241","country":"hu","localized_country_name":"Hungary","distance":9327.471068393428,"city":"Taksony","lon":19.06999969482422,"ranking":167,"id":1016772,"member_count":1,"lat":47.34000015258789},{"zip":"meetup755","country":"hu","localized_country_name":"Hungary","distance":9203.105547014631,"city":"Aszaló","lon":20.969999313354492,"ranking":168,"id":1017286,"member_count":1,"lat":48.220001220703125},{"zip":"meetup246","country":"hu","localized_country_name":"Hungary","distance":9278.18084077184,"city":"Jászkisér","lon":20.209999084472656,"ranking":169,"id":1016777,"member_count":1,"lat":47.459999084472656},{"zip":"meetup247","country":"hu","localized_country_name":"Hungary","distance":9388.540613007346,"city":"Mélykút","lon":19.3799991607666,"ranking":170,"id":1016778,"member_count":1,"lat":46.220001220703125},{"zip":"meetup766","country":"hu","localized_country_name":"Hungary","distance":9381.808733726142,"city":"Litér","lon":18.020000457763672,"ranking":171,"id":1017297,"member_count":1,"lat":47.099998474121094},{"zip":"meetup514","country":"hu","localized_country_name":"Hungary","distance":9339.323298011377,"city":"Ballószög","lon":19.59000015258789,"ranking":172,"id":1017045,"member_count":1,"lat":46.86000061035156},{"zip":"meetup515","country":"hu","localized_country_name":"Hungary","distance":9312.678816764896,"city":"Csobánka","lon":18.959999084472656,"ranking":173,"id":1017046,"member_count":1,"lat":47.630001068115234},{"zip":"meetup518","country":"hu","localized_country_name":"Hungary","distance":9270.101585832921,"city":"Gyöngyöspata","lon":19.799999237060547,"ranking":174,"id":1017049,"member_count":1,"lat":47.81999969482422},{"zip":"meetup778","country":"hu","localized_country_name":"Hungary","distance":9300.761602500754,"city":"Rákócziújfalu","lon":20.270000457763672,"ranking":175,"id":1017309,"member_count":1,"lat":47.06999969482422},{"zip":"meetup268","country":"hu","localized_country_name":"Hungary","distance":9274.329320385701,"city":"Kenderes","lon":20.68000030517578,"ranking":176,"id":1016799,"member_count":1,"lat":47.25},{"zip":"meetup270","country":"hu","localized_country_name":"Hungary","distance":9339.393243539425,"city":"Martonvásár","lon":18.780000686645508,"ranking":177,"id":1016801,"member_count":1,"lat":47.31999969482422},{"zip":"meetup277","country":"hu","localized_country_name":"Hungary","distance":9195.298413316528,"city":"Tokaj","lon":21.399999618530273,"ranking":178,"id":1016808,"member_count":1,"lat":48.099998474121094},{"zip":"meetup22","country":"hu","localized_country_name":"Hungary","distance":9340.269753072622,"city":"Hódmezövásárhely","lon":20.31999969482422,"ranking":179,"id":1016553,"member_count":1,"lat":46.41999816894531},{"zip":"meetup278","country":"hu","localized_country_name":"Hungary","distance":9415.672280089246,"city":"Balatonlelle","lon":17.68000030517578,"ranking":180,"id":1016809,"member_count":1,"lat":46.779998779296875},{"zip":"meetup27","country":"hu","localized_country_name":"Hungary","distance":9405.39063343492,"city":"Szekszárd","lon":18.709999084472656,"ranking":181,"id":1016558,"member_count":1,"lat":46.349998474121094},{"zip":"meetup30","country":"hu","localized_country_name":"Hungary","distance":9386.820340900422,"city":"Pápa","lon":17.469999313354492,"ranking":182,"id":1016561,"member_count":1,"lat":47.33000183105469},{"zip":"meetup543","country":"hu","localized_country_name":"Hungary","distance":9381.432648635207,"city":"Császártöltés","lon":19.190000534057617,"ranking":183,"id":1017074,"member_count":1,"lat":46.439998626708984},{"zip":"meetup32","country":"hu","localized_country_name":"Hungary","distance":9211.941854050574,"city":"Kazincbarcika","lon":20.649999618530273,"ranking":184,"id":1016563,"member_count":1,"lat":48.2599983215332},{"zip":"meetup35","country":"hu","localized_country_name":"Hungary","distance":9317.647344885014,"city":"Orosháza","lon":20.670000076293945,"ranking":185,"id":1016566,"member_count":1,"lat":46.56999969482422},{"zip":"meetup293","country":"hu","localized_country_name":"Hungary","distance":9309.206488562397,"city":"Nagykovácsi","lon":19.020000457763672,"ranking":186,"id":1016824,"member_count":1,"lat":47.650001525878906},{"zip":"meetup38","country":"hu","localized_country_name":"Hungary","distance":9327.223479284086,"city":"Szentes","lon":20.260000228881836,"ranking":187,"id":1016569,"member_count":1,"lat":46.65999984741211},{"zip":"meetup807","country":"hu","localized_country_name":"Hungary","distance":9369.394340161543,"city":"Bakonyszentlászló","lon":17.799999237060547,"ranking":188,"id":1017338,"member_count":1,"lat":47.40999984741211},{"zip":"meetup45","country":"hu","localized_country_name":"Hungary","distance":9321.369242770805,"city":"Nagykörös","lon":19.780000686645508,"ranking":189,"id":1016576,"member_count":0,"lat":47.029998779296875},{"zip":"meetup301","country":"hu","localized_country_name":"Hungary","distance":9361.61741502251,"city":"Györújbarát","lon":17.649999618530273,"ranking":190,"id":1016832,"member_count":0,"lat":47.61000061035156},{"zip":"meetup557","country":"hu","localized_country_name":"Hungary","distance":9241.964569833457,"city":"Szentistván","lon":20.670000076293945,"ranking":191,"id":1017088,"member_count":0,"lat":47.77000045776367},{"zip":"meetup813","country":"hu","localized_country_name":"Hungary","distance":9208.811414258942,"city":"Izsófalva","lon":20.649999618530273,"ranking":192,"id":1017344,"member_count":0,"lat":48.310001373291016},{"zip":"meetup46","country":"hu","localized_country_name":"Hungary","distance":9347.354496586393,"city":"Aomen","lon":20.469999313354492,"ranking":193,"id":1016577,"member_count":0,"lat":46.220001220703125},{"zip":"meetup302","country":"hu","localized_country_name":"Hungary","distance":9312.808365103923,"city":"Üröm","lon":19.010000228881836,"ranking":194,"id":1016833,"member_count":0,"lat":47.599998474121094},{"zip":"meetup558","country":"hu","localized_country_name":"Hungary","distance":9303.136277696052,"city":"Tápióság","lon":19.6299991607666,"ranking":195,"id":1017089,"member_count":0,"lat":47.400001525878906},{"zip":"meetup814","country":"hu","localized_country_name":"Hungary","distance":9343.13455979783,"city":"Kecskéd","lon":18.31999969482422,"ranking":196,"id":1017345,"member_count":0,"lat":47.52000045776367},{"zip":"meetup303","country":"hu","localized_country_name":"Hungary","distance":9326.600082459483,"city":"Zsámbék","lon":18.719999313354492,"ranking":197,"id":1016834,"member_count":0,"lat":47.54999923706055},{"zip":"meetup559","country":"hu","localized_country_name":"Hungary","distance":9155.695484845717,"city":"Tornyospálca","lon":22.190000534057617,"ranking":198,"id":1017090,"member_count":0,"lat":48.290000915527344},{"zip":"meetup815","country":"hu","localized_country_name":"Hungary","distance":9188.5912149287,"city":"Kisléta","lon":22.020000457763672,"ranking":199,"id":1017346,"member_count":0,"lat":47.849998474121094}],"meta":{"next":"http:\/\/api.meetup.com\/2\/cities?country=hu&offset=1&sign=True&format=json&photo-host=public&page=200&radius=50&order=size&desc=false","method":"Cities","total_count":847,"link":"http:\/\/api.meetup.com\/2\/cities","count":200,"description":"Returns Meetup cities. This method supports search by latitude\/longitude\/radius, by country\/state, by query term\/zip, or a combination of all of these. Location-only searches by lat and lon return all cities within a radius of the provided coordinates. Searches with a query return up to 10 cities matching the term, and can be sorted by size or distance to a given coordinate. 'smart' ordering can be used to return the match(es) with the highest member_count, unless a smaller size match exists nearby the given coordinates. Query searches are supported for country but not country and state","lon":"None","title":"Cities","url":"http:\/\/api.meetup.com\/2\/cities?country=hu&offset=0&sign=True&format=json&photo-host=public&page=200&radius=50&order=size&desc=false","id":"","updated":1459876867000,"lat":"None"}}
