{"results":[{"zip":"meetup1","country":"ie","localized_country_name":"Ireland","distance":9664.166655082676,"city":"Dublin","lon":-6.25,"ranking":0,"id":1017818,"member_count":10617,"lat":53.33000183105469},{"zip":"meetup2","country":"ie","localized_country_name":"Ireland","distance":9717.073366176272,"city":"Cork","lon":-8.470000267028809,"ranking":1,"id":1017819,"member_count":507,"lat":51.900001525878906},{"zip":"meetup3","country":"ie","localized_country_name":"Ireland","distance":9645.58241564842,"city":"Limerick","lon":-8.630000114440918,"ranking":2,"id":1017820,"member_count":277,"lat":52.66999816894531},{"zip":"meetup4","country":"ie","localized_country_name":"Ireland","distance":9580.03862194604,"city":"Galway","lon":-9.0600004196167,"ranking":3,"id":1017821,"member_count":256,"lat":53.279998779296875},{"zip":"meetup9","country":"ie","localized_country_name":"Ireland","distance":9654.584633448347,"city":"Swords","lon":-6.21999979019165,"ranking":4,"id":1017826,"member_count":111,"lat":53.45000076293945},{"zip":"meetup117","country":"ie","localized_country_name":"Ireland","distance":9647.843855326946,"city":"Abbeyfeale","lon":-9.300000190734863,"ranking":5,"id":1017934,"member_count":90,"lat":52.38999938964844},{"zip":"meetup8","country":"ie","localized_country_name":"Ireland","distance":9626.603148875289,"city":"Drogheda","lon":-6.360000133514404,"ranking":6,"id":1017825,"member_count":87,"lat":53.720001220703125},{"zip":"meetup6","country":"ie","localized_country_name":"Ireland","distance":9598.653301287626,"city":"Dundalk","lon":-6.420000076293945,"ranking":7,"id":1017823,"member_count":83,"lat":54.02000045776367},{"zip":"meetup20","country":"ie","localized_country_name":"Ireland","distance":9621.56405022277,"city":"Navan","lon":-6.690000057220459,"ranking":8,"id":1017837,"member_count":82,"lat":53.65999984741211},{"zip":"meetup5","country":"ie","localized_country_name":"Ireland","distance":9729.807454844648,"city":"Waterford","lon":-7.130000114440918,"ranking":9,"id":1017822,"member_count":78,"lat":52.2599983215332},{"zip":"meetup59","country":"ie","localized_country_name":"Ireland","distance":9655.629330880147,"city":"Kildare","lon":-6.989999771118164,"ranking":10,"id":1017876,"member_count":73,"lat":53.15999984741211},{"zip":"meetup11","country":"ie","localized_country_name":"Ireland","distance":9690.575447725892,"city":"Kilkenny","lon":-7.260000228881836,"ranking":11,"id":1017828,"member_count":71,"lat":52.65999984741211},{"zip":"meetup22","country":"ie","localized_country_name":"Ireland","distance":9612.554687545124,"city":"Mullingar","lon":-7.340000152587891,"ranking":12,"id":1017839,"member_count":68,"lat":53.529998779296875},{"zip":"meetup15","country":"ie","localized_country_name":"Ireland","distance":9744.03021499294,"city":"Wexford","lon":-6.480000019073486,"ranking":13,"id":1017832,"member_count":65,"lat":52.34000015258789},{"zip":"meetup13","country":"ie","localized_country_name":"Ireland","distance":9513.67476813489,"city":"Sligo","lon":-8.479999542236328,"ranking":14,"id":1017830,"member_count":59,"lat":54.279998779296875},{"zip":"meetup40","country":"ie","localized_country_name":"Ireland","distance":9700.4600186764,"city":"Wicklow","lon":-6.050000190734863,"ranking":15,"id":1017857,"member_count":58,"lat":52.9900016784668},{"zip":"meetup14","country":"ie","localized_country_name":"Ireland","distance":9602.934181310835,"city":"Athlone","lon":-7.949999809265137,"ranking":16,"id":1017831,"member_count":56,"lat":53.41999816894531},{"zip":"meetup10","country":"ie","localized_country_name":"Ireland","distance":9643.538570775534,"city":"Tralee","lon":-9.720000267028809,"ranking":17,"id":1017827,"member_count":54,"lat":52.279998779296875},{"zip":"meetup19","country":"ie","localized_country_name":"Ireland","distance":9685.788879174368,"city":"Carlow","lon":-6.920000076293945,"ranking":18,"id":1017836,"member_count":51,"lat":52.84000015258789},{"zip":"meetup7","country":"ie","localized_country_name":"Ireland","distance":9679.14372943241,"city":"Bray","lon":-6.110000133514404,"ranking":19,"id":1017824,"member_count":46,"lat":53.209999084472656},{"zip":"meetup16","country":"ie","localized_country_name":"Ireland","distance":9660.21348461733,"city":"Naas","lon":-6.679999828338623,"ranking":20,"id":1017833,"member_count":46,"lat":53.220001220703125},{"zip":"meetup29","country":"ie","localized_country_name":"Ireland","distance":9648.764210622408,"city":"Maynooth","lon":-6.599999904632568,"ranking":21,"id":1017846,"member_count":46,"lat":53.380001068115234},{"zip":"meetup12","country":"ie","localized_country_name":"Ireland","distance":9617.843808504444,"city":"Ennis","lon":-8.989999771118164,"ranking":22,"id":1017829,"member_count":40,"lat":52.86000061035156},{"zip":"meetup26","country":"ie","localized_country_name":"Ireland","distance":9480.35003964687,"city":"Letterkenny","lon":-7.739999771118164,"ranking":23,"id":1017843,"member_count":39,"lat":54.939998626708984},{"zip":"meetup54","country":"ie","localized_country_name":"Ireland","distance":9642.210063976207,"city":"Nenagh","lon":-8.199999809265137,"ranking":24,"id":1017871,"member_count":37,"lat":52.869998931884766},{"zip":"meetup17","country":"ie","localized_country_name":"Ireland","distance":9702.120014089885,"city":"Clonmel","lon":-7.710000038146973,"ranking":25,"id":1017834,"member_count":36,"lat":52.36000061035156},{"zip":"meetup34","country":"ie","localized_country_name":"Ireland","distance":9641.507773241894,"city":"Balbriggan","lon":-6.190000057220459,"ranking":26,"id":1017851,"member_count":36,"lat":53.61000061035156},{"zip":"meetup35","country":"ie","localized_country_name":"Ireland","distance":9523.868771334202,"city":"Castlebar","lon":-9.300000190734863,"ranking":27,"id":1017852,"member_count":36,"lat":53.86000061035156},{"zip":"meetup23","country":"ie","localized_country_name":"Ireland","distance":9656.469029680738,"city":"Malahide","lon":-6.159999847412109,"ranking":28,"id":1017840,"member_count":35,"lat":53.45000076293945},{"zip":"meetup95","country":"ie","localized_country_name":"Ireland","distance":9492.585130022626,"city":"Donegal","lon":-8.119999885559082,"ranking":29,"id":1017912,"member_count":33,"lat":54.65999984741211},{"zip":"meetup21","country":"ie","localized_country_name":"Ireland","distance":9654.706342312285,"city":"Celbridge","lon":-6.550000190734863,"ranking":30,"id":1017838,"member_count":32,"lat":53.33000183105469},{"zip":"meetup55","country":"ie","localized_country_name":"Ireland","distance":9571.226874504893,"city":"Cavan","lon":-7.369999885559082,"ranking":31,"id":1017872,"member_count":31,"lat":54},{"zip":"meetup25","country":"ie","localized_country_name":"Ireland","distance":9686.581933990585,"city":"Greystones","lon":-6.070000171661377,"ranking":32,"id":1017842,"member_count":31,"lat":53.13999938964844},{"zip":"meetup31","country":"ie","localized_country_name":"Ireland","distance":9714.048095523853,"city":"Arklow","lon":-6.150000095367432,"ranking":33,"id":1017848,"member_count":28,"lat":52.79999923706055},{"zip":"meetup28","country":"ie","localized_country_name":"Ireland","distance":9629.423038140761,"city":"Tullamore","lon":-7.489999771118164,"ranking":34,"id":1017845,"member_count":26,"lat":53.279998779296875},{"zip":"meetup62","country":"ie","localized_country_name":"Ireland","distance":9675.905381788185,"city":"Tipperary","lon":-8.170000076293945,"ranking":35,"id":1017879,"member_count":23,"lat":52.4900016784668},{"zip":"meetup30","country":"ie","localized_country_name":"Ireland","distance":9656.219051933354,"city":"Port Laoise","lon":-7.300000190734863,"ranking":36,"id":1017847,"member_count":21,"lat":53.040000915527344},{"zip":"meetup18","country":"ie","localized_country_name":"Ireland","distance":9659.906723364069,"city":"Newbridge","lon":-6.800000190734863,"ranking":37,"id":1017835,"member_count":19,"lat":53.18000030517578},{"zip":"meetup84","country":"ie","localized_country_name":"Ireland","distance":9727.302957648884,"city":"Clonakilty","lon":-8.890000343322754,"ranking":38,"id":1017901,"member_count":18,"lat":51.619998931884766},{"zip":"meetup32","country":"ie","localized_country_name":"Ireland","distance":9506.448871125689,"city":"Ballina","lon":-9.15999984741211,"ranking":39,"id":1017849,"member_count":18,"lat":54.119998931884766},{"zip":"meetup41","country":"ie","localized_country_name":"Ireland","distance":9728.275062508032,"city":"Dungarvan","lon":-7.630000114440918,"ranking":40,"id":1017858,"member_count":16,"lat":52.09000015258789},{"zip":"meetup33","country":"ie","localized_country_name":"Ireland","distance":9726.166223531874,"city":"Cobh","lon":-8.300000190734863,"ranking":41,"id":1017850,"member_count":16,"lat":51.86000061035156},{"zip":"meetup45","country":"ie","localized_country_name":"Ireland","distance":9580.772357735943,"city":"Longford","lon":-7.809999942779541,"ranking":42,"id":1017862,"member_count":15,"lat":53.72999954223633},{"zip":"meetup110","country":"ie","localized_country_name":"Ireland","distance":9553.104147796335,"city":"Carrick-on-Shannon","lon":-8.100000381469727,"ranking":43,"id":1017927,"member_count":13,"lat":53.95000076293945},{"zip":"meetup24","country":"ie","localized_country_name":"Ireland","distance":9653.099772363714,"city":"Leixlip","lon":-6.489999771118164,"ranking":44,"id":1017841,"member_count":13,"lat":53.369998931884766},{"zip":"meetup27","country":"ie","localized_country_name":"Ireland","distance":9584.093523707586,"city":"Killarney","lon":-9.520000457763672,"ranking":45,"id":1017844,"member_count":13,"lat":53.060001373291016},{"zip":"meetup67","country":"ie","localized_country_name":"Ireland","distance":9609.280054937752,"city":"Kells","lon":-6.889999866485596,"ranking":46,"id":1017884,"member_count":12,"lat":53.72999954223633},{"zip":"meetup60","country":"ie","localized_country_name":"Ireland","distance":9721.082847031881,"city":"Bandon","lon":-8.739999771118164,"ranking":47,"id":1017877,"member_count":11,"lat":51.75},{"zip":"meetup65","country":"ie","localized_country_name":"Ireland","distance":9631.345971203244,"city":"Birr","lon":-7.920000076293945,"ranking":48,"id":1017882,"member_count":11,"lat":53.099998474121094},{"zip":"meetup64","country":"ie","localized_country_name":"Ireland","distance":9521.28398559632,"city":"Westport","lon":-9.520000457763672,"ranking":49,"id":1017881,"member_count":10,"lat":53.810001373291016},{"zip":"meetup66","country":"ie","localized_country_name":"Ireland","distance":9720.70258548055,"city":"Gorey","lon":-6.300000190734863,"ranking":50,"id":1017883,"member_count":10,"lat":52.66999816894531},{"zip":"meetup72","country":"ie","localized_country_name":"Ireland","distance":9576.360237298239,"city":"Roscommon","lon":-8.199999809265137,"ranking":51,"id":1017889,"member_count":10,"lat":53.63999938964844},{"zip":"meetup74","country":"ie","localized_country_name":"Ireland","distance":9650.509628789001,"city":"Newcastle","lon":-9.0600004196167,"ranking":52,"id":1017891,"member_count":10,"lat":52.45000076293945},{"zip":"meetup44","country":"ie","localized_country_name":"Ireland","distance":9669.59827332063,"city":"Thurles","lon":-7.829999923706055,"ranking":53,"id":1017861,"member_count":9,"lat":52.689998626708984},{"zip":"meetup75","country":"ie","localized_country_name":"Ireland","distance":9602.239574889158,"city":"Loughrea","lon":-8.569999694824219,"ranking":54,"id":1017892,"member_count":9,"lat":53.20000076293945},{"zip":"meetup128","country":"ie","localized_country_name":"Ireland","distance":9711.036094856503,"city":"Dunmanway","lon":-9.119999885559082,"ranking":55,"id":1017945,"member_count":9,"lat":51.720001220703125},{"zip":"meetup51","country":"ie","localized_country_name":"Ireland","distance":9733.234171898597,"city":"Youghal","lon":-7.849999904632568,"ranking":56,"id":1017868,"member_count":8,"lat":51.95000076293945},{"zip":"meetup56","country":"ie","localized_country_name":"Ireland","distance":9562.00133917185,"city":"Monaghan","lon":-6.96999979019165,"ranking":57,"id":1017873,"member_count":8,"lat":54.25},{"zip":"meetup57","country":"ie","localized_country_name":"Ireland","distance":9627.690102846067,"city":"Trim","lon":-6.800000190734863,"ranking":58,"id":1017874,"member_count":8,"lat":53.54999923706055},{"zip":"meetup37","country":"ie","localized_country_name":"Ireland","distance":9726.960555828258,"city":"Enniscorthy","lon":-6.570000171661377,"ranking":59,"id":1017854,"member_count":8,"lat":52.5},{"zip":"meetup47","country":"ie","localized_country_name":"Ireland","distance":9723.394179981644,"city":"New Ross","lon":-6.949999809265137,"ranking":60,"id":1017864,"member_count":7,"lat":52.400001525878906},{"zip":"meetup69","country":"ie","localized_country_name":"Ireland","distance":9608.536091383268,"city":"Ardee","lon":-6.550000190734863,"ranking":61,"id":1017886,"member_count":7,"lat":53.86000061035156},{"zip":"meetup77","country":"ie","localized_country_name":"Ireland","distance":9592.287139974847,"city":"Carrickmacross","lon":-6.739999771118164,"ranking":62,"id":1017894,"member_count":7,"lat":53.97999954223633},{"zip":"meetup99","country":"ie","localized_country_name":"Ireland","distance":9543.822325508261,"city":"Boyle","lon":-8.319999694824219,"ranking":63,"id":1017916,"member_count":7,"lat":53.97999954223633},{"zip":"meetup36","country":"ie","localized_country_name":"Ireland","distance":9633.703025644303,"city":"Shannon","lon":-8.920000076293945,"ranking":64,"id":1017853,"member_count":7,"lat":52.70000076293945},{"zip":"meetup61","country":"ie","localized_country_name":"Ireland","distance":9472.070969848488,"city":"Buncrana","lon":-7.449999809265137,"ranking":65,"id":1017878,"member_count":6,"lat":55.13999938964844},{"zip":"meetup90","country":"ie","localized_country_name":"Ireland","distance":9671.40189053104,"city":"Charleville","lon":-8.680000305175781,"ranking":66,"id":1017907,"member_count":6,"lat":52.349998474121094},{"zip":"meetup124","country":"ie","localized_country_name":"Ireland","distance":9638.926688591628,"city":"Dingle","lon":-10.25,"ranking":67,"id":1017941,"member_count":6,"lat":52.130001068115234},{"zip":"meetup134","country":"ie","localized_country_name":"Ireland","distance":9548.563823724653,"city":"Ballyhaunis","lon":-8.770000457763672,"ranking":68,"id":1017951,"member_count":6,"lat":53.7599983215332},{"zip":"meetup49","country":"ie","localized_country_name":"Ireland","distance":9725.262820858623,"city":"Midleton","lon":-8.170000076293945,"ranking":69,"id":1017866,"member_count":5,"lat":51.91999816894531},{"zip":"meetup52","country":"ie","localized_country_name":"Ireland","distance":9651.896056685702,"city":"Rush","lon":-6.110000133514404,"ranking":70,"id":1017869,"member_count":5,"lat":53.52000045776367},{"zip":"meetup53","country":"ie","localized_country_name":"Ireland","distance":9566.020793828979,"city":"Tuam","lon":-8.859999656677246,"ranking":71,"id":1017870,"member_count":5,"lat":53.52000045776367},{"zip":"meetup83","country":"ie","localized_country_name":"Ireland","distance":9703.538590319766,"city":"Bantry","lon":-9.5,"ranking":72,"id":1017900,"member_count":5,"lat":51.65999984741211},{"zip":"meetup103","country":"ie","localized_country_name":"Ireland","distance":9719.440789736751,"city":"Skibbereen","lon":-9.279999732971191,"ranking":73,"id":1017920,"member_count":5,"lat":51.560001373291016},{"zip":"meetup105","country":"ie","localized_country_name":"Ireland","distance":9543.683193922212,"city":"Claremorris","lon":-9.010000228881836,"ranking":74,"id":1017922,"member_count":5,"lat":53.72999954223633},{"zip":"meetup42","country":"ie","localized_country_name":"Ireland","distance":9646.634398496059,"city":"Skerries","lon":-6.110000133514404,"ranking":75,"id":1017859,"member_count":4,"lat":53.58000183105469},{"zip":"meetup50","country":"ie","localized_country_name":"Ireland","distance":9601.537438846475,"city":"Ballinasloe","lon":-8.239999771118164,"ranking":76,"id":1017867,"member_count":4,"lat":53.33000183105469},{"zip":"meetup68","country":"ie","localized_country_name":"Ireland","distance":9646.90464617654,"city":"Roscrea","lon":-7.809999942779541,"ranking":77,"id":1017885,"member_count":4,"lat":52.959999084472656},{"zip":"meetup76","country":"ie","localized_country_name":"Ireland","distance":9649.292102610247,"city":"Portarlington","lon":-7.190000057220459,"ranking":78,"id":1017893,"member_count":4,"lat":53.15999984741211},{"zip":"meetup109","country":"ie","localized_country_name":"Ireland","distance":9502.606843990974,"city":"Bundoran","lon":-8.289999961853027,"ranking":79,"id":1017926,"member_count":4,"lat":54.47999954223633},{"zip":"meetup126","country":"ie","localized_country_name":"Ireland","distance":9699.99828473428,"city":"Rathdrum","lon":-6.230000019073486,"ranking":80,"id":1017943,"member_count":4,"lat":52.93000030517578},{"zip":"meetup70","country":"ie","localized_country_name":"Ireland","distance":9723.974150856595,"city":"Passage West","lon":-8.34000015258789,"ranking":81,"id":1017887,"member_count":3,"lat":51.869998931884766},{"zip":"meetup78","country":"ie","localized_country_name":"Ireland","distance":9691.65544175148,"city":"Mitchelstown","lon":-8.270000457763672,"ranking":82,"id":1017895,"member_count":3,"lat":52.27000045776367},{"zip":"meetup80","country":"ie","localized_country_name":"Ireland","distance":9732.392013033857,"city":"Kinsale","lon":-8.529999732971191,"ranking":83,"id":1017897,"member_count":3,"lat":51.70000076293945},{"zip":"meetup85","country":"ie","localized_country_name":"Ireland","distance":9696.755525894812,"city":"Bagenalstown","lon":-6.960000038146973,"ranking":84,"id":1017902,"member_count":3,"lat":52.70000076293945},{"zip":"meetup89","country":"ie","localized_country_name":"Ireland","distance":9579.892084410947,"city":"Castleblayney","lon":-6.75,"ranking":85,"id":1017906,"member_count":3,"lat":54.119998931884766},{"zip":"meetup104","country":"ie","localized_country_name":"Ireland","distance":9710.311677966321,"city":"Blarney","lon":-8.569999694824219,"ranking":86,"id":1017921,"member_count":3,"lat":51.939998626708984},{"zip":"meetup111","country":"ie","localized_country_name":"Ireland","distance":9555.740069681571,"city":"Castlerea","lon":-8.510000228881836,"ranking":87,"id":1017928,"member_count":3,"lat":53.77000045776367},{"zip":"meetup122","country":"ie","localized_country_name":"Ireland","distance":9590.084807220426,"city":"Bailieborough","lon":-6.980000019073486,"ranking":88,"id":1017939,"member_count":3,"lat":53.91999816894531},{"zip":"meetup133","country":"ie","localized_country_name":"Ireland","distance":9545.276626510635,"city":"Ballinrobe","lon":-9.229999542236328,"ranking":89,"id":1017950,"member_count":3,"lat":53.630001068115234},{"zip":"meetup137","country":"ie","localized_country_name":"Ireland","distance":9560.224072410161,"city":"Belturbet","lon":-7.449999809265137,"ranking":90,"id":1017954,"member_count":3,"lat":54.099998474121094},{"zip":"meetup38","country":"ie","localized_country_name":"Ireland","distance":9727.516805455814,"city":"Carrigaline","lon":-8.390000343322754,"ranking":91,"id":1017855,"member_count":3,"lat":51.810001373291016},{"zip":"meetup46","country":"ie","localized_country_name":"Ireland","distance":9737.603056314307,"city":"Tramore","lon":-7.159999847412109,"ranking":92,"id":1017863,"member_count":2,"lat":52.15999984741211},{"zip":"meetup48","country":"ie","localized_country_name":"Ireland","distance":9670.445565367236,"city":"Athy","lon":-6.989999771118164,"ranking":93,"id":1017865,"member_count":2,"lat":52.9900016784668},{"zip":"meetup63","country":"ie","localized_country_name":"Ireland","distance":9662.480800725078,"city":"Rathcoole","lon":-6.46999979019165,"ranking":94,"id":1017880,"member_count":2,"lat":53.27000045776367},{"zip":"meetup71","country":"ie","localized_country_name":"Ireland","distance":9638.085939811894,"city":"Edenderry","lon":-7.050000190734863,"ranking":95,"id":1017888,"member_count":2,"lat":53.34000015258789},{"zip":"meetup73","country":"ie","localized_country_name":"Ireland","distance":9636.592226143064,"city":"Listowel","lon":-9.489999771118164,"ranking":96,"id":1017890,"member_count":2,"lat":52.45000076293945},{"zip":"meetup88","country":"ie","localized_country_name":"Ireland","distance":9682.381312049027,"city":"Cashel","lon":-7.889999866485596,"ranking":97,"id":1017905,"member_count":2,"lat":52.52000045776367},{"zip":"meetup91","country":"ie","localized_country_name":"Ireland","distance":9621.342242328417,"city":"Kilrush","lon":-9.489999771118164,"ranking":98,"id":1017908,"member_count":2,"lat":52.630001068115234},{"zip":"meetup92","country":"ie","localized_country_name":"Ireland","distance":9701.20555341864,"city":"Macroom","lon":-8.949999809265137,"ranking":99,"id":1017909,"member_count":2,"lat":51.900001525878906},{"zip":"meetup94","country":"ie","localized_country_name":"Ireland","distance":9695.072829072566,"city":"Tullow","lon":-6.739999771118164,"ranking":100,"id":1017911,"member_count":2,"lat":52.79999923706055},{"zip":"meetup98","country":"ie","localized_country_name":"Ireland","distance":9660.6277809935,"city":"Templemore","lon":-7.840000152587891,"ranking":101,"id":1017915,"member_count":2,"lat":52.790000915527344},{"zip":"meetup100","country":"ie","localized_country_name":"Ireland","distance":9558.930976810538,"city":"Clones","lon":-7.239999771118164,"ranking":102,"id":1017917,"member_count":2,"lat":54.189998626708984},{"zip":"meetup113","country":"ie","localized_country_name":"Ireland","distance":9587.764472668789,"city":"Athenry","lon":-8.760000228881836,"ranking":103,"id":1017930,"member_count":2,"lat":53.29999923706055},{"zip":"meetup114","country":"ie","localized_country_name":"Ireland","distance":9621.397168367315,"city":"Banagher","lon":-7.989999771118164,"ranking":104,"id":1017931,"member_count":2,"lat":53.189998626708984},{"zip":"meetup116","country":"ie","localized_country_name":"Ireland","distance":9679.670094563251,"city":"Kanturk","lon":-8.899999618530273,"ranking":105,"id":1017933,"member_count":2,"lat":52.16999816894531},{"zip":"meetup121","country":"ie","localized_country_name":"Ireland","distance":9706.692266703149,"city":"Thomastown","lon":-7.139999866485596,"ranking":106,"id":1017938,"member_count":2,"lat":52.52000045776367},{"zip":"meetup123","country":"ie","localized_country_name":"Ireland","distance":9653.411172546957,"city":"Mountrath","lon":-7.46999979019165,"ranking":107,"id":1017940,"member_count":2,"lat":53.0099983215332},{"zip":"meetup131","country":"ie","localized_country_name":"Ireland","distance":9656.506296510639,"city":"Killorglin","lon":-9.789999961853027,"ranking":108,"id":1017948,"member_count":2,"lat":52.099998474121094},{"zip":"meetup138","country":"ie","localized_country_name":"Ireland","distance":9605.398759447042,"city":"Gort","lon":-8.819999694824219,"ranking":109,"id":1017955,"member_count":2,"lat":53.06999969482422},{"zip":"meetup140","country":"ie","localized_country_name":"Ireland","distance":9653.396587315518,"city":"Cahirciveen","lon":-10.220000267028809,"ranking":110,"id":1017957,"member_count":2,"lat":51.970001220703125},{"zip":"meetup39","country":"ie","localized_country_name":"Ireland","distance":9690.108012972036,"city":"Malaita","lon":-8.65999984741211,"ranking":111,"id":1017856,"member_count":1,"lat":52.13999938964844},{"zip":"meetup43","country":"ie","localized_country_name":"Ireland","distance":9634.701181253899,"city":"Laytown","lon":-6.239999771118164,"ranking":112,"id":1017860,"member_count":1,"lat":53.66999816894531},{"zip":"meetup58","country":"ie","localized_country_name":"Ireland","distance":9712.447727548035,"city":"Carrick-on-Suir","lon":-7.420000076293945,"ranking":113,"id":1017875,"member_count":1,"lat":52.349998474121094},{"zip":"meetup79","country":"ie","localized_country_name":"Ireland","distance":9490.637771507845,"city":"Ballybofey","lon":-7.789999961853027,"ranking":114,"id":1017896,"member_count":1,"lat":54.79999923706055},{"zip":"meetup86","country":"ie","localized_country_name":"Ireland","distance":9502.487864872779,"city":"Ballyshannon","lon":-8.210000038146973,"ranking":115,"id":1017903,"member_count":1,"lat":54.5099983215332},{"zip":"meetup93","country":"ie","localized_country_name":"Ireland","distance":9621.018593299437,"city":"Clara","lon":-7.619999885559082,"ranking":116,"id":1017910,"member_count":1,"lat":53.33000183105469},{"zip":"meetup96","country":"ie","localized_country_name":"Ireland","distance":9694.41054380919,"city":"Cahir","lon":-7.920000076293945,"ranking":117,"id":1017913,"member_count":1,"lat":52.369998931884766},{"zip":"meetup102","country":"ie","localized_country_name":"Ireland","distance":9614.349724643054,"city":"Drumcar","lon":-6.389999866485596,"ranking":118,"id":1017919,"member_count":1,"lat":53.849998474121094},{"zip":"meetup106","country":"ie","localized_country_name":"Ireland","distance":9573.79848323861,"city":"Coothill","lon":-7.090000152587891,"ranking":119,"id":1017923,"member_count":1,"lat":54.06999969482422},{"zip":"meetup108","country":"ie","localized_country_name":"Ireland","distance":9598.120540979506,"city":"Moate","lon":-7.71999979019165,"ranking":120,"id":1017925,"member_count":1,"lat":53.560001373291016},{"zip":"meetup112","country":"ie","localized_country_name":"Ireland","distance":9666.785371018323,"city":"Abbeyleix","lon":-7.349999904632568,"ranking":121,"id":1017929,"member_count":1,"lat":52.900001525878906},{"zip":"meetup118","country":"ie","localized_country_name":"Ireland","distance":9624.528625335763,"city":"Ballybunion","lon":-9.680000305175781,"ranking":122,"id":1017935,"member_count":1,"lat":52.52000045776367},{"zip":"meetup120","country":"ie","localized_country_name":"Ireland","distance":9648.416258926518,"city":"Rathkeale","lon":-8.9399995803833,"ranking":123,"id":1017937,"member_count":1,"lat":52.52000045776367},{"zip":"meetup125","country":"ie","localized_country_name":"Ireland","distance":9670.032383112211,"city":"Kilmallock","lon":-8.59000015258789,"ranking":124,"id":1017942,"member_count":1,"lat":52.400001525878906},{"zip":"meetup127","country":"ie","localized_country_name":"Ireland","distance":9541.457441492295,"city":"Ballaghaderreen","lon":-8.59000015258789,"ranking":125,"id":1017944,"member_count":1,"lat":53.90999984741211},{"zip":"meetup130","country":"ie","localized_country_name":"Ireland","distance":9586.939039015271,"city":"Granard","lon":-7.5,"ranking":126,"id":1017947,"member_count":1,"lat":53.77000045776367},{"zip":"meetup132","country":"ie","localized_country_name":"Ireland","distance":9479.27342719472,"city":"Moville","lon":-7.059999942779541,"ranking":127,"id":1017949,"member_count":1,"lat":55.189998626708984},{"zip":"meetup136","country":"ie","localized_country_name":"Ireland","distance":9682.996674854328,"city":"Millstreet","lon":-9.0600004196167,"ranking":128,"id":1017953,"member_count":1,"lat":52.06999969482422},{"zip":"meetup139","country":"ie","localized_country_name":"Ireland","distance":9526.757802705322,"city":"Swinford","lon":-8.960000038146973,"ranking":129,"id":1017956,"member_count":1,"lat":53.95000076293945},{"zip":"meetup141","country":"ie","localized_country_name":"Ireland","distance":9681.779181374885,"city":"Kenmare","lon":-9.59000015258789,"ranking":130,"id":1017958,"member_count":1,"lat":51.880001068115234},{"zip":"meetup142","country":"ie","localized_country_name":"Ireland","distance":9631.334740746597,"city":"Kilcormac","lon":-7.730000019073486,"ranking":131,"id":1017959,"member_count":1,"lat":53.16999816894531},{"zip":"meetup81","country":"ie","localized_country_name":"Ireland","distance":9648.32520792055,"city":"Mountmellick","lon":-7.329999923706055,"ranking":132,"id":1017898,"member_count":0,"lat":53.119998931884766},{"zip":"meetup82","country":"ie","localized_country_name":"Ireland","distance":9654.528224155514,"city":"Portrane","lon":-6.110000133514404,"ranking":133,"id":1017899,"member_count":0,"lat":53.4900016784668},{"zip":"meetup87","country":"ie","localized_country_name":"Ireland","distance":9655.150878828974,"city":"Monasterevan","lon":-7.059999942779541,"ranking":134,"id":1017904,"member_count":0,"lat":53.13999938964844},{"zip":"meetup150","country":"ie","localized_country_name":"Ireland","distance":9653.784441951062,"city":"Clane","lon":-6.690000057220459,"ranking":135,"id":1110582,"member_count":0,"lat":53.290000915527344},{"zip":"meetup97","country":"ie","localized_country_name":"Ireland","distance":9655.07443802661,"city":"Castleisland","lon":-9.470000267028809,"ranking":136,"id":1017914,"member_count":0,"lat":52.2400016784668},{"zip":"meetup101","country":"ie","localized_country_name":"Ireland","distance":9723.209135688969,"city":"Drishane","lon":-9.270000457763672,"ranking":137,"id":1017918,"member_count":0,"lat":51.52000045776367},{"zip":"meetup107","country":"ie","localized_country_name":"Ireland","distance":9483.825138025792,"city":"Killybegs","lon":-8.470000267028809,"ranking":138,"id":1017924,"member_count":0,"lat":54.63999938964844},{"zip":"meetup115","country":"ie","localized_country_name":"Ireland","distance":9679.654186720163,"city":"Castlecomer","lon":-7.21999979019165,"ranking":139,"id":1017932,"member_count":0,"lat":52.79999923706055},{"zip":"meetup119","country":"ie","localized_country_name":"Ireland","distance":9496.163781732896,"city":"Lifford","lon":-7.489999771118164,"ranking":140,"id":1017936,"member_count":0,"lat":54.84000015258789},{"zip":"meetup129","country":"ie","localized_country_name":"Ireland","distance":9611.980398295189,"city":"Kilkee","lon":-9.649999618530273,"ranking":141,"id":1017946,"member_count":0,"lat":52.68000030517578},{"zip":"meetup135","country":"ie","localized_country_name":"Ireland","distance":9696.839564480604,"city":"Callan","lon":-7.389999866485596,"ranking":142,"id":1017952,"member_count":0,"lat":52.540000915527344},{"zip":"meetup143","country":"ie","localized_country_name":"Ireland","distance":9532.148087606667,"city":"Clifden","lon":-10.029999732971191,"ranking":143,"id":1017960,"member_count":0,"lat":53.4900016784668},{"zip":"meetup151","country":"ie","localized_country_name":"Ireland","distance":9660.311796173717,"city":"Clondalkin","lon":-6.400000095367432,"ranking":144,"id":1110662,"member_count":0,"lat":53.31999969482422},{"country":"ie","localized_country_name":"Ireland","distance":9622.186446555284,"city":"county meath","lon":-6.670000076293945,"ranking":145,"id":1108622,"member_count":0,"lat":53.65999984741211},{"zip":"meetup144","country":"ie","localized_country_name":"Ireland","distance":9643.6877841957,"city":"Ashbourne","lon":-6.400000095367432,"ranking":146,"id":1108642,"member_count":0,"lat":53.5099983215332},{"zip":"meetup145","country":"ie","localized_country_name":"Ireland","distance":9641.49560004657,"city":"Ratoath","lon":-6.46999979019165,"ranking":147,"id":1108652,"member_count":0,"lat":53.5099983215332},{"zip":"meetup146","country":"ie","localized_country_name":"Ireland","distance":9622.186446555284,"city":"Meath","lon":-6.670000076293945,"ranking":148,"id":1108662,"member_count":0,"lat":53.65999984741211},{"zip":"meetup157","country":"ie","localized_country_name":"Ireland","distance":9659.16716752739,"city":"Portmarnock","lon":-6.130000114440918,"ranking":149,"id":1110993,"member_count":0,"lat":53.43000030517578},{"zip":"meetup152","country":"ie","localized_country_name":"Ireland","distance":9639.364654545232,"city":"Killaloe","lon":-8.449999809265137,"ranking":150,"id":1110740,"member_count":0,"lat":52.810001373291016},{"zip":"meetup154","country":"ie","localized_country_name":"Ireland","distance":9640.004677241215,"city":"Ballina-Tipperary","lon":-8.430000305175781,"ranking":151,"id":1110743,"member_count":0,"lat":52.810001373291016},{"zip":"meetup155","country":"ie","localized_country_name":"Ireland","distance":9609.13808094963,"city":"Corofin","lon":-9.130000114440918,"ranking":152,"id":1110755,"member_count":0,"lat":52.90999984741211},{"zip":"meetup156","country":"ie","localized_country_name":"Ireland","distance":9655.233792112564,"city":"Lucan","lon":-6.449999809265137,"ranking":153,"id":1110758,"member_count":0,"lat":53.36000061035156},{"zip":"meetup147","country":"ie","localized_country_name":"Ireland","distance":9639.071206618872,"city":"Garristown","lon":-6.380000114440918,"ranking":154,"id":1108972,"member_count":0,"lat":53.56999969482422},{"zip":"meetup149","country":"ie","localized_country_name":"Ireland","distance":9687.659274120959,"city":"Roundwood","lon":-6.230000019073486,"ranking":155,"id":1110252,"member_count":0,"lat":53.06999969482422},{"zip":"meetup148","country":"ie","localized_country_name":"Ireland","distance":9622.697090273192,"city":"Portumna","lon":-8.220000267028809,"ranking":156,"id":1109492,"member_count":0,"lat":53.09000015258789}],"meta":{"next":"","method":"Cities","total_count":157,"link":"http:\/\/api.meetup.com\/2\/cities","count":157,"description":"Returns Meetup cities. This method supports search by latitude\/longitude\/radius, by country\/state, by query term\/zip, or a combination of all of these. Location-only searches by lat and lon return all cities within a radius of the provided coordinates. Searches with a query return up to 10 cities matching the term, and can be sorted by size or distance to a given coordinate. 'smart' ordering can be used to return the match(es) with the highest member_count, unless a smaller size match exists nearby the given coordinates. Query searches are supported for country but not country and state","lon":"None","title":"Cities","url":"http:\/\/api.meetup.com\/2\/cities?country=ie&offset=0&sign=True&format=json&photo-host=public&page=200&radius=50&order=size&desc=false","id":"","updated":1462997707000,"lat":"None"}}
