{"results":[{"zip":"meetup1","country":"jm","localized_country_name":"Jamaica","distance":8071.440350883553,"city":"Kingston-Blackmans Bay","lon":-76.80000305175781,"ranking":0,"id":1023385,"member_count":90,"lat":17.989999771118164},{"zip":"meetup4","country":"jm","localized_country_name":"Jamaica","distance":8005.196259852907,"city":"Montego Bay","lon":-77.91999816894531,"ranking":1,"id":1023388,"member_count":85,"lat":18.469999313354492},{"zip":"meetup7","country":"jm","localized_country_name":"Jamaica","distance":8071.988496271822,"city":"Half Way Tree","lon":-76.79000091552734,"ranking":2,"id":1023391,"member_count":59,"lat":18},{"zip":"meetup3","country":"jm","localized_country_name":"Jamaica","distance":8066.924440869887,"city":"Portmore","lon":-76.87999725341797,"ranking":3,"id":1023387,"member_count":37,"lat":17.950000762939453},{"zip":"meetup2","country":"jm","localized_country_name":"Jamaica","distance":8062.706471838302,"city":"Spanish Town","lon":-76.94999694824219,"ranking":4,"id":1023386,"member_count":35,"lat":18},{"zip":"meetup26","country":"jm","localized_country_name":"Jamaica","distance":8068.147603662869,"city":"Albany","lon":-76.83999633789062,"ranking":5,"id":1023410,"member_count":25,"lat":18.280000686645508},{"zip":"meetup13","country":"jm","localized_country_name":"Jamaica","distance":8052.056746366257,"city":"Ocho Rios","lon":-77.11000061035156,"ranking":6,"id":1023397,"member_count":20,"lat":18.420000076293945},{"zip":"meetup6","country":"jm","localized_country_name":"Jamaica","distance":8031.839253947182,"city":"Mandeville","lon":-77.4800033569336,"ranking":7,"id":1023390,"member_count":17,"lat":18.049999237060547},{"zip":"meetup5","country":"jm","localized_country_name":"Jamaica","distance":8045.977966447546,"city":"May Pen","lon":-77.23999786376953,"ranking":8,"id":1023389,"member_count":10,"lat":17.969999313354492},{"zip":"meetup9","country":"jm","localized_country_name":"Jamaica","distance":8095.214931451032,"city":"Port Antonio","lon":-76.37999725341797,"ranking":9,"id":1023393,"member_count":10,"lat":18.15999984741211},{"zip":"meetup11","country":"jm","localized_country_name":"Jamaica","distance":8095.651039582943,"city":"Morant Bay","lon":-76.38999938964844,"ranking":10,"id":1023395,"member_count":7,"lat":17.8700008392334},{"zip":"meetup8","country":"jm","localized_country_name":"Jamaica","distance":8004.348366323504,"city":"Savanna la Mar","lon":-77.94999694824219,"ranking":11,"id":1023392,"member_count":5,"lat":18.15999984741211},{"zip":"meetup21","country":"jm","localized_country_name":"Jamaica","distance":8009.894330474881,"city":"Black River","lon":-77.86000061035156,"ranking":12,"id":1023405,"member_count":5,"lat":18.030000686645508},{"zip":"meetup16","country":"jm","localized_country_name":"Jamaica","distance":7990.313104667894,"city":"Lucea","lon":-78.18000030517578,"ranking":13,"id":1023400,"member_count":4,"lat":18.440000534057617},{"zip":"meetup10","country":"jm","localized_country_name":"Jamaica","distance":8045.639930398231,"city":"Saint Ann's Bay","lon":-77.22000122070312,"ranking":14,"id":1023394,"member_count":3,"lat":18.440000534057617},{"zip":"meetup18","country":"jm","localized_country_name":"Jamaica","distance":8072.810357438155,"city":"Anotto Bay","lon":-76.76000213623047,"ranking":15,"id":1023402,"member_count":2,"lat":18.270000457763672},{"zip":"meetup12","country":"jm","localized_country_name":"Jamaica","distance":8020.108341066135,"city":"Falmouth","lon":-77.66000366210938,"ranking":16,"id":1023396,"member_count":1,"lat":18.489999771118164},{"zip":"meetup14","country":"jm","localized_country_name":"Jamaica","distance":8037.697816217061,"city":"Brown's Town","lon":-77.36000061035156,"ranking":17,"id":1023398,"member_count":1,"lat":18.399999618530273},{"zip":"meetup15","country":"jm","localized_country_name":"Jamaica","distance":8064.937797411851,"city":"Port Maria","lon":-76.88999938964844,"ranking":18,"id":1023399,"member_count":1,"lat":18.3700008392334},{"zip":"meetup17","country":"jm","localized_country_name":"Jamaica","distance":8025.92680076674,"city":"Bull Savanna","lon":-77.58999633789062,"ranking":19,"id":1023401,"member_count":1,"lat":17.8799991607666},{"zip":"meetup20","country":"jm","localized_country_name":"Jamaica","distance":8043.53556269212,"city":"Bamboo","lon":-77.26000213623047,"ranking":20,"id":1023404,"member_count":1,"lat":18.3799991607666},{"zip":"meetup23","country":"jm","localized_country_name":"Jamaica","distance":8007.368238729534,"city":"Cambridge","lon":-77.88999938964844,"ranking":21,"id":1023407,"member_count":1,"lat":18.31999969482422},{"zip":"meetup27","country":"jm","localized_country_name":"Jamaica","distance":7980.973170934474,"city":"Negril","lon":-78.3499984741211,"ranking":22,"id":1108812,"member_count":0,"lat":18.270000457763672},{"zip":"meetup19","country":"jm","localized_country_name":"Jamaica","distance":8027.689386462942,"city":"Albert Town","lon":-77.54000091552734,"ranking":23,"id":1023403,"member_count":0,"lat":18.280000686645508},{"zip":"meetup22","country":"jm","localized_country_name":"Jamaica","distance":8005.405317347845,"city":"Anchovy","lon":-77.91999816894531,"ranking":24,"id":1023406,"member_count":0,"lat":18.399999618530273},{"zip":"meetup24","country":"jm","localized_country_name":"Jamaica","distance":8013.048559967899,"city":"Maroon Town","lon":-77.79000091552734,"ranking":25,"id":1023408,"member_count":0,"lat":18.350000381469727},{"zip":"meetup25","country":"jm","localized_country_name":"Jamaica","distance":8035.733866510135,"city":"Discovery Bay","lon":-77.38999938964844,"ranking":26,"id":1023409,"member_count":0,"lat":18.469999313354492},{"zip":"meetup28","country":"jm","localized_country_name":"Jamaica","distance":8071.472446515741,"city":"Kingston","lon":-76.80000305175781,"ranking":27,"id":1110747,"member_count":0,"lat":17.979999542236328}],"meta":{"next":"","method":"Cities","total_count":28,"link":"http:\/\/api.meetup.com\/2\/cities","count":28,"description":"Returns Meetup cities. This method supports search by latitude\/longitude\/radius, by country\/state, by query term\/zip, or a combination of all of these. Location-only searches by lat and lon return all cities within a radius of the provided coordinates. Searches with a query return up to 10 cities matching the term, and can be sorted by size or distance to a given coordinate. 'smart' ordering can be used to return the match(es) with the highest member_count, unless a smaller size match exists nearby the given coordinates. Query searches are supported for country but not country and state","lon":"None","title":"Cities","url":"http:\/\/api.meetup.com\/2\/cities?country=jm&offset=0&sign=True&format=json&photo-host=public&page=200&radius=50&order=size&desc=false","id":"","updated":1421616560000,"lat":"None"}}
