{"results":[{"zip":"meetup1","country":"jo","localized_country_name":"Jordan","distance":9426.942389209547,"city":"´Amman","lon":35.93000030517578,"ranking":0,"id":1023411,"member_count":425,"lat":31.950000762939453},{"zip":"meetup3","country":"jo","localized_country_name":"Jordan","distance":9405.783934978863,"city":"Irbid","lon":35.849998474121094,"ranking":1,"id":1023413,"member_count":41,"lat":32.54999923706055},{"zip":"meetup15","country":"jo","localized_country_name":"Jordan","distance":9427.564320097956,"city":"al-Jubayhah","lon":35.86000061035156,"ranking":2,"id":1023425,"member_count":22,"lat":32.02000045776367},{"zip":"meetup21","country":"jo","localized_country_name":"Jordan","distance":9426.9969149879,"city":"Abu ´Alanda","lon":35.970001220703125,"ranking":3,"id":1023431,"member_count":22,"lat":31.899999618530273},{"zip":"meetup2","country":"jo","localized_country_name":"Jordan","distance":9413.348908584445,"city":"az-Zarqa'","lon":36.099998474121094,"ranking":4,"id":1023412,"member_count":15,"lat":32.06999969482422},{"zip":"meetup6","country":"jo","localized_country_name":"Jordan","distance":9573.715721046918,"city":"al-´Aqabah","lon":35,"ranking":5,"id":1023416,"member_count":11,"lat":29.530000686645508},{"zip":"meetup16","country":"jo","localized_country_name":"Jordan","distance":9428.488169272798,"city":"Khalda wa Tila´-al-´Ali","lon":35.849998474121094,"ranking":6,"id":1023426,"member_count":11,"lat":32.0099983215332},{"zip":"meetup7","country":"jo","localized_country_name":"Jordan","distance":9443.614110174647,"city":"Madaba","lon":35.790000915527344,"ranking":7,"id":1023417,"member_count":8,"lat":31.719999313354492},{"zip":"meetup8","country":"jo","localized_country_name":"Jordan","distance":9433.388282682741,"city":"as-Salt","lon":35.720001220703125,"ranking":8,"id":1023418,"member_count":7,"lat":32.04999923706055},{"zip":"meetup30","country":"jo","localized_country_name":"Jordan","distance":9406.735988371309,"city":"al-Husun","lon":35.88999938964844,"ranking":9,"id":1023440,"member_count":6,"lat":32.47999954223633},{"zip":"meetup9","country":"jo","localized_country_name":"Jordan","distance":9428.66350675245,"city":"Suwaylih","lon":35.83000183105469,"ranking":10,"id":1023419,"member_count":5,"lat":32.029998779296875},{"zip":"meetup10","country":"jo","localized_country_name":"Jordan","distance":9396.924435787276,"city":"ar-Ramtha","lon":36.0099983215332,"ranking":11,"id":1023420,"member_count":5,"lat":32.56999969482422},{"zip":"meetup11","country":"jo","localized_country_name":"Jordan","distance":9426.484597290413,"city":"al-Baq´ah","lon":35.84000015258789,"ranking":12,"id":1023421,"member_count":4,"lat":32.06999969482422},{"zip":"meetup24","country":"jo","localized_country_name":"Jordan","distance":9415.57717798936,"city":"Jarash","lon":35.88999938964844,"ranking":13,"id":1023434,"member_count":4,"lat":32.27000045776367},{"zip":"meetup26","country":"jo","localized_country_name":"Jordan","distance":9424.131965946104,"city":"Askan Abu Nusayr","lon":35.869998931884766,"ranking":14,"id":1023436,"member_count":4,"lat":32.09000015258789},{"zip":"meetup4","country":"jo","localized_country_name":"Jordan","distance":9419.473285135851,"city":"ar-Russayfah","lon":36.02000045776367,"ranking":15,"id":1023414,"member_count":3,"lat":32.02000045776367},{"zip":"meetup5","country":"jo","localized_country_name":"Jordan","distance":9432.512443980278,"city":"Wadi as-Sir","lon":35.81999969482422,"ranking":16,"id":1023415,"member_count":3,"lat":31.950000762939453},{"zip":"meetup17","country":"jo","localized_country_name":"Jordan","distance":9426.307553357163,"city":"Sahab","lon":36,"ranking":17,"id":1023427,"member_count":3,"lat":31.8799991607666},{"zip":"meetup20","country":"jo","localized_country_name":"Jordan","distance":12341.796479597713,"city":"Tariq","lon":0,"ranking":18,"id":1023430,"member_count":3,"lat":0},{"zip":"meetup28","country":"jo","localized_country_name":"Jordan","distance":9470.519360507727,"city":"al-Karak","lon":35.70000076293945,"ranking":19,"id":1023438,"member_count":3,"lat":31.18000030517578},{"zip":"meetup33","country":"jo","localized_country_name":"Jordan","distance":9420.179379930352,"city":"Ajlun","lon":35.7400016784668,"ranking":20,"id":1023443,"member_count":3,"lat":32.34000015258789},{"zip":"meetup12","country":"jo","localized_country_name":"Jordan","distance":12341.796479597713,"city":"Mushayrfat Ras al-´Ayn","lon":0,"ranking":21,"id":1023422,"member_count":1,"lat":0},{"zip":"meetup13","country":"jo","localized_country_name":"Jordan","distance":9395.208030232561,"city":"al-Mafraq","lon":36.220001220703125,"ranking":22,"id":1023423,"member_count":1,"lat":32.36000061035156},{"zip":"meetup18","country":"jo","localized_country_name":"Jordan","distance":9427.17843230876,"city":"al-Quwaysimah","lon":35.95000076293945,"ranking":23,"id":1023428,"member_count":1,"lat":31.920000076293945},{"zip":"meetup19","country":"jo","localized_country_name":"Jordan","distance":9509.085285016356,"city":"Ma´addi","lon":35.72999954223633,"ranking":24,"id":1023429,"member_count":1,"lat":30.190000534057617},{"zip":"meetup22","country":"jo","localized_country_name":"Jordan","distance":9489.583638730413,"city":"at-Tafilah","lon":35.599998474121094,"ranking":25,"id":1023432,"member_count":1,"lat":30.84000015258789},{"zip":"meetup27","country":"jo","localized_country_name":"Jordan","distance":9426.989860033189,"city":"Ayn al-Basha","lon":35.83000183105469,"ranking":26,"id":1023437,"member_count":1,"lat":32.06999969482422},{"zip":"meetup34","country":"jo","localized_country_name":"Jordan","distance":9425.513411363194,"city":"Amman","lon":35.95000076293945,"ranking":27,"id":1109832,"member_count":0,"lat":31.959999084472656},{"zip":"meetup14","country":"jo","localized_country_name":"Jordan","distance":12341.796479597713,"city":"Shnillar","lon":0,"ranking":28,"id":1023424,"member_count":0,"lat":0},{"zip":"meetup23","country":"jo","localized_country_name":"Jordan","distance":9430.271543296618,"city":"Khraybat As-Suq","lon":35.93000030517578,"ranking":29,"id":1023433,"member_count":0,"lat":31.8700008392334},{"zip":"meetup25","country":"jo","localized_country_name":"Jordan","distance":9430.54414318936,"city":"Umm Qusayr wal Muqabalin","lon":35.900001525878906,"ranking":30,"id":1023435,"member_count":0,"lat":31.899999618530273},{"zip":"meetup29","country":"jo","localized_country_name":"Jordan","distance":9429.439908082708,"city":"al-Juwaydah","lon":35.93000030517578,"ranking":31,"id":1023439,"member_count":0,"lat":31.889999389648438},{"zip":"meetup31","country":"jo","localized_country_name":"Jordan","distance":9405.390172584348,"city":"as-Sarih","lon":35.900001525878906,"ranking":32,"id":1023441,"member_count":0,"lat":32.5},{"zip":"meetup32","country":"jo","localized_country_name":"Jordan","distance":9423.880423179073,"city":"Kufranjah","lon":35.70000076293945,"ranking":33,"id":1023442,"member_count":0,"lat":32.29999923706055}],"meta":{"next":"","method":"Cities","total_count":34,"link":"http:\/\/api.meetup.com\/2\/cities","count":34,"description":"Returns Meetup cities. This method supports search by latitude\/longitude\/radius, by country\/state, by query term\/zip, or a combination of all of these. Location-only searches by lat and lon return all cities within a radius of the provided coordinates. Searches with a query return up to 10 cities matching the term, and can be sorted by size or distance to a given coordinate. 'smart' ordering can be used to return the match(es) with the highest member_count, unless a smaller size match exists nearby the given coordinates. Query searches are supported for country but not country and state","lon":"None","title":"Cities","url":"http:\/\/api.meetup.com\/2\/cities?country=jo&offset=0&sign=True&format=json&photo-host=public&page=200&radius=50&order=size&desc=false","id":"","updated":1408486511000,"lat":"None"}}
