{"results":[{"zip":"meetup1","country":"ke","localized_country_name":"Kenya","distance":9841.28067372499,"city":"Nairobi","lon":36.81999969482422,"ranking":0,"id":1024490,"member_count":1121,"lat":-1.2899999618530273},{"zip":"meetup2","country":"ke","localized_country_name":"Kenya","distance":9584.564135703647,"city":"Mombasa","lon":39.65999984741211,"ranking":1,"id":1024491,"member_count":96,"lat":-4.039999961853027},{"zip":"meetup85","country":"ke","localized_country_name":"Kenya","distance":9989.939971450158,"city":"Ahero","lon":34.91999816894531,"ranking":2,"id":1024574,"member_count":66,"lat":-0.18000000715255737},{"zip":"meetup3","country":"ke","localized_country_name":"Kenya","distance":9911.265512896547,"city":"Nakuru","lon":36.06999969482422,"ranking":3,"id":1024492,"member_count":32,"lat":-0.2800000011920929},{"zip":"meetup4","country":"ke","localized_country_name":"Kenya","distance":10002.915143456816,"city":"Kisumu","lon":34.75,"ranking":4,"id":1024493,"member_count":32,"lat":-0.09000000357627869},{"zip":"meetup5","country":"ke","localized_country_name":"Kenya","distance":9978.617528411643,"city":"Eldoret","lon":35.27000045776367,"ranking":5,"id":1024494,"member_count":32,"lat":0.5199999809265137},{"zip":"meetup6","country":"ke","localized_country_name":"Kenya","distance":9828.37231912587,"city":"Thika","lon":37.09000015258789,"ranking":6,"id":1024495,"member_count":16,"lat":-1.0399999618530273},{"zip":"meetup12","country":"ke","localized_country_name":"Kenya","distance":9850.054049932507,"city":"Nyeri","lon":36.95000076293945,"ranking":7,"id":1024501,"member_count":14,"lat":-0.4099999964237213},{"zip":"meetup49","country":"ke","localized_country_name":"Kenya","distance":9843.563066620489,"city":"Kiambu","lon":36.81999969482422,"ranking":8,"id":1024538,"member_count":12,"lat":-1.1799999475479126},{"zip":"meetup112","country":"ke","localized_country_name":"Kenya","distance":9852.562971139867,"city":"Kikuyu","lon":36.66999816894531,"ranking":9,"id":1024601,"member_count":10,"lat":-1.2300000190734863},{"zip":"meetup13","country":"ke","localized_country_name":"Kenya","distance":10026.826080326682,"city":"Bungoma","lon":34.560001373291016,"ranking":10,"id":1024502,"member_count":10,"lat":0.5699999928474426},{"zip":"meetup63","country":"ke","localized_country_name":"Kenya","distance":9851.186750973828,"city":"Ngong","lon":36.650001525878906,"ranking":11,"id":1024552,"member_count":9,"lat":-1.3600000143051147},{"zip":"meetup21","country":"ke","localized_country_name":"Kenya","distance":9814.567012794527,"city":"Embu","lon":37.45000076293945,"ranking":12,"id":1024510,"member_count":9,"lat":-0.5199999809265137},{"zip":"meetup9","country":"ke","localized_country_name":"Kenya","distance":10010.842847080723,"city":"Kakamega","lon":34.72999954223633,"ranking":13,"id":1024498,"member_count":8,"lat":0.28999999165534973},{"zip":"meetup25","country":"ke","localized_country_name":"Kenya","distance":9962.586342258983,"city":"Kericho","lon":35.279998779296875,"ranking":14,"id":1024514,"member_count":7,"lat":-0.36000001430511475},{"zip":"meetup8","country":"ke","localized_country_name":"Kenya","distance":10005.345221704913,"city":"Kitale","lon":34.9900016784668,"ranking":15,"id":1024497,"member_count":7,"lat":1.0299999713897705},{"zip":"meetup16","country":"ke","localized_country_name":"Kenya","distance":9879.06203052231,"city":"Naivasha","lon":36.43000030517578,"ranking":16,"id":1024505,"member_count":7,"lat":-0.7099999785423279},{"zip":"meetup19","country":"ke","localized_country_name":"Kenya","distance":10003.054277307327,"city":"Migori","lon":34.470001220703125,"ranking":17,"id":1024508,"member_count":7,"lat":-1.0700000524520874},{"zip":"meetup28","country":"ke","localized_country_name":"Kenya","distance":9991.515355133499,"city":"Kisii","lon":34.7599983215332,"ranking":18,"id":1024517,"member_count":5,"lat":-0.6700000166893005},{"zip":"meetup50","country":"ke","localized_country_name":"Kenya","distance":10036.297805466951,"city":"Siaya","lon":34.290000915527344,"ranking":19,"id":1024539,"member_count":5,"lat":0.05999999865889549},{"zip":"meetup95","country":"ke","localized_country_name":"Kenya","distance":10033.69284162183,"city":"Mbita Point","lon":34.20000076293945,"ranking":20,"id":1024584,"member_count":5,"lat":-0.41999998688697815},{"zip":"meetup113","country":"ke","localized_country_name":"Kenya","distance":9856.57441780008,"city":"Limuru","lon":36.650001525878906,"ranking":21,"id":1024602,"member_count":5,"lat":-1.100000023841858},{"zip":"meetup26","country":"ke","localized_country_name":"Kenya","distance":9807.190935525323,"city":"Machakos","lon":37.2599983215332,"ranking":22,"id":1024515,"member_count":4,"lat":-1.5099999904632568},{"zip":"meetup45","country":"ke","localized_country_name":"Kenya","distance":9826.305070138442,"city":"Kerugoya","lon":37.279998779296875,"ranking":23,"id":1024534,"member_count":4,"lat":-0.5},{"zip":"meetup20","country":"ke","localized_country_name":"Kenya","distance":9850.583872290332,"city":"Nanyuki","lon":37.060001373291016,"ranking":24,"id":1024509,"member_count":4,"lat":0.019999999552965164},{"zip":"meetup32","country":"ke","localized_country_name":"Kenya","distance":9934.717500790404,"city":"Molo","lon":35.72999954223633,"ranking":25,"id":1024521,"member_count":3,"lat":-0.23999999463558197},{"zip":"meetup36","country":"ke","localized_country_name":"Kenya","distance":9777.453061576865,"city":"Makueni","lon":37.61000061035156,"ranking":26,"id":1024525,"member_count":3,"lat":-1.7999999523162842},{"zip":"meetup72","country":"ke","localized_country_name":"Kenya","distance":10026.355403204148,"city":"Butere","lon":34.47999954223633,"ranking":27,"id":1024561,"member_count":3,"lat":0.2199999988079071},{"zip":"meetup76","country":"ke","localized_country_name":"Kenya","distance":9831.446731451295,"city":"Kajiado","lon":36.790000915527344,"ranking":28,"id":1024565,"member_count":3,"lat":-1.840000033378601},{"zip":"meetup81","country":"ke","localized_country_name":"Kenya","distance":9997.419761275265,"city":"Oyugis","lon":34.720001220703125,"ranking":29,"id":1024570,"member_count":3,"lat":-0.5},{"zip":"meetup116","country":"ke","localized_country_name":"Kenya","distance":9963.240252269377,"city":"Itentambach","lon":35.52000045776367,"ranking":30,"id":1024605,"member_count":3,"lat":0.6000000238418579},{"zip":"meetup29","country":"ke","localized_country_name":"Kenya","distance":9897.67017702548,"city":"Nyahururu","lon":36.36000061035156,"ranking":31,"id":1024518,"member_count":2,"lat":0.03999999910593033},{"zip":"meetup30","country":"ke","localized_country_name":"Kenya","distance":9910.69920442505,"city":"Narok","lon":35.849998474121094,"ranking":32,"id":1024519,"member_count":2,"lat":-1.0700000524520874},{"zip":"meetup33","country":"ke","localized_country_name":"Kenya","distance":9829.128081598086,"city":"Karuri","lon":37.18000030517578,"ranking":33,"id":1024522,"member_count":2,"lat":-0.699999988079071},{"zip":"meetup48","country":"ke","localized_country_name":"Kenya","distance":10003.788890391055,"city":"Awendo","lon":34.47999954223633,"ranking":34,"id":1024537,"member_count":2,"lat":-1},{"zip":"meetup51","country":"ke","localized_country_name":"Kenya","distance":9971.76688378867,"city":"Muhoroni","lon":35.20000076293945,"ranking":35,"id":1024540,"member_count":2,"lat":-0.15000000596046448},{"zip":"meetup56","country":"ke","localized_country_name":"Kenya","distance":9734.303332218155,"city":"Taveta","lon":37.68000030517578,"ranking":36,"id":1024545,"member_count":2,"lat":-3.4000000953674316},{"zip":"meetup58","country":"ke","localized_country_name":"Kenya","distance":9830.937503523432,"city":"Murang'a","lon":37.150001525878906,"ranking":37,"id":1024547,"member_count":2,"lat":-0.7099999785423279},{"zip":"meetup66","country":"ke","localized_country_name":"Kenya","distance":9984.438327279217,"city":"Nyamira","lon":34.900001525878906,"ranking":38,"id":1024555,"member_count":2,"lat":-0.550000011920929},{"zip":"meetup86","country":"ke","localized_country_name":"Kenya","distance":10040.724882844133,"city":"Bondo","lon":34.27000045776367,"ranking":39,"id":1024575,"member_count":2,"lat":0.23999999463558197},{"zip":"meetup90","country":"ke","localized_country_name":"Kenya","distance":9838.520232728873,"city":"Karatina","lon":37.099998474121094,"ranking":40,"id":1024579,"member_count":2,"lat":-0.49000000953674316},{"zip":"meetup128","country":"ke","localized_country_name":"Kenya","distance":9965.143210915785,"city":"Litein","lon":35.18000030517578,"ranking":41,"id":1024617,"member_count":2,"lat":-0.5799999833106995},{"zip":"meetup136","country":"ke","localized_country_name":"Kenya","distance":9989.662712877709,"city":"Malava","lon":34.849998474121094,"ranking":42,"id":1024625,"member_count":2,"lat":-0.44999998807907104},{"zip":"meetup10","country":"ke","localized_country_name":"Kenya","distance":9577.13616819745,"city":"Malindi","lon":40.099998474121094,"ranking":43,"id":1024499,"member_count":2,"lat":-3.2100000381469727},{"zip":"meetup14","country":"ke","localized_country_name":"Kenya","distance":9812.588738957576,"city":"Méru","lon":37.63999938964844,"ranking":44,"id":1024503,"member_count":2,"lat":0.05999999865889549},{"zip":"meetup15","country":"ke","localized_country_name":"Kenya","distance":10027.545603793547,"city":"Mumias","lon":34.4900016784668,"ranking":45,"id":1024504,"member_count":2,"lat":0.33000001311302185},{"zip":"meetup22","country":"ke","localized_country_name":"Kenya","distance":10040.568819855303,"city":"Busia","lon":34.310001373291016,"ranking":46,"id":1024511,"member_count":2,"lat":0.38999998569488525},{"zip":"meetup24","country":"ke","localized_country_name":"Kenya","distance":9583.45186118302,"city":"Kilifi","lon":39.849998474121094,"ranking":47,"id":1024513,"member_count":1,"lat":-3.609999895095825},{"zip":"meetup34","country":"ke","localized_country_name":"Kenya","distance":10013.615452119475,"city":"Webuye","lon":34.77000045776367,"ranking":48,"id":1024523,"member_count":1,"lat":0.6200000047683716},{"zip":"meetup35","country":"ke","localized_country_name":"Kenya","distance":9997.654451549944,"city":"Vihiga","lon":34.93000030517578,"ranking":49,"id":1024524,"member_count":1,"lat":0.30000001192092896},{"zip":"meetup38","country":"ke","localized_country_name":"Kenya","distance":9546.451906663246,"city":"Lamu","lon":40.900001525878906,"ranking":50,"id":1024527,"member_count":1,"lat":-2.2799999713897705},{"zip":"meetup39","country":"ke","localized_country_name":"Kenya","distance":9993.469668267078,"city":"Lodwar","lon":35.56999969482422,"ranking":51,"id":1024528,"member_count":1,"lat":3.130000114440918},{"zip":"meetup44","country":"ke","localized_country_name":"Kenya","distance":9890.738425138543,"city":"Ol Kalou","lon":36.380001068115234,"ranking":52,"id":1024533,"member_count":1,"lat":-0.27000001072883606},{"zip":"meetup52","country":"ke","localized_country_name":"Kenya","distance":9760.223101585183,"city":"Kitui","lon":38.0099983215332,"ranking":53,"id":1024541,"member_count":1,"lat":-1.3600000143051147},{"zip":"meetup54","country":"ke","localized_country_name":"Kenya","distance":9990.372649731919,"city":"Kehancha","lon":34.619998931884766,"ranking":54,"id":1024543,"member_count":1,"lat":-1.2000000476837158},{"zip":"meetup61","country":"ke","localized_country_name":"Kenya","distance":9688.076139830928,"city":"Wundanyi","lon":38.369998931884766,"ranking":55,"id":1024550,"member_count":1,"lat":-3.4000000953674316},{"zip":"meetup71","country":"ke","localized_country_name":"Kenya","distance":9796.237161026636,"city":"Mauá","lon":37.93000030517578,"ranking":56,"id":1024560,"member_count":1,"lat":0.23000000417232513},{"zip":"meetup73","country":"ke","localized_country_name":"Kenya","distance":9947.589180281018,"city":"Kabarnet","lon":35.72999954223633,"ranking":57,"id":1024562,"member_count":1,"lat":0.5},{"zip":"meetup77","country":"ke","localized_country_name":"Kenya","distance":9806.290232970521,"city":"Kangundo","lon":37.34000015258789,"ranking":58,"id":1024566,"member_count":1,"lat":-1.2999999523162842},{"zip":"meetup80","country":"ke","localized_country_name":"Kenya","distance":9758.113224517894,"city":"Oloitokitok","lon":37.5099983215332,"ranking":59,"id":1024569,"member_count":1,"lat":-2.9100000858306885},{"zip":"meetup93","country":"ke","localized_country_name":"Kenya","distance":9931.077037377636,"city":"Baringo","lon":35.970001220703125,"ranking":60,"id":1024582,"member_count":1,"lat":0.4699999988079071},{"zip":"meetup97","country":"ke","localized_country_name":"Kenya","distance":9891.496138167537,"city":"Gilgil","lon":36.310001373291016,"ranking":61,"id":1024586,"member_count":1,"lat":-0.47999998927116394},{"zip":"meetup102","country":"ke","localized_country_name":"Kenya","distance":9995.993151394301,"city":"Tabaka","lon":34.66999816894531,"ranking":62,"id":1024591,"member_count":1,"lat":-0.75},{"zip":"meetup103","country":"ke","localized_country_name":"Kenya","distance":9865.55988722427,"city":"Kijabe","lon":36.56999969482422,"ranking":63,"id":1024592,"member_count":1,"lat":-0.9200000166893005},{"zip":"meetup105","country":"ke","localized_country_name":"Kenya","distance":9949.722517697088,"city":"Bomet","lon":35.349998474121094,"ranking":64,"id":1024594,"member_count":1,"lat":-0.7900000214576721},{"zip":"meetup110","country":"ke","localized_country_name":"Kenya","distance":9594.75719443939,"city":"Kwale","lon":39.45000076293945,"ranking":65,"id":1024599,"member_count":1,"lat":-4.179999828338623},{"zip":"meetup114","country":"ke","localized_country_name":"Kenya","distance":9847.013666494075,"city":"Othaya","lon":36.95000076293945,"ranking":66,"id":1024603,"member_count":1,"lat":-0.5699999928474426},{"zip":"meetup117","country":"ke","localized_country_name":"Kenya","distance":9844.220204196346,"city":"Kangema","lon":36.959999084472656,"ranking":67,"id":1024606,"member_count":1,"lat":-0.6800000071525574},{"zip":"meetup121","country":"ke","localized_country_name":"Kenya","distance":9977.875414008555,"city":"Nandi Hills","lon":35.18000030517578,"ranking":68,"id":1024610,"member_count":1,"lat":0.11999999731779099},{"zip":"meetup122","country":"ke","localized_country_name":"Kenya","distance":10037.69899571687,"city":"Ugunja","lon":34.29999923706055,"ranking":69,"id":1024611,"member_count":1,"lat":0.18000000715255737},{"zip":"meetup124","country":"ke","localized_country_name":"Kenya","distance":9565.486721085863,"city":"Kipini","lon":40.529998779296875,"ranking":70,"id":1024613,"member_count":1,"lat":-2.5199999809265137},{"zip":"meetup125","country":"ke","localized_country_name":"Kenya","distance":9984.599007166104,"city":"Nadi","lon":35.099998474121094,"ranking":71,"id":1024614,"member_count":1,"lat":0.20000000298023224},{"zip":"meetup127","country":"ke","localized_country_name":"Kenya","distance":9828.376174881181,"city":"Sagana","lon":37.20000076293945,"ranking":72,"id":1024616,"member_count":1,"lat":-0.6700000166893005},{"zip":"meetup134","country":"ke","localized_country_name":"Kenya","distance":9967.241711245386,"city":"Sotik","lon":35.119998931884766,"ranking":73,"id":1024623,"member_count":1,"lat":-0.6800000071525574},{"zip":"meetup140","country":"ke","localized_country_name":"Kenya","distance":9808.453827548195,"city":"Runjenjes","lon":37.56999969482422,"ranking":74,"id":1024629,"member_count":1,"lat":-0.41999998688697815},{"zip":"meetup141","country":"ke","localized_country_name":"Kenya","distance":10041.614628370882,"city":"Funyula","lon":34.119998931884766,"ranking":75,"id":1024630,"member_count":1,"lat":-0.2800000011920929},{"zip":"meetup11","country":"ke","localized_country_name":"Kenya","distance":9667.896517100728,"city":"Garissa","lon":39.66999816894531,"ranking":76,"id":1024500,"member_count":1,"lat":-0.4399999976158142},{"zip":"meetup18","country":"ke","localized_country_name":"Kenya","distance":10015.103096513096,"city":"Homa Bay","lon":34.45000076293945,"ranking":77,"id":1024507,"member_count":1,"lat":-0.5199999809265137},{"zip":"meetup23","country":"ke","localized_country_name":"Kenya","distance":9585.78741568885,"city":"Mandera","lon":41.86000061035156,"ranking":78,"id":1024512,"member_count":0,"lat":3.940000057220459},{"zip":"meetup27","country":"ke","localized_country_name":"Kenya","distance":9822.660682801195,"city":"Isiolo","lon":37.56999969482422,"ranking":79,"id":1024516,"member_count":0,"lat":0.3700000047683716},{"zip":"meetup31","country":"ke","localized_country_name":"Kenya","distance":9825.866611198328,"city":"Mavoko","lon":37,"ranking":80,"id":1024520,"member_count":0,"lat":-1.4500000476837158},{"zip":"meetup37","country":"ke","localized_country_name":"Kenya","distance":9985.43815637249,"city":"Kapsabet","lon":35.09000015258789,"ranking":81,"id":1024526,"member_count":0,"lat":0.20999999344348907},{"zip":"meetup40","country":"ke","localized_country_name":"Kenya","distance":9675.457305086104,"city":"Voi","lon":38.56999969482422,"ranking":82,"id":1024529,"member_count":0,"lat":-3.369999885559082},{"zip":"meetup41","country":"ke","localized_country_name":"Kenya","distance":9893.922937312918,"city":"Maralal","lon":36.68000030517578,"ranking":83,"id":1024530,"member_count":0,"lat":1.1100000143051147},{"zip":"meetup42","country":"ke","localized_country_name":"Kenya","distance":9657.62709532694,"city":"Tana River","lon":39.5,"ranking":84,"id":1024531,"member_count":0,"lat":-1.5},{"zip":"meetup43","country":"ke","localized_country_name":"Kenya","distance":9980.80027294179,"city":"Lokichar","lon":35.63999938964844,"ranking":85,"id":1024532,"member_count":0,"lat":2.4100000858306885},{"zip":"meetup46","country":"ke","localized_country_name":"Kenya","distance":9767.055272662636,"city":"Moyalê","lon":39.04999923706055,"ranking":86,"id":1024535,"member_count":0,"lat":3.5199999809265137},{"zip":"meetup47","country":"ke","localized_country_name":"Kenya","distance":9824.429204917802,"city":"Marsabit","lon":37.97999954223633,"ranking":87,"id":1024536,"member_count":0,"lat":2.3299999237060547},{"zip":"meetup53","country":"ke","localized_country_name":"Kenya","distance":10002.769101203454,"city":"Kapenguria","lon":35.08000183105469,"ranking":88,"id":1024542,"member_count":0,"lat":1.2599999904632568},{"zip":"meetup55","country":"ke","localized_country_name":"Kenya","distance":9863.141191153196,"city":"Magadi","lon":36.29999923706055,"ranking":89,"id":1024544,"member_count":0,"lat":-1.8899999856948853},{"zip":"meetup57","country":"ke","localized_country_name":"Kenya","distance":9584.582599616962,"city":"Sawasawa","lon":39.47999954223633,"ranking":90,"id":1024546,"member_count":0,"lat":-4.46999979019165},{"zip":"meetup59","country":"ke","localized_country_name":"Kenya","distance":9601.929314226783,"city":"Mariakani","lon":39.470001220703125,"ranking":91,"id":1024548,"member_count":0,"lat":-3.869999885559082},{"zip":"meetup60","country":"ke","localized_country_name":"Kenya","distance":9814.667917027204,"city":"Namanga","lon":36.79999923706055,"ranking":92,"id":1024549,"member_count":0,"lat":-2.5399999618530273},{"zip":"meetup62","country":"ke","localized_country_name":"Kenya","distance":9940.584755750906,"city":"Eldama Ravine","lon":35.720001220703125,"ranking":93,"id":1024551,"member_count":0,"lat":0.05000000074505806},{"zip":"meetup64","country":"ke","localized_country_name":"Kenya","distance":9991.870040858872,"city":"Kimilili","lon":34.720001220703125,"ranking":94,"id":1024553,"member_count":0,"lat":-0.7900000214576721},{"zip":"meetup65","country":"ke","localized_country_name":"Kenya","distance":9765.092143152335,"city":"Mwingi","lon":38.06999969482422,"ranking":95,"id":1024554,"member_count":0,"lat":-0.9300000071525574},{"zip":"meetup67","country":"ke","localized_country_name":"Kenya","distance":9622.644213508627,"city":"Hola","lon":40.029998779296875,"ranking":96,"id":1024556,"member_count":0,"lat":-1.4800000190734863},{"zip":"meetup68","country":"ke","localized_country_name":"Kenya","distance":9992.306773568478,"city":"Lokitaung","lon":35.7400016784668,"ranking":97,"id":1024557,"member_count":0,"lat":4.25},{"zip":"meetup69","country":"ke","localized_country_name":"Kenya","distance":9577.006923049104,"city":"Mambrui","lon":40.13999938964844,"ranking":98,"id":1024558,"member_count":0,"lat":-3.109999895095825},{"zip":"meetup70","country":"ke","localized_country_name":"Kenya","distance":9599.506602112866,"city":"Garsen","lon":40.11000061035156,"ranking":99,"id":1024559,"member_count":0,"lat":-2.2699999809265137},{"zip":"meetup74","country":"ke","localized_country_name":"Kenya","distance":9930.899269697387,"city":"Njoro","lon":35.939998626708984,"ranking":100,"id":1024563,"member_count":0,"lat":0.3400000035762787},{"zip":"meetup75","country":"ke","localized_country_name":"Kenya","distance":9581.590743658657,"city":"Takaungu","lon":39.849998474121094,"ranking":101,"id":1024564,"member_count":0,"lat":-3.680000066757202},{"zip":"meetup78","country":"ke","localized_country_name":"Kenya","distance":9736.866617530632,"city":"Mutomo","lon":38.20000076293945,"ranking":102,"id":1024567,"member_count":0,"lat":-1.850000023841858},{"zip":"meetup79","country":"ke","localized_country_name":"Kenya","distance":9785.491347331184,"city":"Kangonde","lon":37.709999084472656,"ranking":103,"id":1024568,"member_count":0,"lat":-1.1100000143051147},{"zip":"meetup82","country":"ke","localized_country_name":"Kenya","distance":9927.973541072168,"city":"Rongai","lon":35.849998474121094,"ranking":104,"id":1024571,"member_count":0,"lat":-0.17000000178813934},{"zip":"meetup83","country":"ke","localized_country_name":"Kenya","distance":10056.435152048414,"city":"Luanda","lon":34.04999923706055,"ranking":105,"id":1024572,"member_count":0,"lat":0.30000001192092896},{"zip":"meetup84","country":"ke","localized_country_name":"Kenya","distance":9857.52469281232,"city":"Solio","lon":36.880001068115234,"ranking":106,"id":1024573,"member_count":0,"lat":-0.25999999046325684},{"zip":"meetup87","country":"ke","localized_country_name":"Kenya","distance":9849.827444835257,"city":"Naro Moru","lon":37.02000045776367,"ranking":107,"id":1024576,"member_count":0,"lat":-0.17000000178813934},{"zip":"meetup88","country":"ke","localized_country_name":"Kenya","distance":10047.152793019564,"city":"Malaba","lon":34.27000045776367,"ranking":108,"id":1024577,"member_count":0,"lat":0.6299999952316284},{"zip":"meetup89","country":"ke","localized_country_name":"Kenya","distance":9604.852902119423,"city":"Kinango","lon":39.31999969482422,"ranking":109,"id":1024578,"member_count":0,"lat":-4.130000114440918},{"zip":"meetup91","country":"ke","localized_country_name":"Kenya","distance":9804.80402366458,"city":"Chhukha","lon":37.650001525878906,"ranking":110,"id":1024580,"member_count":0,"lat":-0.33000001311302185},{"zip":"meetup92","country":"ke","localized_country_name":"Kenya","distance":9849.443207396287,"city":"Wamba","lon":37.31999969482422,"ranking":111,"id":1024581,"member_count":0,"lat":0.9900000095367432},{"zip":"meetup94","country":"ke","localized_country_name":"Kenya","distance":10000.288718240168,"city":"Rongo","lon":34.599998474121094,"ranking":112,"id":1024583,"member_count":0,"lat":-0.7699999809265137},{"zip":"meetup96","country":"ke","localized_country_name":"Kenya","distance":10058.377526188928,"city":"Port Victoria","lon":33.970001220703125,"ranking":113,"id":1024585,"member_count":0,"lat":0.10000000149011612},{"zip":"meetup98","country":"ke","localized_country_name":"Kenya","distance":9776.55732184982,"city":"Wote","lon":37.630001068115234,"ranking":114,"id":1024587,"member_count":0,"lat":-1.7799999713897705},{"zip":"meetup99","country":"ke","localized_country_name":"Kenya","distance":9799.68042866231,"city":"Matuu","lon":37.470001220703125,"ranking":115,"id":1024588,"member_count":0,"lat":-1.2000000476837158},{"zip":"meetup100","country":"ke","localized_country_name":"Kenya","distance":10021.586245713597,"city":"Mount Elgon","lon":34.7599983215332,"ranking":116,"id":1024589,"member_count":0,"lat":1.090000033378601},{"zip":"meetup101","country":"ke","localized_country_name":"Kenya","distance":10008.758296806733,"city":"Lugari","lon":34.849998474121094,"ranking":117,"id":1024590,"member_count":0,"lat":0.6499999761581421},{"zip":"meetup104","country":"ke","localized_country_name":"Kenya","distance":9575.51542358819,"city":"Witu","lon":40.43000030517578,"ranking":118,"id":1024593,"member_count":0,"lat":-2.380000114440918},{"zip":"meetup106","country":"ke","localized_country_name":"Kenya","distance":9583.711005676338,"city":"Gazi","lon":39.5099983215332,"ranking":119,"id":1024595,"member_count":0,"lat":-4.429999828338623},{"zip":"meetup107","country":"ke","localized_country_name":"Kenya","distance":9719.548529755322,"city":"Mitoto-Andei","lon":38.16999816894531,"ranking":120,"id":1024596,"member_count":0,"lat":-2.680000066757202},{"zip":"meetup108","country":"ke","localized_country_name":"Kenya","distance":9830.900560667902,"city":"Maragua","lon":37.130001068115234,"ranking":121,"id":1024597,"member_count":0,"lat":-0.7799999713897705},{"zip":"meetup109","country":"ke","localized_country_name":"Kenya","distance":9890.996897112405,"city":"Rumuruti","lon":36.52000045776367,"ranking":122,"id":1024598,"member_count":0,"lat":0.27000001072883606},{"zip":"meetup111","country":"ke","localized_country_name":"Kenya","distance":9993.044955399448,"city":"Suneka","lon":34.7400016784668,"ranking":123,"id":1024600,"member_count":0,"lat":-0.6600000262260437},{"zip":"meetup115","country":"ke","localized_country_name":"Kenya","distance":9946.374466672889,"city":"Londiani","lon":35.58000183105469,"ranking":124,"id":1024604,"member_count":0,"lat":-0.15000000596046448},{"zip":"meetup118","country":"ke","localized_country_name":"Kenya","distance":10037.9377784304,"city":"Malakisi","lon":34.41999816894531,"ranking":125,"id":1024607,"member_count":0,"lat":0.6800000071525574},{"zip":"meetup119","country":"ke","localized_country_name":"Kenya","distance":9976.481438728093,"city":"Keroka","lon":34.95000076293945,"ranking":126,"id":1024608,"member_count":0,"lat":-0.7900000214576721},{"zip":"meetup120","country":"ke","localized_country_name":"Kenya","distance":9972.577003947417,"city":"Nyansiongo","lon":35.02000045776367,"ranking":127,"id":1024609,"member_count":0,"lat":-0.75},{"zip":"meetup123","country":"ke","localized_country_name":"Kenya","distance":9600.761653738691,"city":"Vanga","lon":39.16999816894531,"ranking":128,"id":1024612,"member_count":0,"lat":-4.630000114440918},{"zip":"meetup126","country":"ke","localized_country_name":"Kenya","distance":9963.742620467418,"city":"Burnt Forest","lon":35.41999816894531,"ranking":129,"id":1024615,"member_count":0,"lat":0.23000000417232513},{"zip":"meetup129","country":"ke","localized_country_name":"Kenya","distance":9952.819963911848,"city":"Kipkelion","lon":35.470001220703125,"ranking":130,"id":1024618,"member_count":0,"lat":-0.20000000298023224},{"zip":"meetup130","country":"ke","localized_country_name":"Kenya","distance":9806.662836638723,"city":"Chogoria","lon":37.650001525878906,"ranking":131,"id":1024619,"member_count":0,"lat":-0.23000000417232513},{"zip":"meetup131","country":"ke","localized_country_name":"Kenya","distance":9721.40721880888,"city":"Mado Gashi","lon":39.18000030517578,"ranking":132,"id":1024620,"member_count":0,"lat":0.7300000190734863},{"zip":"meetup132","country":"ke","localized_country_name":"Kenya","distance":10020.954027801768,"city":"Yala","lon":34.529998779296875,"ranking":133,"id":1024621,"member_count":0,"lat":0.10000000149011612},{"zip":"meetup133","country":"ke","localized_country_name":"Kenya","distance":9986.681723697982,"city":"Nyamache","lon":34.779998779296875,"ranking":134,"id":1024622,"member_count":0,"lat":-0.8500000238418579},{"zip":"meetup135","country":"ke","localized_country_name":"Kenya","distance":9585.734107044476,"city":"Shimoni","lon":39.38999938964844,"ranking":135,"id":1024624,"member_count":0,"lat":-4.639999866485596},{"zip":"meetup137","country":"ke","localized_country_name":"Kenya","distance":9811.346964122778,"city":"Konza","lon":37.119998931884766,"ranking":136,"id":1024626,"member_count":0,"lat":-1.75},{"zip":"meetup138","country":"ke","localized_country_name":"Kenya","distance":9976.251245041047,"city":"Masimba","lon":34.93000030517578,"ranking":137,"id":1024627,"member_count":0,"lat":-0.8700000047683716},{"zip":"meetup139","country":"ke","localized_country_name":"Kenya","distance":9991.675052621335,"city":"Ogembo","lon":34.720001220703125,"ranking":138,"id":1024628,"member_count":0,"lat":-0.800000011920929},{"zip":"meetup142","country":"ke","localized_country_name":"Kenya","distance":10045.40276945379,"city":"Nambale","lon":34.25,"ranking":139,"id":1024631,"member_count":0,"lat":0.4399999976158142},{"zip":"meetup143","country":"ke","localized_country_name":"Kenya","distance":9995.645772711601,"city":"Chepareria","lon":35.20000076293945,"ranking":140,"id":1024632,"member_count":0,"lat":1.3200000524520874},{"zip":"meetup144","country":"ke","localized_country_name":"Kenya","distance":9837.608675889958,"city":"Kandara","lon":37,"ranking":141,"id":1024633,"member_count":0,"lat":-0.8799999952316284},{"zip":"meetup145","country":"ke","localized_country_name":"Kenya","distance":10056.717190123729,"city":"Sirisia","lon":34,"ranking":142,"id":1024634,"member_count":0,"lat":0.11999999731779099},{"zip":"meetup146","country":"ke","localized_country_name":"Kenya","distance":10038.561545961356,"city":"Ukwala","lon":34.189998626708984,"ranking":143,"id":1024635,"member_count":0,"lat":-0.1899999976158142},{"zip":"meetup147","country":"ke","localized_country_name":"Kenya","distance":10005.375871979108,"city":"Kendu Bay","lon":34.63999938964844,"ranking":144,"id":1024636,"member_count":0,"lat":-0.36000001430511475},{"zip":"meetup148","country":"ke","localized_country_name":"Kenya","distance":9998.171372703011,"city":"Nyamarambe","lon":34.619998931884766,"ranking":145,"id":1024637,"member_count":0,"lat":-0.8100000023841858},{"zip":"meetup149","country":"ke","localized_country_name":"Kenya","distance":9825.176740738129,"city":"Makuyu","lon":37.18000030517578,"ranking":146,"id":1024638,"member_count":0,"lat":-0.8999999761581421},{"zip":"meetup7","country":"ke","localized_country_name":"Kenya","distance":9835.022950395707,"city":"Ruiru","lon":36.959999084472656,"ranking":147,"id":1024496,"member_count":0,"lat":-1.1399999856948853},{"zip":"meetup17","country":"ke","localized_country_name":"Kenya","distance":9679.223876169806,"city":"Wajir","lon":40.04999923706055,"ranking":148,"id":1024506,"member_count":0,"lat":1.75}],"meta":{"next":"","method":"Cities","total_count":149,"link":"http:\/\/api.meetup.com\/2\/cities","count":149,"description":"Returns Meetup cities. This method supports search by latitude\/longitude\/radius, by country\/state, by query term\/zip, or a combination of all of these. Location-only searches by lat and lon return all cities within a radius of the provided coordinates. Searches with a query return up to 10 cities matching the term, and can be sorted by size or distance to a given coordinate. 'smart' ordering can be used to return the match(es) with the highest member_count, unless a smaller size match exists nearby the given coordinates. Query searches are supported for country but not country and state","lon":"None","title":"Cities","url":"http:\/\/api.meetup.com\/2\/cities?country=ke&offset=0&sign=True&format=json&photo-host=public&page=200&radius=50&order=size&desc=false","id":"","updated":1251864867000,"lat":"None"}}
