{"results":[{"zip":"meetup1","country":"kg","localized_country_name":"Kyrgyzstan","distance":7489.692348850545,"city":"Bishkek","lon":74.56999969482422,"ranking":0,"id":1024639,"member_count":26,"lat":42.869998931884766},{"zip":"meetup58","country":"kg","localized_country_name":"Kyrgyzstan","distance":7560.977009608766,"city":"Chat-Bazar","lon":72.58000183105469,"ranking":1,"id":1024696,"member_count":6,"lat":42.5},{"zip":"meetup82","country":"kg","localized_country_name":"Kyrgyzstan","distance":7364.754720887773,"city":"Ak-Bulok","lon":78.25,"ranking":2,"id":1024720,"member_count":3,"lat":42.79999923706055},{"zip":"meetup66","country":"kg","localized_country_name":"Kyrgyzstan","distance":7355.871305690566,"city":"Teploklyuchenka","lon":78.5199966430664,"ranking":3,"id":1024704,"member_count":2,"lat":42.5},{"zip":"meetup2","country":"kg","localized_country_name":"Kyrgyzstan","distance":7568.075523074847,"city":"Osh","lon":72.79000091552734,"ranking":4,"id":1024640,"member_count":1,"lat":40.540000915527344},{"zip":"meetup3","country":"kg","localized_country_name":"Kyrgyzstan","distance":7557.299941420227,"city":"Jalal-Abad","lon":73,"ranking":5,"id":1024641,"member_count":1,"lat":40.939998626708984},{"zip":"meetup5","country":"kg","localized_country_name":"Kyrgyzstan","distance":7360.637162164989,"city":"Karakol","lon":78.37999725341797,"ranking":6,"id":1024643,"member_count":1,"lat":42.4900016784668},{"zip":"meetup12","country":"kg","localized_country_name":"Kyrgyzstan","distance":7480.343039453737,"city":"Kant","lon":74.83999633789062,"ranking":7,"id":1024650,"member_count":1,"lat":42.88999938964844},{"zip":"meetup13","country":"kg","localized_country_name":"Kyrgyzstan","distance":7565.854241134477,"city":"Bazarkurgon","lon":72.73999786376953,"ranking":8,"id":1024651,"member_count":1,"lat":41.06999969482422},{"zip":"meetup18","country":"kg","localized_country_name":"Kyrgyzstan","distance":7467.97869998997,"city":"Chui","lon":75.20999908447266,"ranking":9,"id":1024656,"member_count":1,"lat":42.81999969482422},{"zip":"meetup34","country":"kg","localized_country_name":"Kyrgyzstan","distance":7695.798856316637,"city":"Sulukta","lon":69.55999755859375,"ranking":10,"id":1024672,"member_count":1,"lat":39.939998626708984},{"zip":"meetup63","country":"kg","localized_country_name":"Kyrgyzstan","distance":7391.234080752716,"city":"Grigoryevka","lon":77.47000122070312,"ranking":11,"id":1024701,"member_count":1,"lat":42.720001220703125},{"zip":"meetup65","country":"kg","localized_country_name":"Kyrgyzstan","distance":7338.557308959648,"city":"Jyrgolon","lon":79.02999877929688,"ranking":12,"id":1024703,"member_count":1,"lat":42.599998474121094},{"zip":"meetup67","country":"kg","localized_country_name":"Kyrgyzstan","distance":7526.125060536191,"city":"Chaldovar","lon":73.5199966430664,"ranking":13,"id":1024705,"member_count":1,"lat":42.81999969482422},{"zip":"meetup74","country":"kg","localized_country_name":"Kyrgyzstan","distance":7513.853607763657,"city":"Sosnovka","lon":73.9000015258789,"ranking":14,"id":1024712,"member_count":1,"lat":42.66999816894531},{"zip":"meetup4","country":"kg","localized_country_name":"Kyrgyzstan","distance":7513.293355135231,"city":"Karabalta","lon":73.88999938964844,"ranking":15,"id":1024642,"member_count":0,"lat":42.83000183105469},{"zip":"meetup6","country":"kg","localized_country_name":"Kyrgyzstan","distance":7465.198206920952,"city":"Tokmok","lon":75.29000091552734,"ranking":16,"id":1024644,"member_count":0,"lat":42.83000183105469},{"zip":"meetup7","country":"kg","localized_country_name":"Kyrgyzstan","distance":7547.801004837772,"city":"Uzgen","lon":73.29000091552734,"ranking":17,"id":1024645,"member_count":0,"lat":40.779998779296875},{"zip":"meetup8","country":"kg","localized_country_name":"Kyrgyzstan","distance":7435.663159741832,"city":"Balykchy","lon":76.19000244140625,"ranking":18,"id":1024646,"member_count":0,"lat":42.459999084472656},{"zip":"meetup9","country":"kg","localized_country_name":"Kyrgyzstan","distance":7446.4237162425425,"city":"Naryn","lon":75.98999786376953,"ranking":19,"id":1024647,"member_count":0,"lat":41.43000030517578},{"zip":"meetup10","country":"kg","localized_country_name":"Kyrgyzstan","distance":7572.763551823416,"city":"Talas","lon":72.23999786376953,"ranking":20,"id":1024648,"member_count":0,"lat":42.52000045776367},{"zip":"meetup11","country":"kg","localized_country_name":"Kyrgyzstan","distance":7595.390501921963,"city":"Kyzyl-Kiya","lon":72.12000274658203,"ranking":21,"id":1024649,"member_count":0,"lat":40.2599983215332},{"zip":"meetup14","country":"kg","localized_country_name":"Kyrgyzstan","distance":7582.637417583113,"city":"Tash-Kumyr","lon":72.22000122070312,"ranking":22,"id":1024652,"member_count":0,"lat":41.349998474121094},{"zip":"meetup15","country":"kg","localized_country_name":"Kyrgyzstan","distance":7563.069217611373,"city":"Kara-Suu","lon":72.88999938964844,"ranking":23,"id":1024653,"member_count":0,"lat":40.709999084472656},{"zip":"meetup16","country":"kg","localized_country_name":"Kyrgyzstan","distance":7500.444198263437,"city":"Mingkush","lon":74.44000244140625,"ranking":24,"id":1024654,"member_count":0,"lat":41.68000030517578},{"zip":"meetup17","country":"kg","localized_country_name":"Kyrgyzstan","distance":7501.766043775989,"city":"Sokuluk","lon":74.22000122070312,"ranking":25,"id":1024655,"member_count":0,"lat":42.86000061035156},{"zip":"meetup19","country":"kg","localized_country_name":"Kyrgyzstan","distance":7451.975979486333,"city":"Kemin","lon":75.68000030517578,"ranking":26,"id":1024657,"member_count":0,"lat":42.79999923706055},{"zip":"meetup20","country":"kg","localized_country_name":"Kyrgyzstan","distance":7505.711506172734,"city":"Belovodskoye","lon":74.11000061035156,"ranking":27,"id":1024658,"member_count":0,"lat":42.83000183105469},{"zip":"meetup21","country":"kg","localized_country_name":"Kyrgyzstan","distance":7574.977414117859,"city":"Mailuu-Suu","lon":72.44999694824219,"ranking":28,"id":1024659,"member_count":0,"lat":41.2599983215332},{"zip":"meetup22","country":"kg","localized_country_name":"Kyrgyzstan","distance":7513.920914305104,"city":"Kosh Tegirmen","lon":73.87999725341797,"ranking":29,"id":1024660,"member_count":0,"lat":42.779998779296875},{"zip":"meetup23","country":"kg","localized_country_name":"Kyrgyzstan","distance":7516.799939961427,"city":"Kalininskoye","lon":73.79000091552734,"ranking":30,"id":1024661,"member_count":0,"lat":42.81999969482422},{"zip":"meetup24","country":"kg","localized_country_name":"Kyrgyzstan","distance":7552.671051950844,"city":"Toktogul","lon":72.94000244140625,"ranking":31,"id":1024662,"member_count":0,"lat":41.880001068115234},{"zip":"meetup26","country":"kg","localized_country_name":"Kyrgyzstan","distance":7454.291700992922,"city":"At-Bashi","lon":75.80000305175781,"ranking":32,"id":1024664,"member_count":0,"lat":41.16999816894531},{"zip":"meetup27","country":"kg","localized_country_name":"Kyrgyzstan","distance":7374.104698315846,"city":"Kyzyl-Suu","lon":77.98999786376953,"ranking":33,"id":1024665,"member_count":0,"lat":42.349998474121094},{"zip":"meetup28","country":"kg","localized_country_name":"Kyrgyzstan","distance":7698.089012167188,"city":"Isfana","lon":69.52999877929688,"ranking":34,"id":1024666,"member_count":0,"lat":39.84000015258789},{"zip":"meetup29","country":"kg","localized_country_name":"Kyrgyzstan","distance":7580.061724654251,"city":"Kochkor-Ata","lon":72.3499984741211,"ranking":35,"id":1024667,"member_count":0,"lat":41.08000183105469},{"zip":"meetup30","country":"kg","localized_country_name":"Kyrgyzstan","distance":7409.041447282103,"city":"Kyzyl-Tuu","lon":76.98999786376953,"ranking":36,"id":1024668,"member_count":0,"lat":42.11000061035156},{"zip":"meetup31","country":"kg","localized_country_name":"Kyrgyzstan","distance":7471.7883335591805,"city":"Ivanovka","lon":75.08999633789062,"ranking":37,"id":1024669,"member_count":0,"lat":42.88999938964844},{"zip":"meetup32","country":"kg","localized_country_name":"Kyrgyzstan","distance":7455.243613381012,"city":"Orlovka","lon":75.58999633789062,"ranking":38,"id":1024670,"member_count":0,"lat":42.75},{"zip":"meetup33","country":"kg","localized_country_name":"Kyrgyzstan","distance":7361.10605057241,"city":"Tyup","lon":78.36000061035156,"ranking":39,"id":1024671,"member_count":0,"lat":42.72999954223633},{"zip":"meetup35","country":"kg","localized_country_name":"Kyrgyzstan","distance":7450.783787301574,"city":"Bashkaingdy","lon":75.9000015258789,"ranking":40,"id":1024673,"member_count":0,"lat":41.150001525878906},{"zip":"meetup36","country":"kg","localized_country_name":"Kyrgyzstan","distance":7404.637059519979,"city":"Cholpon-Ata","lon":77.08000183105469,"ranking":41,"id":1024674,"member_count":0,"lat":42.650001525878906},{"zip":"meetup37","country":"kg","localized_country_name":"Kyrgyzstan","distance":7482.065545884467,"city":"Krasnaya Rechka","lon":74.80999755859375,"ranking":42,"id":1024675,"member_count":0,"lat":42.7400016784668},{"zip":"meetup38","country":"kg","localized_country_name":"Kyrgyzstan","distance":7498.775104710299,"city":"Sopokov","lon":74.30999755859375,"ranking":43,"id":1024676,"member_count":0,"lat":42.84000015258789},{"zip":"meetup39","country":"kg","localized_country_name":"Kyrgyzstan","distance":7628.149279602466,"city":"Khaidarkan","lon":71.33000183105469,"ranking":44,"id":1024677,"member_count":0,"lat":39.939998626708984},{"zip":"meetup40","country":"kg","localized_country_name":"Kyrgyzstan","distance":7583.89685486376,"city":"Leninopol","lon":71.93000030517578,"ranking":45,"id":1024678,"member_count":0,"lat":42.4900016784668},{"zip":"meetup41","country":"kg","localized_country_name":"Kyrgyzstan","distance":7496.520875379807,"city":"Ak-Suu","lon":74.37999725341797,"ranking":46,"id":1024679,"member_count":0,"lat":42.810001373291016},{"zip":"meetup42","country":"kg","localized_country_name":"Kyrgyzstan","distance":7598.842684556196,"city":"Karavan","lon":71.73999786376953,"ranking":47,"id":1024680,"member_count":0,"lat":41.5},{"zip":"meetup43","country":"kg","localized_country_name":"Kyrgyzstan","distance":7549.322355457523,"city":"Kok-Jangak","lon":73.19999694824219,"ranking":48,"id":1024681,"member_count":0,"lat":41.029998779296875},{"zip":"meetup44","country":"kg","localized_country_name":"Kyrgyzstan","distance":7520.538791690631,"city":"Kayingdi","lon":73.68000030517578,"ranking":49,"id":1024682,"member_count":0,"lat":42.83000183105469},{"zip":"meetup45","country":"kg","localized_country_name":"Kyrgyzstan","distance":7493.806248914711,"city":"Kayirma","lon":74.58000183105469,"ranking":50,"id":1024683,"member_count":0,"lat":41.9900016784668},{"zip":"meetup46","country":"kg","localized_country_name":"Kyrgyzstan","distance":7446.202788628409,"city":"Boroldoy","lon":75.8499984741211,"ranking":51,"id":1024684,"member_count":0,"lat":42.790000915527344},{"zip":"meetup47","country":"kg","localized_country_name":"Kyrgyzstan","distance":7552.43116129546,"city":"Leninskoye","lon":73.18000030517578,"ranking":52,"id":1024685,"member_count":0,"lat":40.70000076293945},{"zip":"meetup48","country":"kg","localized_country_name":"Kyrgyzstan","distance":7451.437719126043,"city":"Minbulok","lon":75.83999633789062,"ranking":53,"id":1024686,"member_count":0,"lat":41.5099983215332},{"zip":"meetup49","country":"kg","localized_country_name":"Kyrgyzstan","distance":7645.906441976689,"city":"Batken","lon":70.83000183105469,"ranking":54,"id":1024687,"member_count":0,"lat":40.06999969482422},{"zip":"meetup50","country":"kg","localized_country_name":"Kyrgyzstan","distance":7628.537792642785,"city":"Jangybazar","lon":70.87999725341797,"ranking":55,"id":1024688,"member_count":0,"lat":41.66999816894531},{"zip":"meetup51","country":"kg","localized_country_name":"Kyrgyzstan","distance":7609.450133773923,"city":"Ala Buka","lon":71.47000122070312,"ranking":56,"id":1024689,"member_count":0,"lat":41.40999984741211},{"zip":"meetup52","country":"kg","localized_country_name":"Kyrgyzstan","distance":7433.049420916944,"city":"Ottuk","lon":76.27999877929688,"ranking":57,"id":1024690,"member_count":0,"lat":42.310001373291016},{"zip":"meetup53","country":"kg","localized_country_name":"Kyrgyzstan","distance":7496.24327880646,"city":"Chaiek","lon":74.5199966430664,"ranking":58,"id":1024691,"member_count":0,"lat":41.93000030517578},{"zip":"meetup54","country":"kg","localized_country_name":"Kyrgyzstan","distance":7451.802337894925,"city":"Kochkorka","lon":75.75,"ranking":59,"id":1024692,"member_count":0,"lat":42.209999084472656},{"zip":"meetup55","country":"kg","localized_country_name":"Kyrgyzstan","distance":7606.772489153337,"city":"Maimak","lon":71.2300033569336,"ranking":60,"id":1024693,"member_count":0,"lat":42.70000076293945},{"zip":"meetup57","country":"kg","localized_country_name":"Kyrgyzstan","distance":7495.352015279675,"city":"Jangyjar","lon":74.37000274658203,"ranking":61,"id":1024695,"member_count":0,"lat":43.11000061035156},{"zip":"meetup59","country":"kg","localized_country_name":"Kyrgyzstan","distance":7595.072643102932,"city":"Kyzyl-Adyr","lon":71.58000183105469,"ranking":62,"id":1024697,"member_count":0,"lat":42.630001068115234},{"zip":"meetup60","country":"kg","localized_country_name":"Kyrgyzstan","distance":7587.751447566074,"city":"Klyuchevka","lon":71.80000305175781,"ranking":63,"id":1024698,"member_count":0,"lat":42.58000183105469},{"zip":"meetup61","country":"kg","localized_country_name":"Kyrgyzstan","distance":7463.371861898284,"city":"Kalinovka","lon":75.36000061035156,"ranking":64,"id":1024699,"member_count":0,"lat":42.689998626708984},{"zip":"meetup62","country":"kg","localized_country_name":"Kyrgyzstan","distance":7362.554004798607,"city":"Mihaylov","lon":78.31999969482422,"ranking":65,"id":1024700,"member_count":0,"lat":42.619998931884766},{"zip":"meetup64","country":"kg","localized_country_name":"Kyrgyzstan","distance":7384.7594467506215,"city":"Ananyevo","lon":77.66000366210938,"ranking":66,"id":1024702,"member_count":0,"lat":42.7400016784668},{"zip":"meetup68","country":"kg","localized_country_name":"Kyrgyzstan","distance":7377.574168936677,"city":"Darkhon","lon":77.88999938964844,"ranking":67,"id":1024706,"member_count":0,"lat":42.31999969482422},{"zip":"meetup69","country":"kg","localized_country_name":"Kyrgyzstan","distance":7369.515924736183,"city":"Kuturgu","lon":78.11000061035156,"ranking":68,"id":1024707,"member_count":0,"lat":42.7599983215332},{"zip":"meetup70","country":"kg","localized_country_name":"Kyrgyzstan","distance":7383.560747466323,"city":"Ak-Terek","lon":77.72000122070312,"ranking":69,"id":1024708,"member_count":0,"lat":42.22999954223633},{"zip":"meetup71","country":"kg","localized_country_name":"Kyrgyzstan","distance":7498.950564418348,"city":"Jangypakhtar","lon":74.26000213623047,"ranking":70,"id":1024709,"member_count":0,"lat":43.13999938964844},{"zip":"meetup72","country":"kg","localized_country_name":"Kyrgyzstan","distance":7356.68111606454,"city":"Taldy-Suu","lon":78.48999786376953,"ranking":71,"id":1024710,"member_count":0,"lat":42.790000915527344},{"zip":"meetup73","country":"kg","localized_country_name":"Kyrgyzstan","distance":7421.559498921771,"city":"Karako","lon":76.62000274658203,"ranking":72,"id":1024711,"member_count":0,"lat":42.220001220703125},{"zip":"meetup75","country":"kg","localized_country_name":"Kyrgyzstan","distance":7464.210252858236,"city":"Kulanak","lon":75.5,"ranking":73,"id":1024713,"member_count":0,"lat":41.36000061035156},{"zip":"meetup76","country":"kg","localized_country_name":"Kyrgyzstan","distance":7389.181565471022,"city":"Semyonovka","lon":77.52999877929688,"ranking":74,"id":1024714,"member_count":0,"lat":42.72999954223633},{"zip":"meetup77","country":"kg","localized_country_name":"Kyrgyzstan","distance":7468.273681042718,"city":"Don Arik","lon":75.20999908447266,"ranking":75,"id":1024715,"member_count":0,"lat":42.75},{"zip":"meetup78","country":"kg","localized_country_name":"Kyrgyzstan","distance":7469.5601875478305,"city":"Kegety","lon":75.18000030517578,"ranking":76,"id":1024716,"member_count":0,"lat":42.689998626708984},{"zip":"meetup79","country":"kg","localized_country_name":"Kyrgyzstan","distance":7348.6923364997765,"city":"Novovoznesenovka","lon":78.7300033569336,"ranking":77,"id":1024717,"member_count":0,"lat":42.599998474121094},{"zip":"meetup80","country":"kg","localized_country_name":"Kyrgyzstan","distance":7473.6008223457575,"city":"Yuryevka","lon":75.05999755859375,"ranking":78,"id":1024718,"member_count":0,"lat":42.709999084472656},{"zip":"meetup81","country":"kg","localized_country_name":"Kyrgyzstan","distance":7608.5172765998,"city":"Groznoye","lon":71.19999694824219,"ranking":79,"id":1024719,"member_count":0,"lat":42.619998931884766},{"zip":"meetup83","country":"kg","localized_country_name":"Kyrgyzstan","distance":7387.805548508755,"city":"Barskoon","lon":77.5999984741211,"ranking":80,"id":1024721,"member_count":0,"lat":42.16999816894531},{"zip":"meetup84","country":"kg","localized_country_name":"Kyrgyzstan","distance":7497.2323828453655,"city":"Chatkyol","lon":74.33999633789062,"ranking":81,"id":1024722,"member_count":0,"lat":42.939998626708984}],"meta":{"next":"","method":"Cities","total_count":82,"link":"http:\/\/api.meetup.com\/2\/cities","count":82,"description":"Returns Meetup cities. This method supports search by latitude\/longitude\/radius, by country\/state, by query term\/zip, or a combination of all of these. Location-only searches by lat and lon return all cities within a radius of the provided coordinates. Searches with a query return up to 10 cities matching the term, and can be sorted by size or distance to a given coordinate. 'smart' ordering can be used to return the match(es) with the highest member_count, unless a smaller size match exists nearby the given coordinates. Query searches are supported for country but not country and state","lon":"None","title":"Cities","url":"http:\/\/api.meetup.com\/2\/cities?country=kg&offset=0&sign=True&format=json&photo-host=public&page=200&radius=50&order=size&desc=false","id":"","updated":1251864867000,"lat":"None"}}
