{"results":[{"zip":"meetup1","country":"km","localized_country_name":"Comoros","distance":9066.5386597891,"city":"Moroni","lon":43.22999954223633,"ranking":0,"id":1024773,"member_count":2,"lat":-11.739999771118164},{"zip":"meetup4","country":"km","localized_country_name":"Comoros","distance":8957.143253916192,"city":"Domoni","lon":44.529998779296875,"ranking":1,"id":1024776,"member_count":2,"lat":-12.25},{"zip":"meetup5","country":"km","localized_country_name":"Comoros","distance":9008.809040473232,"city":"Fomboni","lon":43.72999954223633,"ranking":2,"id":1024777,"member_count":1,"lat":-12.279999732971191},{"zip":"meetup2","country":"km","localized_country_name":"Comoros","distance":8969.673125681034,"city":"Mutsamudu","lon":44.40999984741211,"ranking":3,"id":1024774,"member_count":0,"lat":-12.149999618530273},{"zip":"meetup3","country":"km","localized_country_name":"Comoros","distance":9078.352489565124,"city":"Mitsamiouli","lon":43.279998779296875,"ranking":4,"id":1024775,"member_count":0,"lat":-11.399999618530273}],"meta":{"next":"","method":"Cities","total_count":5,"link":"http:\/\/api.meetup.com\/2\/cities","count":5,"description":"Returns Meetup cities. This method supports search by latitude\/longitude\/radius, by country\/state, by query term\/zip, or a combination of all of these. Location-only searches by lat and lon return all cities within a radius of the provided coordinates. Searches with a query return up to 10 cities matching the term, and can be sorted by size or distance to a given coordinate. 'smart' ordering can be used to return the match(es) with the highest member_count, unless a smaller size match exists nearby the given coordinates. Query searches are supported for country but not country and state","lon":"None","title":"Cities","url":"http:\/\/api.meetup.com\/2\/cities?country=km&offset=0&sign=True&format=json&photo-host=public&page=200&radius=50&order=size&desc=false","id":"","updated":1251864867000,"lat":"None"}}
