{"results":[{"zip":"meetup1","country":"kr","localized_country_name":"Korea (South)","distance":5769.433505194736,"city":"Seoul","lon":126.98999786376953,"ranking":0,"id":1024810,"member_count":3242,"lat":37.560001373291016},{"zip":"meetup2","country":"kr","localized_country_name":"Korea (South)","distance":5604.389720644766,"city":"Pusan","lon":129.02999877929688,"ranking":1,"id":1024811,"member_count":209,"lat":35.11000061035156},{"zip":"meetup3","country":"kr","localized_country_name":"Korea (South)","distance":5774.52851477524,"city":"Incheon","lon":126.63999938964844,"ranking":2,"id":1024812,"member_count":102,"lat":37.47999954223633},{"zip":"meetup9","country":"kr","localized_country_name":"Korea (South)","distance":5755.249853942643,"city":"Suwon","lon":127.01000213623047,"ranking":3,"id":1024818,"member_count":76,"lat":37.2599983215332},{"zip":"meetup4","country":"kr","localized_country_name":"Korea (South)","distance":5650.919136750482,"city":"Daegu","lon":128.60000610351562,"ranking":4,"id":1024813,"member_count":59,"lat":35.869998931884766},{"zip":"meetup23","country":"kr","localized_country_name":"Korea (South)","distance":5740.2224543335915,"city":"Pyeongtaek","lon":127.0999984741211,"ranking":5,"id":1024832,"member_count":54,"lat":36.97999954223633},{"zip":"meetup11","country":"kr","localized_country_name":"Korea (South)","distance":5763.427800800179,"city":"Anyang","lon":126.91999816894531,"ranking":6,"id":1024820,"member_count":46,"lat":37.38999938964844},{"zip":"meetup26","country":"kr","localized_country_name":"Korea (South)","distance":5730.954606726166,"city":"Cheonan","lon":127.16000366210938,"ranking":7,"id":1024835,"member_count":46,"lat":36.810001373291016},{"zip":"meetup128","country":"kr","localized_country_name":"Korea (South)","distance":5604.386664982949,"city":"Aeweol","lon":126.31999969482422,"ranking":8,"id":1024937,"member_count":43,"lat":33.470001220703125},{"zip":"meetup57","country":"kr","localized_country_name":"Korea (South)","distance":5753.404945671742,"city":"Yongin","lon":127.12000274658203,"ranking":9,"id":1024866,"member_count":42,"lat":37.279998779296875},{"zip":"meetup13","country":"kr","localized_country_name":"Korea (South)","distance":5763.110703478608,"city":"Ansan","lon":126.86000061035156,"ranking":10,"id":1024822,"member_count":39,"lat":37.349998474121094},{"zip":"meetup10","country":"kr","localized_country_name":"Korea (South)","distance":5617.775517779371,"city":"Ulsan","lon":129.30999755859375,"ranking":11,"id":1024819,"member_count":37,"lat":35.54999923706055},{"zip":"meetup50","country":"kr","localized_country_name":"Korea (South)","distance":5748.727887561221,"city":"Osan","lon":127.06999969482422,"ranking":12,"id":1024859,"member_count":36,"lat":37.150001525878906},{"zip":"meetup5","country":"kr","localized_country_name":"Korea (South)","distance":5702.157552459031,"city":"Taejeon","lon":127.43000030517578,"ranking":13,"id":1024814,"member_count":35,"lat":36.33000183105469},{"zip":"meetup7","country":"kr","localized_country_name":"Korea (South)","distance":5759.970376415097,"city":"Seongnam","lon":127.1500015258789,"ranking":14,"id":1024816,"member_count":32,"lat":37.439998626708984},{"zip":"meetup40","country":"kr","localized_country_name":"Korea (South)","distance":5763.097356409909,"city":"Hanam","lon":127.19000244140625,"ranking":15,"id":1024849,"member_count":31,"lat":37.529998779296875},{"zip":"meetup49","country":"kr","localized_country_name":"Korea (South)","distance":5784.417204678106,"city":"Tongducheon","lon":127.05000305175781,"ranking":16,"id":1024858,"member_count":22,"lat":37.91999816894531},{"zip":"meetup6","country":"kr","localized_country_name":"Korea (South)","distance":5662.914443315699,"city":"Kwangju","lon":126.91000366210938,"ranking":17,"id":1024815,"member_count":19,"lat":35.15999984741211},{"zip":"meetup12","country":"kr","localized_country_name":"Korea (South)","distance":5777.312204481763,"city":"Koyang","lon":126.93000030517578,"ranking":18,"id":1024821,"member_count":17,"lat":37.70000076293945},{"zip":"meetup18","country":"kr","localized_country_name":"Korea (South)","distance":5638.8777046186215,"city":"Pohang","lon":129.3699951171875,"ranking":19,"id":1024827,"member_count":16,"lat":36.029998779296875},{"zip":"meetup61","country":"kr","localized_country_name":"Korea (South)","distance":5745.1659669984165,"city":"Icheon","lon":127.44999694824219,"ranking":20,"id":1024870,"member_count":16,"lat":37.279998779296875},{"zip":"meetup20","country":"kr","localized_country_name":"Korea (South)","distance":5776.421874518309,"city":"Euijeongbu","lon":127.04000091552734,"ranking":21,"id":1024829,"member_count":15,"lat":37.7400016784668},{"zip":"meetup24","country":"kr","localized_country_name":"Korea (South)","distance":5600.412760189402,"city":"Cheju","lon":126.5199966430664,"ranking":22,"id":1024833,"member_count":13,"lat":33.5099983215332},{"zip":"meetup8","country":"kr","localized_country_name":"Korea (South)","distance":5771.2740616194005,"city":"Pucheon","lon":126.7699966430664,"ranking":23,"id":1024817,"member_count":12,"lat":37.47999954223633},{"zip":"meetup14","country":"kr","localized_country_name":"Korea (South)","distance":5714.542847576404,"city":"Cheongju","lon":127.5,"ranking":24,"id":1024823,"member_count":12,"lat":36.63999938964844},{"zip":"meetup48","country":"kr","localized_country_name":"Korea (South)","distance":5766.8366925916625,"city":"Namyangju","lon":127.27999877929688,"ranking":25,"id":1024857,"member_count":12,"lat":37.65999984741211},{"zip":"meetup30","country":"kr","localized_country_name":"Korea (South)","distance":5764.817315488462,"city":"Chuncheon","lon":127.73999786376953,"ranking":26,"id":1024839,"member_count":11,"lat":37.86000061035156},{"zip":"meetup72","country":"kr","localized_country_name":"Korea (South)","distance":5737.046274037851,"city":"Anseong","lon":127.27999877929688,"ranking":27,"id":1024881,"member_count":11,"lat":37.0099983215332},{"zip":"meetup15","country":"kr","localized_country_name":"Korea (South)","distance":5686.974096965654,"city":"Cheonju","lon":127.13999938964844,"ranking":28,"id":1024824,"member_count":10,"lat":35.83000183105469},{"zip":"meetup27","country":"kr","localized_country_name":"Korea (South)","distance":5661.034750539857,"city":"Mokpo","lon":126.38999938964844,"ranking":29,"id":1024836,"member_count":10,"lat":34.79999923706055},{"zip":"meetup29","country":"kr","localized_country_name":"Korea (South)","distance":5705.500387490281,"city":"Kunsan","lon":126.70999908447266,"ranking":30,"id":1024838,"member_count":10,"lat":35.9900016784668},{"zip":"meetup16","country":"kr","localized_country_name":"Korea (South)","distance":5622.534561586615,"city":"Changweon","lon":128.6199951171875,"ranking":31,"id":1024825,"member_count":9,"lat":35.27000045776367},{"zip":"meetup60","country":"kr","localized_country_name":"Korea (South)","distance":5734.629943341874,"city":"Asan","lon":126.9800033569336,"ranking":32,"id":1024869,"member_count":9,"lat":36.790000915527344},{"zip":"meetup109","country":"kr","localized_country_name":"Korea (South)","distance":5661.616014304284,"city":"Waegwan","lon":128.39999389648438,"ranking":33,"id":1024918,"member_count":9,"lat":35.9900016784668},{"zip":"meetup21","country":"kr","localized_country_name":"Korea (South)","distance":5760.854973495035,"city":"Kunpo","lon":126.94999694824219,"ranking":34,"id":1024830,"member_count":8,"lat":37.349998474121094},{"zip":"meetup68","country":"kr","localized_country_name":"Korea (South)","distance":5780.289819772463,"city":"Kimpo","lon":126.69999694824219,"ranking":35,"id":1024877,"member_count":8,"lat":37.63999938964844},{"zip":"meetup78","country":"kr","localized_country_name":"Korea (South)","distance":5614.873920033103,"city":"Yangsan","lon":129.0399932861328,"ranking":36,"id":1024887,"member_count":8,"lat":35.34000015258789},{"zip":"meetup107","country":"kr","localized_country_name":"Korea (South)","distance":5779.366785688647,"city":"Pochon","lon":127.19999694824219,"ranking":37,"id":1024916,"member_count":8,"lat":37.88999938964844},{"zip":"meetup28","country":"kr","localized_country_name":"Korea (South)","distance":5696.937115839348,"city":"Iksan","lon":126.94999694824219,"ranking":38,"id":1024837,"member_count":7,"lat":35.939998626708984},{"zip":"meetup34","country":"kr","localized_country_name":"Korea (South)","distance":5767.365247978717,"city":"Shiheung","lon":126.88999938964844,"ranking":39,"id":1024843,"member_count":7,"lat":37.459999084472656},{"zip":"meetup38","country":"kr","localized_country_name":"Korea (South)","distance":5719.11574180507,"city":"Chungju","lon":127.94000244140625,"ranking":40,"id":1024847,"member_count":7,"lat":36.97999954223633},{"zip":"meetup25","country":"kr","localized_country_name":"Korea (South)","distance":5669.387320120108,"city":"Kumi","lon":128.35000610351562,"ranking":41,"id":1024834,"member_count":6,"lat":36.130001068115234},{"zip":"meetup31","country":"kr","localized_country_name":"Korea (South)","distance":5736.2634823256485,"city":"Weonju","lon":127.94000244140625,"ranking":42,"id":1024840,"member_count":6,"lat":37.349998474121094},{"zip":"meetup42","country":"kr","localized_country_name":"Korea (South)","distance":5615.923466560704,"city":"Chinhae","lon":128.66000366210938,"ranking":43,"id":1024851,"member_count":6,"lat":35.150001525878906},{"zip":"meetup19","country":"kr","localized_country_name":"Korea (South)","distance":5621.263336288195,"city":"Masan","lon":128.5800018310547,"ranking":44,"id":1024828,"member_count":5,"lat":35.220001220703125},{"zip":"meetup44","country":"kr","localized_country_name":"Korea (South)","distance":5680.090278948447,"city":"Andong","lon":128.72000122070312,"ranking":45,"id":1024853,"member_count":5,"lat":36.560001373291016},{"zip":"meetup55","country":"kr","localized_country_name":"Korea (South)","distance":5587.52902704946,"city":"Seogwipo","lon":126.56999969482422,"ranking":46,"id":1024864,"member_count":5,"lat":33.25},{"zip":"meetup65","country":"kr","localized_country_name":"Korea (South)","distance":5748.471274705107,"city":"Seosan","lon":126.44000244140625,"ranking":47,"id":1024874,"member_count":5,"lat":36.790000915527344},{"zip":"meetup66","country":"kr","localized_country_name":"Korea (South)","distance":5604.20735971258,"city":"Geoje","lon":128.6300048828125,"ranking":48,"id":1024875,"member_count":4,"lat":34.880001068115234},{"zip":"meetup81","country":"kr","localized_country_name":"Korea (South)","distance":5740.904171350668,"city":"Yeoju","lon":127.63999938964844,"ranking":49,"id":1024890,"member_count":4,"lat":37.290000915527344},{"zip":"meetup33","country":"kr","localized_country_name":"Korea (South)","distance":5610.727867862955,"city":"Kimhae","lon":128.92999267578125,"ranking":50,"id":1024842,"member_count":3,"lat":35.189998626708984},{"zip":"meetup41","country":"kr","localized_country_name":"Korea (South)","distance":5760.103619110217,"city":"Euiwang","lon":126.9800033569336,"ranking":51,"id":1024850,"member_count":3,"lat":37.349998474121094},{"zip":"meetup54","country":"kr","localized_country_name":"Korea (South)","distance":5695.221676849145,"city":"Yeongju","lon":128.6199951171875,"ranking":52,"id":1024863,"member_count":3,"lat":36.83000183105469},{"zip":"meetup63","country":"kr","localized_country_name":"Korea (South)","distance":5621.381459642813,"city":"Sacheon","lon":128.07000732421875,"ranking":53,"id":1024872,"member_count":3,"lat":34.93000030517578},{"zip":"meetup83","country":"kr","localized_country_name":"Korea (South)","distance":5705.035670115276,"city":"Nonsan","lon":127.08999633789062,"ranking":54,"id":1024892,"member_count":3,"lat":36.20000076293945},{"zip":"meetup90","country":"kr","localized_country_name":"Korea (South)","distance":5740.831156917242,"city":"Paengseong","lon":127.04000091552734,"ranking":55,"id":1024899,"member_count":3,"lat":36.959999084472656},{"zip":"meetup17","country":"kr","localized_country_name":"Korea (South)","distance":5768.159813372923,"city":"Kwangmyeong","lon":126.83999633789062,"ranking":56,"id":1024826,"member_count":2,"lat":37.45000076293945},{"zip":"meetup35","country":"kr","localized_country_name":"Korea (South)","distance":5621.562185867634,"city":"Yeosu","lon":127.73999786376953,"ranking":57,"id":1024844,"member_count":2,"lat":34.7400016784668},{"zip":"meetup36","country":"kr","localized_country_name":"Korea (South)","distance":5637.825791215659,"city":"Suncheon","lon":127.48999786376953,"ranking":58,"id":1024845,"member_count":2,"lat":34.95000076293945},{"zip":"meetup45","country":"kr","localized_country_name":"Korea (South)","distance":5719.5949664031905,"city":"Chechon","lon":128.22000122070312,"ranking":59,"id":1024854,"member_count":2,"lat":37.13999938964844},{"zip":"meetup46","country":"kr","localized_country_name":"Korea (South)","distance":5607.929583344993,"city":"Tongyeong","lon":128.4199981689453,"ranking":60,"id":1024855,"member_count":2,"lat":34.84000015258789},{"zip":"meetup52","country":"kr","localized_country_name":"Korea (South)","distance":5645.2615913286045,"city":"Kyeongsan","lon":128.72999572753906,"ranking":61,"id":1024861,"member_count":2,"lat":35.81999969482422},{"zip":"meetup69","country":"kr","localized_country_name":"Korea (South)","distance":5635.777345451041,"city":"Kwangyang","lon":127.5999984741211,"ranking":62,"id":1024878,"member_count":2,"lat":34.970001220703125},{"zip":"meetup71","country":"kr","localized_country_name":"Korea (South)","distance":5646.703624064148,"city":"Yeongcheon","lon":128.92999267578125,"ranking":63,"id":1024880,"member_count":2,"lat":35.959999084472656},{"zip":"meetup98","country":"kr","localized_country_name":"Korea (South)","distance":5639.794106982227,"city":"Angang","lon":129.24000549316406,"ranking":64,"id":1024907,"member_count":2,"lat":35.97999954223633},{"zip":"meetup113","country":"kr","localized_country_name":"Korea (South)","distance":5736.728624920875,"city":"Seonghwan","lon":127.12999725341797,"ranking":65,"id":1024922,"member_count":2,"lat":36.91999816894531},{"zip":"meetup117","country":"kr","localized_country_name":"Korea (South)","distance":5655.818597899664,"city":"Hwasun","lon":126.98999786376953,"ranking":66,"id":1024926,"member_count":2,"lat":35.04999923706055},{"zip":"meetup118","country":"kr","localized_country_name":"Korea (South)","distance":5616.5708677018965,"city":"Koseong","lon":128.32000732421875,"ranking":67,"id":1024927,"member_count":2,"lat":34.970001220703125},{"zip":"meetup119","country":"kr","localized_country_name":"Korea (South)","distance":5790.755169194921,"city":"Kanghwa","lon":126.4800033569336,"ranking":68,"id":1024928,"member_count":2,"lat":37.75},{"zip":"meetup130","country":"kr","localized_country_name":"Korea (South)","distance":5692.585554830821,"city":"Puan","lon":126.73999786376953,"ranking":69,"id":1024939,"member_count":2,"lat":35.720001220703125},{"zip":"meetup22","country":"kr","localized_country_name":"Korea (South)","distance":5633.034154271064,"city":"Chinju","lon":128.0800018310547,"ranking":70,"id":1024831,"member_count":1,"lat":35.189998626708984},{"zip":"meetup32","country":"kr","localized_country_name":"Korea (South)","distance":5767.332131103424,"city":"Kuri","lon":127.12999725341797,"ranking":71,"id":1024841,"member_count":1,"lat":37.59000015258789},{"zip":"meetup37","country":"kr","localized_country_name":"Korea (South)","distance":5732.435010441459,"city":"Kangneung","lon":128.88999938964844,"ranking":72,"id":1024846,"member_count":1,"lat":37.7599983215332},{"zip":"meetup39","country":"kr","localized_country_name":"Korea (South)","distance":5634.180465254617,"city":"Kyeongju","lon":129.22000122070312,"ranking":73,"id":1024848,"member_count":1,"lat":35.849998474121094},{"zip":"meetup53","country":"kr","localized_country_name":"Korea (South)","distance":5674.084594440374,"city":"Kimcheon","lon":128.1300048828125,"ranking":74,"id":1024862,"member_count":1,"lat":36.11000061035156},{"zip":"meetup62","country":"kr","localized_country_name":"Korea (South)","distance":12341.796479597713,"city":"Kihung","lon":0,"ranking":75,"id":1024871,"member_count":1,"lat":0},{"zip":"meetup67","country":"kr","localized_country_name":"Korea (South)","distance":5702.367355755161,"city":"Taebaek","lon":128.97999572753906,"ranking":76,"id":1024876,"member_count":1,"lat":37.16999816894531},{"zip":"meetup73","country":"kr","localized_country_name":"Korea (South)","distance":5629.116230074775,"city":"Miryang","lon":128.75999450683594,"ranking":77,"id":1024882,"member_count":1,"lat":35.4900016784668},{"zip":"meetup80","country":"kr","localized_country_name":"Korea (South)","distance":12341.796479597713,"city":"Hoechon","lon":0,"ranking":78,"id":1024889,"member_count":1,"lat":0},{"zip":"meetup91","country":"kr","localized_country_name":"Korea (South)","distance":5787.613604100277,"city":"Munsan","lon":126.79000091552734,"ranking":79,"id":1024900,"member_count":1,"lat":37.849998474121094},{"zip":"meetup94","country":"kr","localized_country_name":"Korea (South)","distance":5718.523721030583,"city":"Chochiwon","lon":127.29000091552734,"ranking":80,"id":1024903,"member_count":1,"lat":36.61000061035156},{"zip":"meetup100","country":"kr","localized_country_name":"Korea (South)","distance":5661.793766365298,"city":"Naju","lon":126.72000122070312,"ranking":81,"id":1024909,"member_count":1,"lat":35.02000045776367},{"zip":"meetup101","country":"kr","localized_country_name":"Korea (South)","distance":5751.761762700818,"city":"Taean","lon":127.04000091552734,"ranking":82,"id":1024910,"member_count":1,"lat":37.20000076293945},{"zip":"meetup102","country":"kr","localized_country_name":"Korea (South)","distance":5697.186832100833,"city":"Okchon","lon":127.56999969482422,"ranking":83,"id":1024911,"member_count":1,"lat":36.29999923706055},{"zip":"meetup105","country":"kr","localized_country_name":"Korea (South)","distance":5625.209670027264,"city":"Naeso","lon":128.5,"ranking":84,"id":1024914,"member_count":1,"lat":35.2599983215332},{"zip":"meetup112","country":"kr","localized_country_name":"Korea (South)","distance":5748.5500013729115,"city":"Tangjin","lon":126.62999725341797,"ranking":85,"id":1024921,"member_count":1,"lat":36.900001525878906},{"zip":"meetup121","country":"kr","localized_country_name":"Korea (South)","distance":5690.110800331455,"city":"Kumsan","lon":127.48999786376953,"ranking":86,"id":1024930,"member_count":1,"lat":36.099998474121094},{"zip":"meetup122","country":"kr","localized_country_name":"Korea (South)","distance":5685.830420531478,"city":"Yongdong","lon":127.77999877929688,"ranking":87,"id":1024931,"member_count":1,"lat":36.16999816894531},{"zip":"meetup125","country":"kr","localized_country_name":"Korea (South)","distance":5726.648110718906,"city":"Chincheon","lon":127.41999816894531,"ranking":88,"id":1024934,"member_count":1,"lat":36.86000061035156},{"zip":"meetup131","country":"kr","localized_country_name":"Korea (South)","distance":5675.972166016833,"city":"Seonsan","lon":128.30999755859375,"ranking":89,"id":1024940,"member_count":1,"lat":36.25},{"zip":"meetup43","country":"kr","localized_country_name":"Korea (South)","distance":5723.8461056553415,"city":"Poryong","lon":126.61000061035156,"ranking":90,"id":1024852,"member_count":0,"lat":36.34000015258789},{"zip":"meetup47","country":"kr","localized_country_name":"Korea (South)","distance":5714.131061860508,"city":"Tonghae","lon":129.1199951171875,"ranking":91,"id":1024856,"member_count":0,"lat":37.4900016784668},{"zip":"meetup51","country":"kr","localized_country_name":"Korea (South)","distance":5763.045183889662,"city":"Kwacheon","lon":126.98999786376953,"ranking":92,"id":1024860,"member_count":0,"lat":37.41999816894531},{"zip":"meetup56","country":"kr","localized_country_name":"Korea (South)","distance":5763.199694227302,"city":"Seokcho","lon":128.5500030517578,"ranking":93,"id":1024865,"member_count":0,"lat":38.2400016784668},{"zip":"meetup58","country":"kr","localized_country_name":"Korea (South)","distance":5624.6289544593865,"city":"Yeocheon","lon":127.66000366210938,"ranking":94,"id":1024867,"member_count":0,"lat":34.7599983215332},{"zip":"meetup59","country":"kr","localized_country_name":"Korea (South)","distance":5683.192368741618,"city":"Chongup","lon":126.83999633789062,"ranking":95,"id":1024868,"member_count":0,"lat":35.56999969482422},{"zip":"meetup64","country":"kr","localized_country_name":"Korea (South)","distance":5715.601362579495,"city":"Kongju","lon":127.12000274658203,"ranking":96,"id":1024873,"member_count":0,"lat":36.45000076293945},{"zip":"meetup70","country":"kr","localized_country_name":"Korea (South)","distance":5661.423396182116,"city":"Namwon","lon":127.37000274658203,"ranking":97,"id":1024879,"member_count":0,"lat":35.400001525878906},{"zip":"meetup74","country":"kr","localized_country_name":"Korea (South)","distance":5687.91105210079,"city":"Sangju","lon":128.14999389648438,"ranking":98,"id":1024883,"member_count":0,"lat":36.41999816894531},{"zip":"meetup76","country":"kr","localized_country_name":"Korea (South)","distance":5614.794592434375,"city":"Ungsang","lon":129.1699981689453,"ranking":99,"id":1024885,"member_count":0,"lat":35.40999984741211},{"zip":"meetup77","country":"kr","localized_country_name":"Korea (South)","distance":5703.745172129063,"city":"Mungyong","lon":128.11000061035156,"ranking":100,"id":1024886,"member_count":0,"lat":36.7400016784668},{"zip":"meetup79","country":"kr","localized_country_name":"Korea (South)","distance":5692.2080461497435,"city":"Kimje","lon":126.88999938964844,"ranking":101,"id":1024888,"member_count":0,"lat":35.79999923706055},{"zip":"meetup82","country":"kr","localized_country_name":"Korea (South)","distance":5604.20735971258,"city":"Sinhyeon","lon":128.6300048828125,"ranking":102,"id":1024891,"member_count":0,"lat":34.880001068115234},{"zip":"meetup84","country":"kr","localized_country_name":"Korea (South)","distance":5619.793575536908,"city":"Nongso","lon":129.36000061035156,"ranking":103,"id":1024893,"member_count":0,"lat":35.619998931884766},{"zip":"meetup85","country":"kr","localized_country_name":"Korea (South)","distance":12341.796479597713,"city":"Kumchon","lon":0,"ranking":104,"id":1024894,"member_count":0,"lat":0},{"zip":"meetup86","country":"kr","localized_country_name":"Korea (South)","distance":5711.271563732832,"city":"Samchok","lon":129.16000366210938,"ranking":105,"id":1024895,"member_count":0,"lat":37.45000076293945},{"zip":"meetup87","country":"kr","localized_country_name":"Korea (South)","distance":5733.6803170979,"city":"Yesan","lon":126.83999633789062,"ranking":106,"id":1024896,"member_count":0,"lat":36.689998626708984},{"zip":"meetup88","country":"kr","localized_country_name":"Korea (South)","distance":5660.238420820166,"city":"Kochang","lon":127.9000015258789,"ranking":107,"id":1024897,"member_count":0,"lat":35.68000030517578},{"zip":"meetup89","country":"kr","localized_country_name":"Korea (South)","distance":5744.419052236601,"city":"Pubal","lon":127.4800033569336,"ranking":108,"id":1024898,"member_count":0,"lat":37.279998779296875},{"zip":"meetup92","country":"kr","localized_country_name":"Korea (South)","distance":5734.2495005511355,"city":"Hongseong","lon":126.66000366210938,"ranking":109,"id":1024901,"member_count":0,"lat":36.599998474121094},{"zip":"meetup93","country":"kr","localized_country_name":"Korea (South)","distance":12341.796479597713,"city":"Kwangyang Up","lon":0,"ranking":110,"id":1024902,"member_count":0,"lat":0},{"zip":"meetup95","country":"kr","localized_country_name":"Korea (South)","distance":5634.56466660056,"city":"Ochon","lon":129.41000366210938,"ranking":111,"id":1024904,"member_count":0,"lat":35.959999084472656},{"zip":"meetup96","country":"kr","localized_country_name":"Korea (South)","distance":5642.936887121653,"city":"Heunghae","lon":129.33999633789062,"ranking":112,"id":1024905,"member_count":0,"lat":36.099998474121094},{"zip":"meetup97","country":"kr","localized_country_name":"Korea (South)","distance":5650.541187109299,"city":"Hwawon","lon":128.47000122070312,"ranking":113,"id":1024906,"member_count":0,"lat":35.790000915527344},{"zip":"meetup99","country":"kr","localized_country_name":"Korea (South)","distance":5766.130910408301,"city":"Hwado","lon":127.29000091552734,"ranking":114,"id":1024908,"member_count":0,"lat":37.650001525878906},{"zip":"meetup103","country":"kr","localized_country_name":"Korea (South)","distance":5764.646423065538,"city":"Wabu","lon":127.22000122070312,"ranking":115,"id":1024912,"member_count":0,"lat":37.58000183105469},{"zip":"meetup104","country":"kr","localized_country_name":"Korea (South)","distance":12341.796479597713,"city":"Chinjop","lon":0,"ranking":116,"id":1024913,"member_count":0,"lat":0},{"zip":"meetup106","country":"kr","localized_country_name":"Korea (South)","distance":5714.045241936362,"city":"Puyeo","lon":126.9000015258789,"ranking":117,"id":1024915,"member_count":0,"lat":36.290000915527344},{"zip":"meetup108","country":"kr","localized_country_name":"Korea (South)","distance":5605.065653168442,"city":"Kijang","lon":129.22000122070312,"ranking":118,"id":1024917,"member_count":0,"lat":35.22999954223633},{"zip":"meetup110","country":"kr","localized_country_name":"Korea (South)","distance":5647.162822989607,"city":"Hayang","lon":128.82000732421875,"ranking":119,"id":1024919,"member_count":0,"lat":35.90999984741211},{"zip":"meetup111","country":"kr","localized_country_name":"Korea (South)","distance":5753.276059102994,"city":"Hongcheon","lon":127.88999938964844,"ranking":120,"id":1024920,"member_count":0,"lat":37.689998626708984},{"zip":"meetup114","country":"kr","localized_country_name":"Korea (South)","distance":5621.318028537411,"city":"Chinyeong","lon":128.72000122070312,"ranking":121,"id":1024923,"member_count":0,"lat":35.29999923706055},{"zip":"meetup115","country":"kr","localized_country_name":"Korea (South)","distance":12341.796479597713,"city":"Chongok","lon":0,"ranking":122,"id":1024924,"member_count":0,"lat":0},{"zip":"meetup120","country":"kr","localized_country_name":"Korea (South)","distance":5715.0612745771,"city":"Yeongweol","lon":128.47999572753906,"ranking":123,"id":1024929,"member_count":0,"lat":37.18000030517578},{"zip":"meetup123","country":"kr","localized_country_name":"Korea (South)","distance":5701.150616331561,"city":"Yonmu","lon":127.0999984741211,"ranking":124,"id":1024932,"member_count":0,"lat":36.119998931884766},{"zip":"meetup124","country":"kr","localized_country_name":"Korea (South)","distance":5645.0445733591705,"city":"Haenam","lon":126.5999984741211,"ranking":125,"id":1024933,"member_count":0,"lat":34.56999969482422},{"zip":"meetup126","country":"kr","localized_country_name":"Korea (South)","distance":5755.726892955613,"city":"Taesan","lon":126.41999816894531,"ranking":126,"id":1024935,"member_count":0,"lat":36.939998626708984},{"zip":"meetup127","country":"kr","localized_country_name":"Korea (South)","distance":5637.492316606273,"city":"Yeonil","lon":129.35000610351562,"ranking":127,"id":1024936,"member_count":0,"lat":35.9900016784668},{"zip":"meetup129","country":"kr","localized_country_name":"Korea (South)","distance":5691.044317914606,"city":"Yechon","lon":128.4499969482422,"ranking":128,"id":1024938,"member_count":0,"lat":36.650001525878906},{"zip":"meetup132","country":"kr","localized_country_name":"Korea (South)","distance":5625.050727624501,"city":"Oedong","lon":129.32000732421875,"ranking":129,"id":1024941,"member_count":0,"lat":35.709999084472656},{"zip":"meetup134","country":"kr","localized_country_name":"Korea (South)","distance":5636.899102575714,"city":"Peolgyo","lon":127.33999633789062,"ranking":130,"id":1024943,"member_count":0,"lat":34.84000015258789},{"zip":"meetup135","country":"kr","localized_country_name":"Korea (South)","distance":5678.634491335284,"city":"Yonggwang","lon":126.51000213623047,"ranking":131,"id":1024944,"member_count":0,"lat":35.27000045776367},{"zip":"meetup136","country":"kr","localized_country_name":"Korea (South)","distance":5704.356578632205,"city":"Daejeon","lon":127.37999725341797,"ranking":132,"id":1109182,"member_count":0,"lat":36.349998474121094},{"zip":"meetup137","country":"kr","localized_country_name":"Korea (South)","distance":5686.258538516669,"city":"Jeonju-si","lon":127.1500015258789,"ranking":133,"id":1110985,"member_count":0,"lat":35.81999969482422}],"meta":{"next":"","method":"Cities","total_count":134,"link":"http:\/\/api.meetup.com\/2\/cities","count":134,"description":"Returns Meetup cities. This method supports search by latitude\/longitude\/radius, by country\/state, by query term\/zip, or a combination of all of these. Location-only searches by lat and lon return all cities within a radius of the provided coordinates. Searches with a query return up to 10 cities matching the term, and can be sorted by size or distance to a given coordinate. 'smart' ordering can be used to return the match(es) with the highest member_count, unless a smaller size match exists nearby the given coordinates. Query searches are supported for country but not country and state","lon":"None","title":"Cities","url":"http:\/\/api.meetup.com\/2\/cities?country=kr&offset=0&sign=True&format=json&photo-host=public&page=200&radius=50&order=size&desc=false","id":"","updated":1460994838000,"lat":"None"}}
