{"results":[{"zip":"meetup19","country":"kw","localized_country_name":"Kuwait","distance":8902.842710937697,"city":"al-Kuwayt","lon":47.970001220703125,"ranking":0,"id":1024963,"member_count":178,"lat":29.329999923706055},{"zip":"meetup1","country":"kw","localized_country_name":"Kuwait","distance":8898.191167096174,"city":"as-Salimiyah","lon":48.060001373291016,"ranking":1,"id":1024945,"member_count":169,"lat":29.329999923706055},{"zip":"meetup3","country":"kw","localized_country_name":"Kuwait","distance":8901.75058819983,"city":"Hawalli","lon":47.97999954223633,"ranking":2,"id":1024947,"member_count":78,"lat":29.350000381469727},{"zip":"meetup18","country":"kw","localized_country_name":"Kuwait","distance":8903.47541319221,"city":"Abraq Khitan","lon":47.97999954223633,"ranking":3,"id":1024962,"member_count":68,"lat":29.290000915527344},{"zip":"meetup14","country":"kw","localized_country_name":"Kuwait","distance":8898.59000874825,"city":"Salwa'","lon":48.08000183105469,"ranking":4,"id":1024958,"member_count":46,"lat":29.280000686645508},{"zip":"meetup16","country":"kw","localized_country_name":"Kuwait","distance":8900.832739012674,"city":"al-Jabiriyah","lon":48.02000045776367,"ranking":5,"id":1024960,"member_count":39,"lat":29.309999465942383},{"zip":"meetup8","country":"kw","localized_country_name":"Kuwait","distance":8907.671558978933,"city":"al-Farwaniyah","lon":47.90999984741211,"ranking":6,"id":1024952,"member_count":37,"lat":29.270000457763672},{"zip":"meetup26","country":"kw","localized_country_name":"Kuwait","distance":8904.58097955823,"city":"al-Ahmadi","lon":48.08000183105469,"ranking":7,"id":1024970,"member_count":27,"lat":29.06999969482422},{"zip":"meetup25","country":"kw","localized_country_name":"Kuwait","distance":8901.134256800702,"city":"al-Manqaf","lon":48.130001068115234,"ranking":8,"id":1024969,"member_count":25,"lat":29.100000381469727},{"zip":"meetup35","country":"kw","localized_country_name":"Kuwait","distance":8900.230646041722,"city":"al-Mahbulah","lon":48.119998931884766,"ranking":9,"id":1024979,"member_count":25,"lat":29.149999618530273},{"zip":"meetup33","country":"kw","localized_country_name":"Kuwait","distance":8899.376065119846,"city":"al-Fintas","lon":48.119998931884766,"ranking":10,"id":1024977,"member_count":24,"lat":29.18000030517578},{"zip":"meetup20","country":"kw","localized_country_name":"Kuwait","distance":8897.96123460693,"city":"ar-Rumaythiyah","lon":48.06999969482422,"ranking":11,"id":1024964,"member_count":22,"lat":29.31999969482422},{"zip":"meetup21","country":"kw","localized_country_name":"Kuwait","distance":8900.602748357021,"city":"Bayan","lon":48.029998779296875,"ranking":12,"id":1024965,"member_count":22,"lat":29.299999237060547},{"zip":"meetup32","country":"kw","localized_country_name":"Kuwait","distance":8902.038298849599,"city":"Kayfan","lon":47.97999954223633,"ranking":13,"id":1024976,"member_count":20,"lat":29.34000015258789},{"zip":"meetup2","country":"kw","localized_country_name":"Kuwait","distance":8906.119297238063,"city":"Jalib ash-Shuyuh","lon":47.939998626708984,"ranking":14,"id":1024946,"member_count":17,"lat":29.270000457763672},{"zip":"meetup31","country":"kw","localized_country_name":"Kuwait","distance":8902.038298849599,"city":"ar-Rawdah","lon":47.97999954223633,"ranking":15,"id":1024975,"member_count":14,"lat":29.34000015258789},{"zip":"meetup28","country":"kw","localized_country_name":"Kuwait","distance":8900.515320055958,"city":"Abu Hulayfah","lon":48.119998931884766,"ranking":16,"id":1024972,"member_count":10,"lat":29.139999389648438},{"zip":"meetup36","country":"kw","localized_country_name":"Kuwait","distance":8902.038298849599,"city":"al-Fayha","lon":47.97999954223633,"ranking":17,"id":1024980,"member_count":10,"lat":29.34000015258789},{"zip":"meetup13","country":"kw","localized_country_name":"Kuwait","distance":8901.134256800702,"city":"al-Fuhayhil","lon":48.130001068115234,"ranking":18,"id":1024957,"member_count":9,"lat":29.100000381469727},{"zip":"meetup34","country":"kw","localized_country_name":"Kuwait","distance":8901.406598014617,"city":"Janub-as-Surrah","lon":48.02000045776367,"ranking":19,"id":1024978,"member_count":9,"lat":29.290000915527344},{"zip":"meetup6","country":"kw","localized_country_name":"Kuwait","distance":8900.197117383348,"city":"Subbah-as-Salim","lon":48.060001373291016,"ranking":20,"id":1024950,"member_count":7,"lat":29.260000228881836},{"zip":"meetup30","country":"kw","localized_country_name":"Kuwait","distance":8916.739616712679,"city":"al-Jahra","lon":47.689998626708984,"ranking":21,"id":1024974,"member_count":7,"lat":29.350000381469727},{"zip":"meetup39","country":"kw","localized_country_name":"Kuwait","distance":8902.325917316624,"city":"ad-Da´iyah","lon":47.97999954223633,"ranking":22,"id":1024983,"member_count":5,"lat":29.329999923706055},{"zip":"meetup43","country":"kw","localized_country_name":"Kuwait","distance":8904.910387310994,"city":"ash-Shuwaykh Reservoir","lon":47.93000030517578,"ranking":23,"id":1024987,"member_count":5,"lat":29.329999923706055},{"zip":"meetup15","country":"kw","localized_country_name":"Kuwait","distance":8908.648005995028,"city":"Ardiyah","lon":47.880001068115234,"ranking":24,"id":1024959,"member_count":4,"lat":29.290000915527344},{"zip":"meetup23","country":"kw","localized_country_name":"Kuwait","distance":12341.796479597713,"city":"Dahar","lon":0,"ranking":25,"id":1024967,"member_count":4,"lat":0},{"zip":"meetup12","country":"kw","localized_country_name":"Kuwait","distance":12341.796479597713,"city":"al-Qusayr","lon":0,"ranking":26,"id":1024956,"member_count":3,"lat":0},{"zip":"meetup37","country":"kw","localized_country_name":"Kuwait","distance":8900.141816166491,"city":"ad-Dasma'","lon":48,"ranking":27,"id":1024981,"member_count":3,"lat":29.3700008392334},{"zip":"meetup41","country":"kw","localized_country_name":"Kuwait","distance":8904.10559353372,"city":"ash-Shuwaykh Industrial","lon":47.939998626708984,"ranking":28,"id":1024985,"member_count":3,"lat":29.34000015258789},{"zip":"meetup5","country":"kw","localized_country_name":"Kuwait","distance":8901.602750252123,"city":"as-Sabahiyah","lon":48.11000061035156,"ranking":29,"id":1024949,"member_count":2,"lat":29.1200008392334},{"zip":"meetup10","country":"kw","localized_country_name":"Kuwait","distance":12341.796479597713,"city":"Tayma´","lon":0,"ranking":30,"id":1024954,"member_count":2,"lat":0},{"zip":"meetup17","country":"kw","localized_country_name":"Kuwait","distance":8900.74880956538,"city":"ar-Riqqah","lon":48.11000061035156,"ranking":31,"id":1024961,"member_count":2,"lat":29.149999618530273},{"zip":"meetup29","country":"kw","localized_country_name":"Kuwait","distance":8908.300681554396,"city":"as-Sulaybihat","lon":47.869998931884766,"ranking":32,"id":1024973,"member_count":2,"lat":29.31999969482422},{"zip":"meetup38","country":"kw","localized_country_name":"Kuwait","distance":8904.22252188056,"city":"al-´Udayliyah","lon":47.959999084472656,"ranking":33,"id":1024982,"member_count":2,"lat":29.299999237060547},{"zip":"meetup40","country":"kw","localized_country_name":"Kuwait","distance":8925.120686390384,"city":"al-Wafrah","lon":47.93000030517578,"ranking":34,"id":1024984,"member_count":2,"lat":28.6200008392334},{"zip":"meetup4","country":"kw","localized_country_name":"Kuwait","distance":8905.888991351681,"city":"Khitan-al-Janubiyah","lon":47.95000076293945,"ranking":35,"id":1024948,"member_count":1,"lat":29.260000228881836},{"zip":"meetup7","country":"kw","localized_country_name":"Kuwait","distance":12341.796479597713,"city":"as-Sulaybiyah","lon":0,"ranking":36,"id":1024951,"member_count":1,"lat":0},{"zip":"meetup22","country":"kw","localized_country_name":"Kuwait","distance":12341.796479597713,"city":"Waha","lon":0,"ranking":37,"id":1024966,"member_count":1,"lat":0},{"zip":"meetup27","country":"kw","localized_country_name":"Kuwait","distance":8901.73326022663,"city":"Jabbar-al-´Ali","lon":48.08000183105469,"ranking":38,"id":1024971,"member_count":1,"lat":29.170000076293945},{"zip":"meetup42","country":"kw","localized_country_name":"Kuwait","distance":8883.683737586676,"city":"az-Zawr","lon":48.279998779296875,"ranking":39,"id":1024986,"member_count":1,"lat":29.440000534057617},{"zip":"meetup45","country":"kw","localized_country_name":"Kuwait","distance":8898.699465309695,"city":"al-Funaytis","lon":48.099998474121094,"ranking":40,"id":1024989,"member_count":1,"lat":29.239999771118164},{"zip":"meetup9","country":"kw","localized_country_name":"Kuwait","distance":12341.796479597713,"city":"al-Karim","lon":0,"ranking":41,"id":1024953,"member_count":0,"lat":0},{"zip":"meetup11","country":"kw","localized_country_name":"Kuwait","distance":12341.796479597713,"city":"Fardaws","lon":0,"ranking":42,"id":1024955,"member_count":0,"lat":0},{"zip":"meetup24","country":"kw","localized_country_name":"Kuwait","distance":8907.61336206827,"city":"ar-Rabbiyah","lon":47.900001525878906,"ranking":43,"id":1024968,"member_count":0,"lat":29.290000915527344},{"zip":"meetup44","country":"kw","localized_country_name":"Kuwait","distance":8901.055446747216,"city":"al-Funaytis-al-Garbiyah","lon":48.060001373291016,"ranking":44,"id":1024988,"member_count":0,"lat":29.229999542236328}],"meta":{"next":"","method":"Cities","total_count":45,"link":"http:\/\/api.meetup.com\/2\/cities","count":45,"description":"Returns Meetup cities. This method supports search by latitude\/longitude\/radius, by country\/state, by query term\/zip, or a combination of all of these. Location-only searches by lat and lon return all cities within a radius of the provided coordinates. Searches with a query return up to 10 cities matching the term, and can be sorted by size or distance to a given coordinate. 'smart' ordering can be used to return the match(es) with the highest member_count, unless a smaller size match exists nearby the given coordinates. Query searches are supported for country but not country and state","lon":"None","title":"Cities","url":"http:\/\/api.meetup.com\/2\/cities?country=kw&offset=0&sign=True&format=json&photo-host=public&page=200&radius=50&order=size&desc=false","id":"","updated":1251864867000,"lat":"None"}}
