{"results":[{"zip":"meetup1","country":"kz","localized_country_name":"Kazakhstan","distance":7408.583132142512,"city":"Almaty","lon":76.91999816894531,"ranking":0,"id":1024993,"member_count":46,"lat":43.31999969482422},{"zip":"meetup46","country":"kz","localized_country_name":"Kazakhstan","distance":7517.661770741656,"city":"Abay","lon":72.86000061035156,"ranking":1,"id":1025038,"member_count":14,"lat":49.650001525878906},{"zip":"meetup2","country":"kz","localized_country_name":"Kazakhstan","distance":7509.202642907482,"city":"Karaganda","lon":73.16000366210938,"ranking":2,"id":1024994,"member_count":5,"lat":49.880001068115234},{"zip":"meetup6","country":"kz","localized_country_name":"Kazakhstan","distance":7551.525508760135,"city":"Astana","lon":71.47000122070312,"ranking":3,"id":1024998,"member_count":5,"lat":51.16999816894531},{"zip":"meetup5","country":"kz","localized_country_name":"Kazakhstan","distance":7418.638285187295,"city":"Pavlodar","lon":76.94999694824219,"ranking":4,"id":1024997,"member_count":3,"lat":52.29999923706055},{"zip":"meetup88","country":"kz","localized_country_name":"Kazakhstan","distance":8051.481253863519,"city":"Aksay","lon":53,"ranking":5,"id":1025080,"member_count":2,"lat":51.18000030517578},{"zip":"meetup3","country":"kz","localized_country_name":"Kazakhstan","distance":7668.5559714853935,"city":"Simkent","lon":69.58999633789062,"ranking":6,"id":1024995,"member_count":2,"lat":42.31999969482422},{"zip":"meetup4","country":"kz","localized_country_name":"Kazakhstan","distance":7600.181179118892,"city":"Taraz","lon":71.37000274658203,"ranking":7,"id":1024996,"member_count":2,"lat":42.900001525878906},{"zip":"meetup7","country":"kz","localized_country_name":"Kazakhstan","distance":7264.2296720737695,"city":"Öskemen","lon":82.61000061035156,"ranking":8,"id":1024999,"member_count":2,"lat":49.970001220703125},{"zip":"meetup8","country":"kz","localized_country_name":"Kazakhstan","distance":7326.502393005372,"city":"Semey","lon":80.2699966430664,"ranking":9,"id":1025000,"member_count":2,"lat":50.43000030517578},{"zip":"meetup13","country":"kz","localized_country_name":"Kazakhstan","distance":7514.300131595146,"city":"Temirtau","lon":72.95999908447266,"ranking":10,"id":1025005,"member_count":2,"lat":50.06999969482422},{"zip":"meetup15","country":"kz","localized_country_name":"Kazakhstan","distance":7511.673654358496,"city":"Aktau","lon":73.05000305175781,"ranking":11,"id":1025007,"member_count":2,"lat":50.27000045776367},{"zip":"meetup16","country":"kz","localized_country_name":"Kazakhstan","distance":8188.8618713924525,"city":"Atirau","lon":51.880001068115234,"ranking":12,"id":1025008,"member_count":2,"lat":47.119998931884766},{"zip":"meetup56","country":"kz","localized_country_name":"Kazakhstan","distance":7914.274376208803,"city":"Hromtau","lon":58.45000076293945,"ranking":13,"id":1025048,"member_count":1,"lat":50.27000045776367},{"zip":"meetup65","country":"kz","localized_country_name":"Kazakhstan","distance":7720.317076910891,"city":"Kusmurin","lon":64.5999984741211,"ranking":14,"id":1025057,"member_count":1,"lat":52.459999084472656},{"zip":"meetup72","country":"kz","localized_country_name":"Kazakhstan","distance":7523.93494379493,"city":"Osakarovka","lon":72.56999969482422,"ranking":15,"id":1025064,"member_count":1,"lat":50.58000183105469},{"zip":"meetup78","country":"kz","localized_country_name":"Kazakhstan","distance":7256.9157782447155,"city":"Makansi","lon":82.01000213623047,"ranking":16,"id":1025070,"member_count":1,"lat":46.790000915527344},{"zip":"meetup84","country":"kz","localized_country_name":"Kazakhstan","distance":7721.355345927868,"city":"Borovskoy","lon":64.1500015258789,"ranking":17,"id":1025076,"member_count":1,"lat":53.79999923706055},{"zip":"meetup86","country":"kz","localized_country_name":"Kazakhstan","distance":7484.049205325664,"city":"Georgiyev","lon":74.70999908447266,"ranking":18,"id":1025078,"member_count":1,"lat":43.04999923706055},{"zip":"meetup12","country":"kz","localized_country_name":"Kazakhstan","distance":8113.03529259501,"city":"Batis Kazakstan","lon":51,"ranking":19,"id":1025004,"member_count":1,"lat":51},{"zip":"meetup30","country":"kz","localized_country_name":"Kazakhstan","distance":7677.391905767535,"city":"Arkalik","lon":66.9000015258789,"ranking":20,"id":1025022,"member_count":1,"lat":50.25},{"zip":"meetup32","country":"kz","localized_country_name":"Kazakhstan","distance":7539.874020233161,"city":"Stepnogorsk","lon":71.88999938964844,"ranking":21,"id":1025024,"member_count":0,"lat":52.349998474121094},{"zip":"meetup33","country":"kz","localized_country_name":"Kazakhstan","distance":7651.001942852019,"city":"Canatas","lon":69.7300033569336,"ranking":22,"id":1025025,"member_count":0,"lat":43.560001373291016},{"zip":"meetup34","country":"kz","localized_country_name":"Kazakhstan","distance":7220.765161153186,"city":"Ziryan","lon":84.26000213623047,"ranking":23,"id":1025026,"member_count":0,"lat":49.75},{"zip":"meetup35","country":"kz","localized_country_name":"Kazakhstan","distance":7516.078722254813,"city":"Saran","lon":72.91000366210938,"ranking":24,"id":1025027,"member_count":0,"lat":49.779998779296875},{"zip":"meetup36","country":"kz","localized_country_name":"Kazakhstan","distance":7538.177777239549,"city":"Aksu","lon":71.95999908447266,"ranking":25,"id":1025028,"member_count":0,"lat":52.45000076293945},{"zip":"meetup37","country":"kz","localized_country_name":"Kazakhstan","distance":7522.196224553,"city":"Sahti","lon":72.69000244140625,"ranking":26,"id":1025029,"member_count":0,"lat":49.689998626708984},{"zip":"meetup38","country":"kz","localized_country_name":"Kazakhstan","distance":7417.80488523894,"city":"Ermak","lon":76.93000030517578,"ranking":27,"id":1025030,"member_count":0,"lat":52.04999923706055},{"zip":"meetup39","country":"kz","localized_country_name":"Kazakhstan","distance":7769.422510874476,"city":"Lisakovsk","lon":62.61000061035156,"ranking":28,"id":1025031,"member_count":0,"lat":52.61000061035156},{"zip":"meetup40","country":"kz","localized_country_name":"Kazakhstan","distance":7695.530721766781,"city":"Aris","lon":68.80000305175781,"ranking":29,"id":1025032,"member_count":0,"lat":42.439998626708984},{"zip":"meetup41","country":"kz","localized_country_name":"Kazakhstan","distance":7402.590993178202,"city":"Kapsagay","lon":77.06999969482422,"ranking":30,"id":1025033,"member_count":0,"lat":43.880001068115234},{"zip":"meetup42","country":"kz","localized_country_name":"Kazakhstan","distance":7876.271636928358,"city":"Aral","lon":61.65999984741211,"ranking":31,"id":1025034,"member_count":0,"lat":46.810001373291016},{"zip":"meetup43","country":"kz","localized_country_name":"Kazakhstan","distance":7345.183349756086,"city":"Tekeli","lon":78.8499984741211,"ranking":32,"id":1025035,"member_count":0,"lat":44.810001373291016},{"zip":"meetup44","country":"kz","localized_country_name":"Kazakhstan","distance":7923.000694852586,"city":"Salkar","lon":59.619998931884766,"ranking":33,"id":1025036,"member_count":0,"lat":47.83000183105469},{"zip":"meetup45","country":"kz","localized_country_name":"Kazakhstan","distance":7876.319417182333,"city":"Canakazali","lon":62.150001525878906,"ranking":34,"id":1025037,"member_count":0,"lat":45.86000061035156},{"zip":"meetup47","country":"kz","localized_country_name":"Kazakhstan","distance":7629.3812450216055,"city":"Karatau","lon":70.45999908447266,"ranking":35,"id":1025039,"member_count":0,"lat":43.18000030517578},{"zip":"meetup48","country":"kz","localized_country_name":"Kazakhstan","distance":7372.914853356261,"city":"Üstöbe","lon":77.97000122070312,"ranking":36,"id":1025040,"member_count":0,"lat":45.2599983215332},{"zip":"meetup49","country":"kz","localized_country_name":"Kazakhstan","distance":7629.198998103694,"city":"Atbasar","lon":68.3499984741211,"ranking":37,"id":1025041,"member_count":0,"lat":51.81999969482422},{"zip":"meetup50","country":"kz","localized_country_name":"Kazakhstan","distance":7307.649806813831,"city":"Ayaköz","lon":80.43000030517578,"ranking":38,"id":1025042,"member_count":0,"lat":47.970001220703125},{"zip":"meetup51","country":"kz","localized_country_name":"Kazakhstan","distance":7678.69464894628,"city":"Esil","lon":66.37999725341797,"ranking":39,"id":1025043,"member_count":0,"lat":51.959999084472656},{"zip":"meetup52","country":"kz","localized_country_name":"Kazakhstan","distance":7958.91913656838,"city":"Kandagaç","lon":57.41999816894531,"ranking":40,"id":1025044,"member_count":0,"lat":49.47999954223633},{"zip":"meetup53","country":"kz","localized_country_name":"Kazakhstan","distance":7418.898610855967,"city":"Kaskelen","lon":76.62000274658203,"ranking":41,"id":1025045,"member_count":0,"lat":43.20000076293945},{"zip":"meetup54","country":"kz","localized_country_name":"Kazakhstan","distance":7514.155127727625,"city":"Chui","lon":73.73999786376953,"ranking":42,"id":1025046,"member_count":0,"lat":43.599998474121094},{"zip":"meetup55","country":"kz","localized_country_name":"Kazakhstan","distance":7397.928042828536,"city":"Talgar","lon":77.23999786376953,"ranking":43,"id":1025047,"member_count":0,"lat":43.310001373291016},{"zip":"meetup57","country":"kz","localized_country_name":"Kazakhstan","distance":7686.6882389436105,"city":"Derjavinsk","lon":66.30999755859375,"ranking":44,"id":1025049,"member_count":0,"lat":51.099998474121094},{"zip":"meetup58","country":"kz","localized_country_name":"Kazakhstan","distance":7553.9048185572365,"city":"Lugovoy","lon":72.69999694824219,"ranking":45,"id":1025050,"member_count":0,"lat":42.90999984741211},{"zip":"meetup59","country":"kz","localized_country_name":"Kazakhstan","distance":7769.276850421821,"city":"Tobol","lon":62.58000183105469,"ranking":46,"id":1025051,"member_count":0,"lat":52.70000076293945},{"zip":"meetup60","country":"kz","localized_country_name":"Kazakhstan","distance":7629.85626303006,"city":"Volodar","lon":68.08999633789062,"ranking":47,"id":1025052,"member_count":0,"lat":53.29999923706055},{"zip":"meetup61","country":"kz","localized_country_name":"Kazakhstan","distance":7772.24532512067,"city":"Komsomol","lon":62.04999923706055,"ranking":48,"id":1025053,"member_count":0,"lat":53.75},{"zip":"meetup62","country":"kz","localized_country_name":"Kazakhstan","distance":7458.666971247455,"city":"Ertis","lon":75.44999694824219,"ranking":49,"id":1025054,"member_count":0,"lat":53.34000015258789},{"zip":"meetup63","country":"kz","localized_country_name":"Kazakhstan","distance":7589.946476360827,"city":"Krasnoarmeets","lon":69.75,"ranking":50,"id":1025055,"member_count":0,"lat":53.849998474121094},{"zip":"meetup64","country":"kz","localized_country_name":"Kazakhstan","distance":7575.580537473658,"city":"Makin","lon":70.41000366210938,"ranking":51,"id":1025056,"member_count":0,"lat":52.63999938964844},{"zip":"meetup66","country":"kz","localized_country_name":"Kazakhstan","distance":7442.7639650809815,"city":"Kaçiri","lon":76.08999633789062,"ranking":52,"id":1025058,"member_count":0,"lat":53.08000183105469},{"zip":"meetup67","country":"kz","localized_country_name":"Kazakhstan","distance":7391.857446747774,"city":"Sarbakti","lon":78.1500015258789,"ranking":53,"id":1025059,"member_count":0,"lat":52.5},{"zip":"meetup68","country":"kz","localized_country_name":"Kazakhstan","distance":7443.023981947796,"city":"Maykain","lon":75.79000091552734,"ranking":54,"id":1025060,"member_count":0,"lat":51.470001220703125},{"zip":"meetup69","country":"kz","localized_country_name":"Kazakhstan","distance":7691.2704243564185,"city":"Kirgili","lon":65.52999877929688,"ranking":55,"id":1025061,"member_count":0,"lat":53.31999969482422},{"zip":"meetup70","country":"kz","localized_country_name":"Kazakhstan","distance":7537.566610102669,"city":"Merke","lon":73.18000030517578,"ranking":56,"id":1025062,"member_count":0,"lat":42.869998931884766},{"zip":"meetup71","country":"kz","localized_country_name":"Kazakhstan","distance":7659.512577325177,"city":"Lener","lon":69.87999725341797,"ranking":57,"id":1025063,"member_count":0,"lat":42.189998626708984},{"zip":"meetup73","country":"kz","localized_country_name":"Kazakhstan","distance":7530.688909595808,"city":"Kiziltu","lon":72.33000183105469,"ranking":58,"id":1025065,"member_count":0,"lat":53.63999938964844},{"zip":"meetup74","country":"kz","localized_country_name":"Kazakhstan","distance":7658.380502941207,"city":"Belyy Vody","lon":69.83999633789062,"ranking":59,"id":1025066,"member_count":0,"lat":42.439998626708984},{"zip":"meetup75","country":"kz","localized_country_name":"Kazakhstan","distance":7224.963821670749,"city":"Kürsim","lon":83.6500015258789,"ranking":60,"id":1025067,"member_count":0,"lat":48.58000183105469},{"zip":"meetup76","country":"kz","localized_country_name":"Kazakhstan","distance":7411.566406256954,"city":"Boralday","lon":76.83000183105469,"ranking":61,"id":1025068,"member_count":0,"lat":43.33000183105469},{"zip":"meetup77","country":"kz","localized_country_name":"Kazakhstan","distance":7462.148096996616,"city":"Konrat","lon":74.98999786376953,"ranking":62,"id":1025069,"member_count":0,"lat":46.959999084472656},{"zip":"meetup79","country":"kz","localized_country_name":"Kazakhstan","distance":7757.727342793171,"city":"Födorov","lon":62.689998626708984,"ranking":63,"id":1025071,"member_count":0,"lat":53.63999938964844},{"zip":"meetup80","country":"kz","localized_country_name":"Kazakhstan","distance":7447.473695719381,"city":"Karkarali","lon":75.45999908447266,"ranking":64,"id":1025072,"member_count":0,"lat":49.41999816894531},{"zip":"meetup81","country":"kz","localized_country_name":"Kazakhstan","distance":7740.41260895726,"city":"Sardara","lon":67.95999908447266,"ranking":65,"id":1025073,"member_count":0,"lat":41.2599983215332},{"zip":"meetup82","country":"kz","localized_country_name":"Kazakhstan","distance":7993.940046978738,"city":"Subarkudik","lon":56.47999954223633,"ranking":66,"id":1025074,"member_count":0,"lat":49.13999938964844},{"zip":"meetup83","country":"kz","localized_country_name":"Kazakhstan","distance":7390.843209247401,"city":"Esik","lon":77.44999694824219,"ranking":67,"id":1025075,"member_count":0,"lat":43.369998931884766},{"zip":"meetup85","country":"kz","localized_country_name":"Kazakhstan","distance":7732.886424055808,"city":"Canakorgan","lon":67.23999786376953,"ranking":68,"id":1025077,"member_count":0,"lat":43.90999984741211},{"zip":"meetup87","country":"kz","localized_country_name":"Kazakhstan","distance":7482.098235169766,"city":"Gulsat","lon":74.3499984741211,"ranking":69,"id":1025079,"member_count":0,"lat":46.630001068115234},{"zip":"meetup89","country":"kz","localized_country_name":"Kazakhstan","distance":7924.408919220774,"city":"Alka","lon":58.31999969482422,"ranking":70,"id":1025081,"member_count":0,"lat":49.90999984741211},{"zip":"meetup90","country":"kz","localized_country_name":"Kazakhstan","distance":7679.849124847209,"city":"Açisay","lon":68.9000015258789,"ranking":71,"id":1025082,"member_count":0,"lat":43.540000915527344},{"zip":"meetup91","country":"kz","localized_country_name":"Kazakhstan","distance":7660.305424558543,"city":"Karabulak","lon":69.76000213623047,"ranking":72,"id":1025083,"member_count":0,"lat":42.529998779296875},{"zip":"meetup92","country":"kz","localized_country_name":"Kazakhstan","distance":7365.016098399915,"city":"Kirov","lon":78.22000122070312,"ranking":73,"id":1025084,"member_count":0,"lat":44.900001525878906},{"zip":"meetup93","country":"kz","localized_country_name":"Kazakhstan","distance":8127.203432462188,"city":"Makat","lon":53.33000183105469,"ranking":74,"id":1025085,"member_count":0,"lat":47.650001525878906},{"zip":"meetup94","country":"kz","localized_country_name":"Kazakhstan","distance":7644.263938682691,"city":"Sergeyevka","lon":67.4000015258789,"ranking":75,"id":1025086,"member_count":0,"lat":53.88999938964844},{"zip":"meetup95","country":"kz","localized_country_name":"Kazakhstan","distance":7737.01758345875,"city":"Zatobolsk","lon":63.689998626708984,"ranking":76,"id":1025087,"member_count":0,"lat":53.20000076293945},{"zip":"meetup97","country":"kz","localized_country_name":"Kazakhstan","distance":7273.937555268272,"city":"Glubokoe","lon":82.29000091552734,"ranking":77,"id":1025089,"member_count":0,"lat":50.15999984741211},{"zip":"meetup98","country":"kz","localized_country_name":"Kazakhstan","distance":7287.617938043423,"city":"Semonaiha","lon":81.91000366210938,"ranking":78,"id":1025090,"member_count":0,"lat":50.63999938964844},{"zip":"meetup99","country":"kz","localized_country_name":"Kazakhstan","distance":7429.2305630199235,"city":"Uzunagaç","lon":76.30999755859375,"ranking":79,"id":1025091,"member_count":0,"lat":43.22999954223633},{"zip":"meetup100","country":"kz","localized_country_name":"Kazakhstan","distance":7581.904886059289,"city":"Karacal","lon":70.80000305175781,"ranking":80,"id":1025092,"member_count":0,"lat":48.02000045776367},{"zip":"meetup101","country":"kz","localized_country_name":"Kazakhstan","distance":7308.6046174435505,"city":"Carkant","lon":79.9800033569336,"ranking":81,"id":1025093,"member_count":0,"lat":44.16999816894531},{"zip":"meetup102","country":"kz","localized_country_name":"Kazakhstan","distance":8282.345240140445,"city":"Cetibay","lon":52.08000183105469,"ranking":82,"id":1025094,"member_count":0,"lat":43.599998474121094},{"zip":"meetup103","country":"kz","localized_country_name":"Kazakhstan","distance":7747.1359811840275,"city":"Sieli","lon":66.7300033569336,"ranking":83,"id":1025095,"member_count":0,"lat":44.16999816894531},{"zip":"meetup105","country":"kz","localized_country_name":"Kazakhstan","distance":7949.342481645535,"city":"Èmbi","lon":58.150001525878906,"ranking":84,"id":1025097,"member_count":0,"lat":48.84000015258789},{"zip":"meetup106","country":"kz","localized_country_name":"Kazakhstan","distance":7616.972539933712,"city":"Mamlyutka","lon":68.5199966430664,"ranking":85,"id":1025098,"member_count":0,"lat":54.939998626708984},{"zip":"meetup107","country":"kz","localized_country_name":"Kazakhstan","distance":7373.285007612693,"city":"Sariözek","lon":77.95999908447266,"ranking":86,"id":1025099,"member_count":0,"lat":44.369998931884766},{"zip":"meetup108","country":"kz","localized_country_name":"Kazakhstan","distance":7554.12600985853,"city":"Atasu","lon":71.6500015258789,"ranking":87,"id":1025100,"member_count":0,"lat":48.689998626708984},{"zip":"meetup109","country":"kz","localized_country_name":"Kazakhstan","distance":7574.988370506913,"city":"Bulaev","lon":70.44000244140625,"ranking":88,"id":1025101,"member_count":0,"lat":54.90999984741211},{"zip":"meetup110","country":"kz","localized_country_name":"Kazakhstan","distance":7241.3360796293555,"city":"Serebryansk","lon":83.41999816894531,"ranking":89,"id":1025102,"member_count":0,"lat":49.70000076293945},{"zip":"meetup111","country":"kz","localized_country_name":"Kazakhstan","distance":7563.491837826772,"city":"Alekseevka","lon":70.94000244140625,"ranking":90,"id":1025103,"member_count":0,"lat":52.0099983215332},{"zip":"meetup112","country":"kz","localized_country_name":"Kazakhstan","distance":7506.75424041512,"city":"Sarisagan","lon":73.5999984741211,"ranking":91,"id":1025104,"member_count":0,"lat":46.119998931884766},{"zip":"meetup113","country":"kz","localized_country_name":"Kazakhstan","distance":7182.43626898026,"city":"Zaysan","lon":84.86000061035156,"ranking":92,"id":1025105,"member_count":0,"lat":47.47999954223633},{"zip":"meetup114","country":"kz","localized_country_name":"Kazakhstan","distance":8122.289481038262,"city":"Külsari","lon":54.0099983215332,"ranking":93,"id":1025106,"member_count":0,"lat":46.970001220703125},{"zip":"meetup115","country":"kz","localized_country_name":"Kazakhstan","distance":8190.578236871019,"city":"Sumisker","lon":51.869998931884766,"ranking":94,"id":1025107,"member_count":0,"lat":47.06999969482422},{"zip":"meetup116","country":"kz","localized_country_name":"Kazakhstan","distance":7270.0558112591725,"city":"Ürcar","lon":81.61000061035156,"ranking":95,"id":1025108,"member_count":0,"lat":47.099998474121094},{"zip":"meetup117","country":"kz","localized_country_name":"Kazakhstan","distance":7521.078790632396,"city":"Aghadir","lon":72.86000061035156,"ranking":96,"id":1025109,"member_count":0,"lat":48.279998779296875},{"zip":"meetup118","country":"kz","localized_country_name":"Kazakhstan","distance":8309.770241598682,"city":"Kurik","lon":51.66999816894531,"ranking":97,"id":1025110,"member_count":0,"lat":43.189998626708984},{"zip":"meetup119","country":"kz","localized_country_name":"Kazakhstan","distance":7268.028166178837,"city":"Belousovka","lon":82.5199966430664,"ranking":98,"id":1025111,"member_count":0,"lat":50.13999938964844},{"zip":"meetup120","country":"kz","localized_country_name":"Kazakhstan","distance":7509.718383644564,"city":"Ereymentau","lon":73.11000061035156,"ranking":99,"id":1025112,"member_count":0,"lat":51.630001068115234},{"zip":"meetup121","country":"kz","localized_country_name":"Kazakhstan","distance":8154.792622024726,"city":"Inderbor","lon":51.72999954223633,"ranking":100,"id":1025113,"member_count":0,"lat":48.54999923706055},{"zip":"meetup122","country":"kz","localized_country_name":"Kazakhstan","distance":7534.550094504025,"city":"Oytal","lon":73.26000213623047,"ranking":101,"id":1025114,"member_count":0,"lat":42.90999984741211},{"zip":"meetup123","country":"kz","localized_country_name":"Kazakhstan","distance":7405.563337712372,"city":"Energetyçeskiy","lon":77,"ranking":102,"id":1025115,"member_count":0,"lat":43.5},{"zip":"meetup124","country":"kz","localized_country_name":"Kazakhstan","distance":7313.399578090302,"city":"Sarkand","lon":79.91000366210938,"ranking":103,"id":1025116,"member_count":0,"lat":45.41999816894531},{"zip":"meetup125","country":"kz","localized_country_name":"Kazakhstan","distance":7300.875101584976,"city":"Sar","lon":81.05000305175781,"ranking":104,"id":1025117,"member_count":0,"lat":49.599998474121094},{"zip":"meetup126","country":"kz","localized_country_name":"Kazakhstan","distance":7511.011468300125,"city":"Bestobe","lon":73.08999633789062,"ranking":105,"id":1025118,"member_count":0,"lat":52.5},{"zip":"meetup127","country":"kz","localized_country_name":"Kazakhstan","distance":7662.678537259988,"city":"Sayram","lon":69.76000213623047,"ranking":106,"id":1025119,"member_count":0,"lat":42.29999923706055},{"zip":"meetup128","country":"kz","localized_country_name":"Kazakhstan","distance":7248.248268598145,"city":"Ulba","lon":83.37000274658203,"ranking":107,"id":1025120,"member_count":0,"lat":50.27000045776367},{"zip":"meetup129","country":"kz","localized_country_name":"Kazakhstan","distance":7724.947803802761,"city":"Iliç","lon":68.51000213623047,"ranking":108,"id":1025121,"member_count":0,"lat":40.849998474121094},{"zip":"meetup130","country":"kz","localized_country_name":"Kazakhstan","distance":7817.7215100677,"city":"Cosali","lon":64.08999633789062,"ranking":109,"id":1025122,"member_count":0,"lat":45.5},{"zip":"meetup131","country":"kz","localized_country_name":"Kazakhstan","distance":7544.625867287204,"city":"Colimbet","lon":71.70999908447266,"ranking":110,"id":1025123,"member_count":0,"lat":51.75},{"zip":"meetup132","country":"kz","localized_country_name":"Kazakhstan","distance":7364.19951470065,"city":"Selek","lon":78.25,"ranking":111,"id":1025124,"member_count":0,"lat":43.599998474121094},{"zip":"meetup133","country":"kz","localized_country_name":"Kazakhstan","distance":8313.53152384378,"city":"Mangyslak","lon":51.20000076293945,"ranking":112,"id":1025125,"member_count":0,"lat":43.650001525878906},{"zip":"meetup134","country":"kz","localized_country_name":"Kazakhstan","distance":8264.124609991219,"city":"Setpe","lon":52.13999938964844,"ranking":113,"id":1025126,"member_count":0,"lat":44.150001525878906},{"zip":"meetup135","country":"kz","localized_country_name":"Kazakhstan","distance":7595.180177024076,"city":"Mihaylov","lon":71.48999786376953,"ranking":114,"id":1025127,"member_count":0,"lat":43},{"zip":"meetup136","country":"kz","localized_country_name":"Kazakhstan","distance":7514.174294179067,"city":"Oktos","lon":72.9800033569336,"ranking":115,"id":1025128,"member_count":0,"lat":49.790000915527344},{"zip":"meetup137","country":"kz","localized_country_name":"Kazakhstan","distance":8101.23550270802,"city":"Zaçagansk","lon":51.279998779296875,"ranking":116,"id":1025129,"member_count":0,"lat":51.150001525878906},{"zip":"meetup138","country":"kz","localized_country_name":"Kazakhstan","distance":7587.084225025693,"city":"Cayrem","lon":70.58000183105469,"ranking":117,"id":1025130,"member_count":0,"lat":48.2400016784668},{"zip":"meetup139","country":"kz","localized_country_name":"Kazakhstan","distance":7704.661061957174,"city":"Karsakbay","lon":66.72000122070312,"ranking":118,"id":1025131,"member_count":0,"lat":47.84000015258789},{"zip":"meetup140","country":"kz","localized_country_name":"Kazakhstan","distance":7521.323863788098,"city":"Novodolinskiy","lon":72.72000122070312,"ranking":119,"id":1025132,"member_count":0,"lat":49.720001220703125},{"zip":"meetup141","country":"kz","localized_country_name":"Kazakhstan","distance":7328.408105638466,"city":"Kurchatov","lon":80.18000030517578,"ranking":120,"id":1025133,"member_count":0,"lat":50.380001068115234},{"zip":"meetup142","country":"kz","localized_country_name":"Kazakhstan","distance":7592.028670491302,"city":"Caltir","lon":69.83999633789062,"ranking":121,"id":1025134,"member_count":0,"lat":51.630001068115234},{"zip":"meetup143","country":"kz","localized_country_name":"Kazakhstan","distance":7508.662882170032,"city":"Tokaryovka","lon":73.16999816894531,"ranking":122,"id":1025135,"member_count":0,"lat":50.11000061035156},{"zip":"meetup144","country":"kz","localized_country_name":"Kazakhstan","distance":7693.948762453914,"city":"Sariagas","lon":69.1500015258789,"ranking":123,"id":1025136,"member_count":0,"lat":41.459999084472656},{"zip":"meetup145","country":"kz","localized_country_name":"Kazakhstan","distance":7566.698193269567,"city":"Stepnyak","lon":70.7699966430664,"ranking":124,"id":1025137,"member_count":0,"lat":52.84000015258789},{"zip":"meetup146","country":"kz","localized_country_name":"Kazakhstan","distance":7426.706614140483,"city":"Fabrichniy","lon":76.38999938964844,"ranking":125,"id":1025138,"member_count":0,"lat":43.16999816894531},{"zip":"meetup147","country":"kz","localized_country_name":"Kazakhstan","distance":7779.50754513624,"city":"Tasböget","lon":65.54000091552734,"ranking":126,"id":1025139,"member_count":0,"lat":44.779998779296875},{"zip":"meetup148","country":"kz","localized_country_name":"Kazakhstan","distance":8123.623827109456,"city":"Beyneu","lon":55.189998626708984,"ranking":127,"id":1025140,"member_count":0,"lat":45.33000183105469},{"zip":"meetup149","country":"kz","localized_country_name":"Kazakhstan","distance":8129.660822499971,"city":"Çapaev","lon":51.13999938964844,"ranking":128,"id":1025141,"member_count":0,"lat":50.189998626708984},{"zip":"meetup150","country":"kz","localized_country_name":"Kazakhstan","distance":7731.583642789781,"city":"Cetisay","lon":68.3499984741211,"ranking":129,"id":1025142,"member_count":0,"lat":40.79999923706055},{"zip":"meetup152","country":"kz","localized_country_name":"Kazakhstan","distance":7878.8411075263875,"city":"Kazali","lon":62.119998931884766,"ranking":130,"id":1025144,"member_count":0,"lat":45.77000045776367},{"zip":"meetup153","country":"kz","localized_country_name":"Kazakhstan","distance":8141.674529491694,"city":"Dossor","lon":52.97999954223633,"ranking":131,"id":1025145,"member_count":0,"lat":47.529998779296875},{"zip":"meetup154","country":"kz","localized_country_name":"Kazakhstan","distance":8152.740026330648,"city":"Karaton","lon":53.5,"ranking":132,"id":1025146,"member_count":0,"lat":46.45000076293945},{"zip":"meetup155","country":"kz","localized_country_name":"Kazakhstan","distance":7914.183431159498,"city":"Batamsi","lon":58.27000045776367,"ranking":133,"id":1025147,"member_count":0,"lat":50.56999969482422},{"zip":"meetup156","country":"kz","localized_country_name":"Kazakhstan","distance":7983.942122458348,"city":"Sübarsi","lon":57.18000030517578,"ranking":134,"id":1025148,"member_count":0,"lat":48.59000015258789},{"zip":"meetup157","country":"kz","localized_country_name":"Kazakhstan","distance":8021.350040944632,"city":"Sinirlau","lon":54.11000061035156,"ranking":135,"id":1025149,"member_count":0,"lat":51.119998931884766},{"zip":"meetup158","country":"kz","localized_country_name":"Kazakhstan","distance":8126.329177437956,"city":"Oporni","lon":54.45000076293945,"ranking":136,"id":1025150,"member_count":0,"lat":46.22999954223633},{"zip":"meetup160","country":"kz","localized_country_name":"Kazakhstan","distance":8322.152706369334,"city":"Fort-Sevçenko","lon":50.25,"ranking":137,"id":1025152,"member_count":0,"lat":44.5099983215332},{"zip":"meetup161","country":"kz","localized_country_name":"Kazakhstan","distance":7974.3118844475985,"city":"Temir","lon":57.130001068115234,"ranking":138,"id":1025153,"member_count":0,"lat":49.13999938964844},{"zip":"meetup9","country":"kz","localized_country_name":"Kazakhstan","distance":7950.903758847863,"city":"Aktöbe","lon":57.16999816894531,"ranking":139,"id":1025001,"member_count":0,"lat":50.279998779296875},{"zip":"meetup10","country":"kz","localized_country_name":"Kazakhstan","distance":7738.329465013206,"city":"Kostanay","lon":63.630001068115234,"ranking":140,"id":1025002,"member_count":0,"lat":53.220001220703125},{"zip":"meetup11","country":"kz","localized_country_name":"Kazakhstan","distance":7601.60926043657,"city":"Petropavl","lon":69.22000122070312,"ranking":141,"id":1025003,"member_count":0,"lat":54.880001068115234},{"zip":"meetup14","country":"kz","localized_country_name":"Kazakhstan","distance":7781.595318679993,"city":"Akmeçet","lon":65.47000122070312,"ranking":142,"id":1025006,"member_count":0,"lat":44.79999923706055},{"zip":"meetup17","country":"kz","localized_country_name":"Kazakhstan","distance":7455.362474669913,"city":"Èkibastuz","lon":75.31999969482422,"ranking":143,"id":1025009,"member_count":0,"lat":51.72999954223633},{"zip":"meetup18","country":"kz","localized_country_name":"Kazakhstan","distance":7598.271596000451,"city":"Köksetau","lon":69.41999816894531,"ranking":144,"id":1025010,"member_count":0,"lat":53.29999923706055},{"zip":"meetup19","country":"kz","localized_country_name":"Kazakhstan","distance":7753.304680698955,"city":"Rudni","lon":63.119998931884766,"ranking":145,"id":1025011,"member_count":0,"lat":52.95000076293945},{"zip":"meetup20","country":"kz","localized_country_name":"Kazakhstan","distance":7359.415552322837,"city":"Taldikorgan","lon":78.4000015258789,"ranking":146,"id":1025012,"member_count":0,"lat":45},{"zip":"meetup21","country":"kz","localized_country_name":"Kazakhstan","distance":7673.622863346108,"city":"Cezkazgan","lon":67.7699966430664,"ranking":147,"id":1025013,"member_count":0,"lat":47.779998779296875},{"zip":"meetup22","country":"kz","localized_country_name":"Kazakhstan","distance":7704.782673780556,"city":"Türkistan","lon":68.26000213623047,"ranking":148,"id":1025014,"member_count":0,"lat":43.29999923706055},{"zip":"meetup23","country":"kz","localized_country_name":"Kazakhstan","distance":7463.548481485536,"city":"Balkas","lon":74.94999694824219,"ranking":149,"id":1025015,"member_count":0,"lat":46.849998474121094},{"zip":"meetup24","country":"kz","localized_country_name":"Kazakhstan","distance":7679.806238028817,"city":"Satpaev","lon":67.52999877929688,"ranking":150,"id":1025016,"member_count":0,"lat":47.88999938964844},{"zip":"meetup25","country":"kz","localized_country_name":"Kazakhstan","distance":7842.126581493762,"city":"Baykonir","lon":63.290000915527344,"ranking":151,"id":1025017,"member_count":0,"lat":45.63999938964844},{"zip":"meetup26","country":"kz","localized_country_name":"Kazakhstan","distance":7245.495225830195,"city":"Riddir","lon":83.5199966430664,"ranking":152,"id":1025018,"member_count":0,"lat":50.36000061035156},{"zip":"meetup27","country":"kz","localized_country_name":"Kazakhstan","distance":7693.229122156399,"city":"Kentau","lon":68.5199966430664,"ranking":153,"id":1025019,"member_count":0,"lat":43.52000045776367},{"zip":"meetup28","country":"kz","localized_country_name":"Kazakhstan","distance":7809.386774882895,"city":"Cetikara","lon":61.2400016784668,"ranking":154,"id":1025020,"member_count":0,"lat":52.189998626708984},{"zip":"meetup29","country":"kz","localized_country_name":"Kazakhstan","distance":7580.721466942119,"city":"Sçuçe","lon":70.18000030517578,"ranking":155,"id":1025021,"member_count":0,"lat":52.939998626708984},{"zip":"meetup31","country":"kz","localized_country_name":"Kazakhstan","distance":8261.480432981638,"city":"Canaözen","lon":52.81999969482422,"ranking":156,"id":1025023,"member_count":0,"lat":43.369998931884766}],"meta":{"next":"","method":"Cities","total_count":157,"link":"http:\/\/api.meetup.com\/2\/cities","count":157,"description":"Returns Meetup cities. This method supports search by latitude\/longitude\/radius, by country\/state, by query term\/zip, or a combination of all of these. Location-only searches by lat and lon return all cities within a radius of the provided coordinates. Searches with a query return up to 10 cities matching the term, and can be sorted by size or distance to a given coordinate. 'smart' ordering can be used to return the match(es) with the highest member_count, unless a smaller size match exists nearby the given coordinates. Query searches are supported for country but not country and state","lon":"None","title":"Cities","url":"http:\/\/api.meetup.com\/2\/cities?country=kz&offset=0&sign=True&format=json&photo-host=public&page=200&radius=50&order=size&desc=false","id":"","updated":1423158767000,"lat":"None"}}
