{"results":[{"zip":"meetup1","country":"lk","localized_country_name":"Sri Lanka","distance":7179.22638403841,"city":"Colombo","lon":79.8499984741211,"ranking":0,"id":1025219,"member_count":133,"lat":6.929999828338623},{"zip":"meetup2","country":"lk","localized_country_name":"Sri Lanka","distance":7176.650154995542,"city":"Dehiwala-Mount Lavinia","lon":79.87000274658203,"ranking":1,"id":1025220,"member_count":113,"lat":6.849999904632568},{"zip":"meetup6","country":"lk","localized_country_name":"Sri Lanka","distance":7175.450459054644,"city":"Sri Jayawardenepura","lon":79.9000015258789,"ranking":2,"id":1025224,"member_count":89,"lat":6.889999866485596},{"zip":"meetup63","country":"lk","localized_country_name":"Sri Lanka","distance":7172.711317881876,"city":"Gampaha","lon":80,"ranking":3,"id":1025281,"member_count":59,"lat":7.099999904632568},{"zip":"meetup52","country":"lk","localized_country_name":"Sri Lanka","distance":7154.383864147096,"city":"Ambalamgoda","lon":80.05999755859375,"ranking":4,"id":1025270,"member_count":55,"lat":6.239999771118164},{"zip":"meetup10","country":"lk","localized_country_name":"Sri Lanka","distance":7141.664655977958,"city":"Galle","lon":80.20999908447266,"ranking":5,"id":1025228,"member_count":46,"lat":6.050000190734863},{"zip":"meetup12","country":"lk","localized_country_name":"Sri Lanka","distance":7174.37295296962,"city":"Battaramulla","lon":79.91999816894531,"ranking":6,"id":1025230,"member_count":40,"lat":6.900000095367432},{"zip":"meetup16","country":"lk","localized_country_name":"Sri Lanka","distance":7173.538680778253,"city":"Maharagama","lon":79.91999816894531,"ranking":7,"id":1025234,"member_count":39,"lat":6.849999904632568},{"zip":"meetup22","country":"lk","localized_country_name":"Sri Lanka","distance":7177.360276080295,"city":"Kolonnawa","lon":79.87999725341797,"ranking":8,"id":1025240,"member_count":35,"lat":6.929999828338623},{"zip":"meetup3","country":"lk","localized_country_name":"Sri Lanka","distance":7175.359294729237,"city":"Moratuwa","lon":79.87999725341797,"ranking":9,"id":1025221,"member_count":30,"lat":6.809999942779541},{"zip":"meetup44","country":"lk","localized_country_name":"Sri Lanka","distance":7156.909606055568,"city":"Kurunegala","lon":80.36000061035156,"ranking":10,"id":1025262,"member_count":24,"lat":7.5},{"zip":"meetup7","country":"lk","localized_country_name":"Sri Lanka","distance":7136.755961092236,"city":"Maha Nuwara","lon":80.62999725341797,"ranking":11,"id":1025225,"member_count":23,"lat":7.289999961853027},{"zip":"meetup42","country":"lk","localized_country_name":"Sri Lanka","distance":7177.401598689231,"city":"Wattala","lon":79.88999938964844,"ranking":12,"id":1025260,"member_count":23,"lat":6.96999979019165},{"zip":"meetup31","country":"lk","localized_country_name":"Sri Lanka","distance":7168.560356993235,"city":"Homagama","lon":80,"ranking":13,"id":1025249,"member_count":22,"lat":6.849999904632568},{"zip":"meetup38","country":"lk","localized_country_name":"Sri Lanka","distance":7179.838339885659,"city":"Jaela","lon":79.87999725341797,"ranking":14,"id":1025256,"member_count":19,"lat":7.079999923706055},{"zip":"meetup33","country":"lk","localized_country_name":"Sri Lanka","distance":7166.660830613088,"city":"Kalutara","lon":79.95999908447266,"ranking":15,"id":1025251,"member_count":17,"lat":6.590000152587891},{"zip":"meetup27","country":"lk","localized_country_name":"Sri Lanka","distance":7120.052186424626,"city":"Matara","lon":80.52999877929688,"ranking":16,"id":1025245,"member_count":15,"lat":5.960000038146973},{"zip":"meetup25","country":"lk","localized_country_name":"Sri Lanka","distance":7142.376303813073,"city":"Ratnapuraya","lon":80.37999725341797,"ranking":17,"id":1025243,"member_count":13,"lat":6.699999809265137},{"zip":"meetup40","country":"lk","localized_country_name":"Sri Lanka","distance":7175.370300045845,"city":"Kelaniya","lon":79.91999816894531,"ranking":18,"id":1025258,"member_count":13,"lat":6.960000038146973},{"zip":"meetup55","country":"lk","localized_country_name":"Sri Lanka","distance":7153.454656429661,"city":"Kêgalla","lon":80.3499984741211,"ranking":19,"id":1025273,"member_count":12,"lat":7.25},{"zip":"meetup57","country":"lk","localized_country_name":"Sri Lanka","distance":7138.968616837268,"city":"Nawalapitiya","lon":80.52999877929688,"ranking":20,"id":1025275,"member_count":12,"lat":7.050000190734863},{"zip":"meetup70","country":"lk","localized_country_name":"Sri Lanka","distance":7176.245795008998,"city":"Kuliyapitiya","lon":80.04000091552734,"ranking":21,"id":1025288,"member_count":11,"lat":7.46999979019165},{"zip":"meetup18","country":"lk","localized_country_name":"Sri Lanka","distance":7176.77960283625,"city":"Daluguma","lon":79.9000015258789,"ranking":22,"id":1025236,"member_count":11,"lat":6.96999979019165},{"zip":"meetup34","country":"lk","localized_country_name":"Sri Lanka","distance":7140.328189473482,"city":"Matale","lon":80.62000274658203,"ranking":23,"id":1025252,"member_count":11,"lat":7.46999979019165},{"zip":"meetup15","country":"lk","localized_country_name":"Sri Lanka","distance":7182.096796293877,"city":"Katunayaka","lon":79.87000274658203,"ranking":24,"id":1025233,"member_count":10,"lat":7.179999828338623},{"zip":"meetup64","country":"lk","localized_country_name":"Sri Lanka","distance":7163.259821646155,"city":"Horana","lon":80.05000305175781,"ranking":25,"id":1025282,"member_count":8,"lat":6.71999979019165},{"zip":"meetup47","country":"lk","localized_country_name":"Sri Lanka","distance":7138.4878389671185,"city":"Gampola","lon":80.56999969482422,"ranking":26,"id":1025265,"member_count":8,"lat":7.170000076293945},{"zip":"meetup69","country":"lk","localized_country_name":"Sri Lanka","distance":7107.294914966555,"city":"Bandarawela","lon":80.9800033569336,"ranking":27,"id":1025287,"member_count":7,"lat":6.829999923706055},{"zip":"meetup21","country":"lk","localized_country_name":"Sri Lanka","distance":7166.709963344649,"city":"Anuradhapuraya","lon":80.41000366210938,"ranking":28,"id":1025239,"member_count":7,"lat":8.319999694824219},{"zip":"meetup54","country":"lk","localized_country_name":"Sri Lanka","distance":7072.2066961841965,"city":"Amparai","lon":81.66999816894531,"ranking":29,"id":1025272,"member_count":7,"lat":7.28000020980835},{"zip":"meetup23","country":"lk","localized_country_name":"Sri Lanka","distance":7178.810660651749,"city":"Hendala","lon":79.87000274658203,"ranking":30,"id":1025241,"member_count":6,"lat":6.980000019073486},{"zip":"meetup45","country":"lk","localized_country_name":"Sri Lanka","distance":7178.1014403402105,"city":"Kandana","lon":79.9000015258789,"ranking":31,"id":1025263,"member_count":6,"lat":7.050000190734863},{"zip":"meetup67","country":"lk","localized_country_name":"Sri Lanka","distance":7176.965756688557,"city":"Minuwangoda","lon":79.94999694824219,"ranking":32,"id":1025285,"member_count":5,"lat":7.170000076293945},{"zip":"meetup4","country":"lk","localized_country_name":"Sri Lanka","distance":7210.720420106224,"city":"Jaffna","lon":80.01000213623047,"ranking":33,"id":1025222,"member_count":5,"lat":9.670000076293945},{"zip":"meetup30","country":"lk","localized_country_name":"Sri Lanka","distance":7105.684476080345,"city":"Badulla","lon":81.05000305175781,"ranking":34,"id":1025248,"member_count":5,"lat":6.989999771118164},{"zip":"meetup36","country":"lk","localized_country_name":"Sri Lanka","distance":7172.601685149603,"city":"Panadraya","lon":79.9000015258789,"ranking":35,"id":1025254,"member_count":5,"lat":6.71999979019165},{"zip":"meetup43","country":"lk","localized_country_name":"Sri Lanka","distance":7176.528677294231,"city":"Ragama","lon":79.91999816894531,"ranking":36,"id":1025261,"member_count":5,"lat":7.03000020980835},{"zip":"meetup39","country":"lk","localized_country_name":"Sri Lanka","distance":7174.250012746632,"city":"Mulleriyawa","lon":79.93000030517578,"ranking":37,"id":1025257,"member_count":4,"lat":6.929999828338623},{"zip":"meetup73","country":"lk","localized_country_name":"Sri Lanka","distance":7142.913622093944,"city":"Kadugannawa","lon":80.5199966430664,"ranking":38,"id":1025291,"member_count":3,"lat":7.25},{"zip":"meetup29","country":"lk","localized_country_name":"Sri Lanka","distance":7198.797775276381,"city":"Puttalama","lon":79.81999969482422,"ranking":39,"id":1025247,"member_count":3,"lat":8.039999961853027},{"zip":"meetup37","country":"lk","localized_country_name":"Sri Lanka","distance":7163.532967252127,"city":"Beruwala","lon":79.9800033569336,"ranking":40,"id":1025255,"member_count":3,"lat":6.480000019073486},{"zip":"meetup49","country":"lk","localized_country_name":"Sri Lanka","distance":7085.317595250986,"city":"Eravur","lon":81.58999633789062,"ranking":41,"id":1025267,"member_count":3,"lat":7.769999980926514},{"zip":"meetup59","country":"lk","localized_country_name":"Sri Lanka","distance":7120.981943658414,"city":"Balangoda","lon":80.70999908447266,"ranking":42,"id":1025277,"member_count":3,"lat":6.650000095367432},{"zip":"meetup61","country":"lk","localized_country_name":"Sri Lanka","distance":7105.0648541053315,"city":"Tanggalla","lon":80.79000091552734,"ranking":43,"id":1025279,"member_count":3,"lat":6.03000020980835},{"zip":"meetup5","country":"lk","localized_country_name":"Sri Lanka","distance":7185.232151598703,"city":"Migamuwa","lon":79.83000183105469,"ranking":44,"id":1025223,"member_count":2,"lat":7.21999979019165},{"zip":"meetup8","country":"lk","localized_country_name":"Sri Lanka","distance":7201.4384993304375,"city":"Chavakachchêri","lon":80.16000366210938,"ranking":45,"id":1025226,"member_count":2,"lat":9.65999984741211},{"zip":"meetup11","country":"lk","localized_country_name":"Sri Lanka","distance":7120.926345350408,"city":"Tirikunamalaya","lon":81.22000122070312,"ranking":46,"id":1025229,"member_count":2,"lat":8.579999923706055},{"zip":"meetup17","country":"lk","localized_country_name":"Sri Lanka","distance":7203.0094893360265,"city":"Valvedditturai","lon":80.16999816894531,"ranking":47,"id":1025235,"member_count":2,"lat":9.819999694824219},{"zip":"meetup19","country":"lk","localized_country_name":"Sri Lanka","distance":7144.592140560096,"city":"Dambulla","lon":80.6500015258789,"ranking":48,"id":1025237,"member_count":2,"lat":7.849999904632568},{"zip":"meetup24","country":"lk","localized_country_name":"Sri Lanka","distance":7168.417520374351,"city":"Vavuniyawa","lon":80.48999786376953,"ranking":49,"id":1025242,"member_count":2,"lat":8.760000228881836},{"zip":"meetup35","country":"lk","localized_country_name":"Sri Lanka","distance":7075.36854080241,"city":"Katankudi","lon":81.7300033569336,"ranking":50,"id":1025253,"member_count":2,"lat":7.690000057220459},{"zip":"meetup46","country":"lk","localized_country_name":"Sri Lanka","distance":7122.892034041411,"city":"Nuwara Eliya","lon":80.7699966430664,"ranking":51,"id":1025264,"member_count":2,"lat":6.980000019073486},{"zip":"meetup51","country":"lk","localized_country_name":"Sri Lanka","distance":7165.831537823184,"city":"Seethawakapura","lon":80.05999755859375,"ranking":52,"id":1025269,"member_count":2,"lat":6.909999847412109},{"zip":"meetup56","country":"lk","localized_country_name":"Sri Lanka","distance":7131.926489234801,"city":"Hatton","lon":80.5999984741211,"ranking":53,"id":1025274,"member_count":2,"lat":6.889999866485596},{"zip":"meetup58","country":"lk","localized_country_name":"Sri Lanka","distance":7124.276442247342,"city":"Polonnaruwa","lon":81,"ranking":54,"id":1025276,"member_count":2,"lat":7.929999828338623},{"zip":"meetup62","country":"lk","localized_country_name":"Sri Lanka","distance":7085.012624408292,"city":"Monaragala","lon":81.3499984741211,"ranking":55,"id":1025280,"member_count":1,"lat":6.869999885559082},{"zip":"meetup66","country":"lk","localized_country_name":"Sri Lanka","distance":7074.489310985394,"city":"Wattegama","lon":81.5,"ranking":56,"id":1025284,"member_count":1,"lat":6.800000190734863},{"zip":"meetup68","country":"lk","localized_country_name":"Sri Lanka","distance":7156.792778604835,"city":"Mullaitivu","lon":80.79000091552734,"ranking":57,"id":1025286,"member_count":1,"lat":9.220000267028809},{"zip":"meetup14","country":"lk","localized_country_name":"Sri Lanka","distance":7199.356460575921,"city":"Pêduru Tuduwa","lon":80.2300033569336,"ranking":58,"id":1025232,"member_count":1,"lat":9.819999694824219},{"zip":"meetup20","country":"lk","localized_country_name":"Sri Lanka","distance":7175.038308290511,"city":"Kotikawatta","lon":79.91999816894531,"ranking":59,"id":1025238,"member_count":1,"lat":6.940000057220459},{"zip":"meetup28","country":"lk","localized_country_name":"Sri Lanka","distance":7208.276322294039,"city":"Mannarama","lon":79.88999938964844,"ranking":60,"id":1025246,"member_count":1,"lat":8.970000267028809},{"zip":"meetup41","country":"lk","localized_country_name":"Sri Lanka","distance":7176.448003055786,"city":"Peliyagoda","lon":79.9000015258789,"ranking":61,"id":1025259,"member_count":1,"lat":6.949999809265137},{"zip":"meetup60","country":"lk","localized_country_name":"Sri Lanka","distance":7086.267087265591,"city":"Hambantota","lon":81.12000274658203,"ranking":62,"id":1025278,"member_count":1,"lat":6.130000114440918},{"zip":"meetup65","country":"lk","localized_country_name":"Sri Lanka","distance":7157.865062637536,"city":"Polgahawela","lon":80.30000305175781,"ranking":63,"id":1025283,"member_count":0,"lat":7.329999923706055},{"zip":"meetup71","country":"lk","localized_country_name":"Sri Lanka","distance":7106.8843064106195,"city":"Haputale","lon":80.97000122070312,"ranking":64,"id":1025289,"member_count":0,"lat":6.769999980926514},{"zip":"meetup72","country":"lk","localized_country_name":"Sri Lanka","distance":7129.666555123427,"city":"Talawakele","lon":80.6500015258789,"ranking":65,"id":1025290,"member_count":0,"lat":6.940000057220459},{"zip":"meetup74","country":"lk","localized_country_name":"Sri Lanka","distance":7141.542356107593,"city":"Sigiriya","lon":80.72000122070312,"ranking":66,"id":1025292,"member_count":0,"lat":7.929999828338623},{"zip":"meetup9","country":"lk","localized_country_name":"Sri Lanka","distance":7065.135211952833,"city":"Galmunê","lon":81.81999969482422,"ranking":67,"id":1025227,"member_count":0,"lat":7.409999847412109},{"zip":"meetup13","country":"lk","localized_country_name":"Sri Lanka","distance":7078.1653674427835,"city":"Madakalpuwa","lon":81.69000244140625,"ranking":68,"id":1025231,"member_count":0,"lat":7.710000038146973},{"zip":"meetup26","country":"lk","localized_country_name":"Sri Lanka","distance":7167.454476020154,"city":"Keselwatta","lon":79.94999694824219,"ranking":69,"id":1025244,"member_count":0,"lat":6.599999904632568},{"zip":"meetup32","country":"lk","localized_country_name":"Sri Lanka","distance":7177.771667987935,"city":"Welesara","lon":79.9000015258789,"ranking":70,"id":1025250,"member_count":0,"lat":7.03000020980835},{"zip":"meetup48","country":"lk","localized_country_name":"Sri Lanka","distance":7192.090836379534,"city":"Halawata","lon":79.80999755859375,"ranking":71,"id":1025266,"member_count":0,"lat":7.570000171661377},{"zip":"meetup50","country":"lk","localized_country_name":"Sri Lanka","distance":7127.28792334351,"city":"Weligama","lon":80.41999816894531,"ranking":72,"id":1025268,"member_count":0,"lat":5.980000019073486},{"zip":"meetup53","country":"lk","localized_country_name":"Sri Lanka","distance":7182.571410087968,"city":"Kilinochchi","lon":80.41000366210938,"ranking":73,"id":1025271,"member_count":0,"lat":9.399999618530273}],"meta":{"next":"","method":"Cities","total_count":74,"link":"http:\/\/api.meetup.com\/2\/cities","count":74,"description":"Returns Meetup cities. This method supports search by latitude\/longitude\/radius, by country\/state, by query term\/zip, or a combination of all of these. Location-only searches by lat and lon return all cities within a radius of the provided coordinates. Searches with a query return up to 10 cities matching the term, and can be sorted by size or distance to a given coordinate. 'smart' ordering can be used to return the match(es) with the highest member_count, unless a smaller size match exists nearby the given coordinates. Query searches are supported for country but not country and state","lon":"None","title":"Cities","url":"http:\/\/api.meetup.com\/2\/cities?country=lk&offset=0&sign=True&format=json&photo-host=public&page=200&radius=50&order=size&desc=false","id":"","updated":1412205281000,"lat":"None"}}
