{"results":[{"zip":"meetup1","country":"lr","localized_country_name":"Liberia","distance":12346.07354150957,"city":"Monrovia","lon":-10.800000190734863,"ranking":0,"id":1025293,"member_count":89,"lat":6.309999942779541},{"zip":"meetup12","country":"lr","localized_country_name":"Liberia","distance":12524.16935082628,"city":"Barclayville","lon":-8.220000267028809,"ranking":1,"id":1025304,"member_count":20,"lat":4.679999828338623},{"zip":"meetup7","country":"lr","localized_country_name":"Liberia","distance":12377.688794007881,"city":"Harbel","lon":-10.329999923706055,"ranking":2,"id":1025299,"member_count":4,"lat":6.260000228881836},{"zip":"meetup2","country":"lr","localized_country_name":"Liberia","distance":12525.531139967032,"city":"Zwedru","lon":-8.130000114440918,"ranking":3,"id":1025294,"member_count":2,"lat":6.070000171661377},{"zip":"meetup11","country":"lr","localized_country_name":"Liberia","distance":12489.681901181713,"city":"Ganta","lon":-8.529999732971191,"ranking":4,"id":1025303,"member_count":2,"lat":7.300000190734863},{"zip":"meetup5","country":"lr","localized_country_name":"Liberia","distance":12557.90646058776,"city":"Harper","lon":-7.71999979019165,"ranking":5,"id":1025297,"member_count":1,"lat":4.389999866485596},{"zip":"meetup9","country":"lr","localized_country_name":"Liberia","distance":12428.405780166531,"city":"Gbarnga","lon":-9.489999771118164,"ranking":6,"id":1025301,"member_count":1,"lat":7.010000228881836},{"zip":"meetup10","country":"lr","localized_country_name":"Liberia","distance":12468.692543461071,"city":"Greenville","lon":-9.039999961853027,"ranking":7,"id":1025302,"member_count":1,"lat":5.019999980926514},{"zip":"meetup13","country":"lr","localized_country_name":"Liberia","distance":12395.841375341592,"city":"Voinjama","lon":-9.760000228881836,"ranking":8,"id":1025305,"member_count":1,"lat":8.420000076293945},{"zip":"meetup3","country":"lr","localized_country_name":"Liberia","distance":12398.317289977744,"city":"Buchanan","lon":-10.050000190734863,"ranking":9,"id":1025295,"member_count":0,"lat":5.880000114440918},{"zip":"meetup4","country":"lr","localized_country_name":"Liberia","distance":12486.933477856543,"city":"Yekepa","lon":-8.529999732971191,"ranking":10,"id":1025296,"member_count":0,"lat":7.579999923706055},{"zip":"meetup6","country":"lr","localized_country_name":"Liberia","distance":12358.56277182356,"city":"Bensonville","lon":-10.600000381469727,"ranking":11,"id":1025298,"member_count":0,"lat":6.449999809265137},{"zip":"meetup8","country":"lr","localized_country_name":"Liberia","distance":12341.040471323431,"city":"Tubmanburg","lon":-10.819999694824219,"ranking":12,"id":1025300,"member_count":0,"lat":6.869999885559082},{"zip":"meetup14","country":"lr","localized_country_name":"Liberia","distance":12305.984270375902,"city":"Robertsport","lon":-11.359999656677246,"ranking":13,"id":1025306,"member_count":0,"lat":6.75},{"zip":"meetup15","country":"lr","localized_country_name":"Liberia","distance":12473.445814917994,"city":"Tapeta","lon":-8.869999885559082,"ranking":14,"id":1025307,"member_count":0,"lat":6.510000228881836},{"zip":"meetup16","country":"lr","localized_country_name":"Liberia","distance":12478.38673931621,"city":"Sanniquellie","lon":-8.6899995803833,"ranking":15,"id":1025308,"member_count":0,"lat":7.369999885559082},{"zip":"meetup17","country":"lr","localized_country_name":"Liberia","distance":12374.706059047237,"city":"Kakata","lon":-10.350000381469727,"ranking":16,"id":1025309,"member_count":0,"lat":6.53000020980835},{"zip":"meetup18","country":"lr","localized_country_name":"Liberia","distance":12432.045374227775,"city":"Rivercess","lon":-9.569999694824219,"ranking":17,"id":1025310,"member_count":0,"lat":5.460000038146973}],"meta":{"next":"","method":"Cities","total_count":18,"link":"http:\/\/api.meetup.com\/2\/cities","count":18,"description":"Returns Meetup cities. This method supports search by latitude\/longitude\/radius, by country\/state, by query term\/zip, or a combination of all of these. Location-only searches by lat and lon return all cities within a radius of the provided coordinates. Searches with a query return up to 10 cities matching the term, and can be sorted by size or distance to a given coordinate. 'smart' ordering can be used to return the match(es) with the highest member_count, unless a smaller size match exists nearby the given coordinates. Query searches are supported for country but not country and state","lon":"None","title":"Cities","url":"http:\/\/api.meetup.com\/2\/cities?country=lr&offset=0&sign=True&format=json&photo-host=public&page=200&radius=50&order=size&desc=false","id":"","updated":1251864867000,"lat":"None"}}
