{"results":[{"zip":"meetup1","country":"lu","localized_country_name":"Luxembourg","distance":9628.489864227862,"city":"Luxembourg","lon":6.119999885559082,"ranking":0,"id":1025433,"member_count":360,"lat":49.619998931884766},{"zip":"meetup398","country":"lu","localized_country_name":"Luxembourg","distance":9636.97427719374,"city":"Abweiler","lon":6.079999923706055,"ranking":1,"id":1025830,"member_count":11,"lat":49.529998779296875},{"zip":"meetup2","country":"lu","localized_country_name":"Luxembourg","distance":9642.860394679226,"city":"Esch-Alzette","lon":5.980000019073486,"ranking":2,"id":1025434,"member_count":7,"lat":49.5},{"zip":"meetup14","country":"lu","localized_country_name":"Luxembourg","distance":9631.213673603668,"city":"Mamer","lon":6.019999980926514,"ranking":3,"id":1025446,"member_count":6,"lat":49.630001068115234},{"zip":"meetup25","country":"lu","localized_country_name":"Luxembourg","distance":9626.131994730747,"city":"Bereldange","lon":6.119999885559082,"ranking":4,"id":1025457,"member_count":6,"lat":49.650001525878906},{"zip":"meetup41","country":"lu","localized_country_name":"Luxembourg","distance":9631.3654268284,"city":"Hesperange","lon":6.150000095367432,"ranking":5,"id":1025473,"member_count":6,"lat":49.56999969482422},{"zip":"meetup23","country":"lu","localized_country_name":"Luxembourg","distance":9631.717059440673,"city":"Howald","lon":6.139999866485596,"ranking":6,"id":1025455,"member_count":5,"lat":49.56999969482422},{"zip":"meetup5","country":"lu","localized_country_name":"Luxembourg","distance":9637.056595973572,"city":"Bettembourg","lon":6.099999904632568,"ranking":7,"id":1025437,"member_count":4,"lat":49.52000045776367},{"zip":"meetup9","country":"lu","localized_country_name":"Luxembourg","distance":9630.596412922905,"city":"Strassen","lon":6.059999942779541,"ranking":8,"id":1025441,"member_count":4,"lat":49.619998931884766},{"zip":"meetup10","country":"lu","localized_country_name":"Luxembourg","distance":9631.734197235273,"city":"Bertrange","lon":6.050000190734863,"ranking":9,"id":1025442,"member_count":4,"lat":49.61000061035156},{"zip":"meetup22","country":"lu","localized_country_name":"Luxembourg","distance":9641.885211386856,"city":"Kayl","lon":6.03000020980835,"ranking":10,"id":1025454,"member_count":4,"lat":49.4900016784668},{"zip":"meetup24","country":"lu","localized_country_name":"Luxembourg","distance":9611.785234989497,"city":"Grevenmacher","lon":6.440000057220459,"ranking":11,"id":1025456,"member_count":4,"lat":49.689998626708984},{"zip":"meetup45","country":"lu","localized_country_name":"Luxembourg","distance":9624.560755329276,"city":"Steinsel","lon":6.119999885559082,"ranking":12,"id":1025477,"member_count":4,"lat":49.66999816894531},{"zip":"meetup3","country":"lu","localized_country_name":"Luxembourg","distance":9640.909445201814,"city":"Dudelange","lon":6.079999923706055,"ranking":13,"id":1025435,"member_count":3,"lat":49.47999954223633},{"zip":"meetup29","country":"lu","localized_country_name":"Luxembourg","distance":9625.550249579645,"city":"Remich","lon":6.360000133514404,"ranking":14,"id":1025461,"member_count":3,"lat":49.54999923706055},{"zip":"meetup30","country":"lu","localized_country_name":"Luxembourg","distance":9632.287078747293,"city":"Mondorf-les-Bains","lon":6.28000020980835,"ranking":15,"id":1025462,"member_count":3,"lat":49.5},{"zip":"meetup34","country":"lu","localized_country_name":"Luxembourg","distance":9627.534943269095,"city":"Bridel","lon":6.079999923706055,"ranking":16,"id":1025466,"member_count":3,"lat":49.650001525878906},{"zip":"meetup35","country":"lu","localized_country_name":"Luxembourg","distance":9641.032054996569,"city":"Sanem","lon":5.920000076293945,"ranking":17,"id":1025467,"member_count":3,"lat":49.54999923706055},{"zip":"meetup57","country":"lu","localized_country_name":"Luxembourg","distance":9622.007054048705,"city":"Niederanven","lon":6.260000228881836,"ranking":18,"id":1025489,"member_count":3,"lat":49.63999938964844},{"zip":"meetup373","country":"lu","localized_country_name":"Luxembourg","distance":9638.299499118626,"city":"Wickrange","lon":6.019999980926514,"ranking":19,"id":1025805,"member_count":2,"lat":49.540000915527344},{"zip":"meetup124","country":"lu","localized_country_name":"Luxembourg","distance":9613.885392802911,"city":"Wecker","lon":6.380000114440918,"ranking":20,"id":1025556,"member_count":2,"lat":49.689998626708984},{"zip":"meetup139","country":"lu","localized_country_name":"Luxembourg","distance":9623.575689848583,"city":"Münsbach","lon":6.260000228881836,"ranking":21,"id":1025571,"member_count":2,"lat":49.619998931884766},{"zip":"meetup4","country":"lu","localized_country_name":"Luxembourg","distance":9641.015011738307,"city":"Schifflange","lon":6.010000228881836,"ranking":22,"id":1025436,"member_count":2,"lat":49.5099983215332},{"zip":"meetup6","country":"lu","localized_country_name":"Luxembourg","distance":9642.35492190136,"city":"Pétange","lon":5.860000133514404,"ranking":23,"id":1025438,"member_count":2,"lat":49.560001373291016},{"zip":"meetup16","country":"lu","localized_country_name":"Luxembourg","distance":9603.45230281566,"city":"Echternach","lon":6.409999847412109,"ranking":24,"id":1025448,"member_count":2,"lat":49.810001373291016},{"zip":"meetup26","country":"lu","localized_country_name":"Luxembourg","distance":9618.626379892823,"city":"Mersch","lon":6.110000133514404,"ranking":25,"id":1025458,"member_count":2,"lat":49.75},{"zip":"meetup33","country":"lu","localized_country_name":"Luxembourg","distance":9626.115401093457,"city":"Sandweiler","lon":6.210000038146973,"ranking":26,"id":1025465,"member_count":2,"lat":49.61000061035156},{"zip":"meetup38","country":"lu","localized_country_name":"Luxembourg","distance":9632.710841733973,"city":"Steinfort","lon":5.909999847412109,"ranking":27,"id":1025470,"member_count":2,"lat":49.65999984741211},{"zip":"meetup42","country":"lu","localized_country_name":"Luxembourg","distance":9639.635772663034,"city":"Clemency","lon":5.869999885559082,"ranking":28,"id":1025474,"member_count":2,"lat":49.59000015258789},{"zip":"meetup44","country":"lu","localized_country_name":"Luxembourg","distance":9635.317168501675,"city":"Leudelange","lon":6.059999942779541,"ranking":29,"id":1025476,"member_count":2,"lat":49.560001373291016},{"zip":"meetup48","country":"lu","localized_country_name":"Luxembourg","distance":9628.502114857933,"city":"Kehlen","lon":6.03000020980835,"ranking":30,"id":1025480,"member_count":2,"lat":49.65999984741211},{"zip":"meetup104","country":"lu","localized_country_name":"Luxembourg","distance":9625.928902514004,"city":"Oetrange","lon":6.260000228881836,"ranking":31,"id":1025536,"member_count":1,"lat":49.59000015258789},{"zip":"meetup106","country":"lu","localized_country_name":"Luxembourg","distance":9628.767215179689,"city":"Nospelt","lon":6,"ranking":32,"id":1025538,"member_count":1,"lat":49.66999816894531},{"zip":"meetup108","country":"lu","localized_country_name":"Luxembourg","distance":9620.228728405034,"city":"Wormeldange","lon":6.400000095367432,"ranking":33,"id":1025540,"member_count":1,"lat":49.599998474121094},{"zip":"meetup109","country":"lu","localized_country_name":"Luxembourg","distance":9641.988696136172,"city":"Ehlerange","lon":5.960000038146973,"ranking":34,"id":1025541,"member_count":1,"lat":49.52000045776367},{"zip":"meetup381","country":"lu","localized_country_name":"Luxembourg","distance":9628.201177999827,"city":"Medingen","lon":6.239999771118164,"ranking":35,"id":1025813,"member_count":1,"lat":49.56999969482422},{"zip":"meetup132","country":"lu","localized_country_name":"Luxembourg","distance":9623.2247471436,"city":"Uebersyren","lon":6.269999980926514,"ranking":36,"id":1025564,"member_count":1,"lat":49.619998931884766},{"zip":"meetup401","country":"lu","localized_country_name":"Luxembourg","distance":9626.232355038805,"city":"Calmus","lon":5.960000038146973,"ranking":37,"id":1025833,"member_count":1,"lat":49.720001220703125},{"zip":"meetup151","country":"lu","localized_country_name":"Luxembourg","distance":9621.770624913474,"city":"Platen","lon":5.929999828338623,"ranking":38,"id":1025583,"member_count":1,"lat":49.790000915527344},{"zip":"meetup158","country":"lu","localized_country_name":"Luxembourg","distance":9628.605203981091,"city":"Wellenstein","lon":6.340000152587891,"ranking":39,"id":1025590,"member_count":1,"lat":49.52000045776367},{"zip":"meetup162","country":"lu","localized_country_name":"Luxembourg","distance":9626.057199935065,"city":"Noerdange","lon":5.920000076293945,"ranking":40,"id":1025594,"member_count":1,"lat":49.7400016784668},{"zip":"meetup421","country":"lu","localized_country_name":"Luxembourg","distance":9609.455482444442,"city":"Bockholtz","lon":5.989999771118164,"ranking":41,"id":1025853,"member_count":1,"lat":49.91999816894531},{"zip":"meetup427","country":"lu","localized_country_name":"Luxembourg","distance":9605.179995008895,"city":"Alscheid","lon":6,"ranking":42,"id":1025859,"member_count":1,"lat":49.970001220703125},{"zip":"meetup180","country":"lu","localized_country_name":"Luxembourg","distance":9610.684023993794,"city":"Christnach","lon":6.269999980926514,"ranking":43,"id":1025612,"member_count":1,"lat":49.779998779296875},{"zip":"meetup187","country":"lu","localized_country_name":"Luxembourg","distance":9629.644929274988,"city":"Oberpallen","lon":5.840000152587891,"ranking":44,"id":1025619,"member_count":1,"lat":49.72999954223633},{"zip":"meetup444","country":"lu","localized_country_name":"Luxembourg","distance":9612.153855447488,"city":"Zittig","lon":6.340000152587891,"ranking":45,"id":1025876,"member_count":1,"lat":49.72999954223633},{"zip":"meetup211","country":"lu","localized_country_name":"Luxembourg","distance":9626.929821688676,"city":"Ell","lon":5.849999904632568,"ranking":46,"id":1025643,"member_count":1,"lat":49.7599983215332},{"zip":"meetup257","country":"lu","localized_country_name":"Luxembourg","distance":9615.718414477906,"city":"Betzdorf","lon":6.349999904632568,"ranking":47,"id":1025689,"member_count":1,"lat":49.68000030517578},{"zip":"meetup266","country":"lu","localized_country_name":"Luxembourg","distance":9608.578981504757,"city":"Nocher","lon":5.96999979019165,"ranking":48,"id":1025698,"member_count":1,"lat":49.939998626708984},{"zip":"meetup13","country":"lu","localized_country_name":"Luxembourg","distance":9643.666344187539,"city":"Differdange","lon":5.889999866485596,"ranking":49,"id":1025445,"member_count":1,"lat":49.529998779296875},{"zip":"meetup15","country":"lu","localized_country_name":"Luxembourg","distance":9641.552750568859,"city":"Soleuvre","lon":5.949999809265137,"ranking":50,"id":1025447,"member_count":1,"lat":49.529998779296875},{"zip":"meetup271","country":"lu","localized_country_name":"Luxembourg","distance":9627.193125128642,"city":"Roodt","lon":6,"ranking":51,"id":1025703,"member_count":1,"lat":49.689998626708984},{"zip":"meetup18","country":"lu","localized_country_name":"Luxembourg","distance":9639.806635638126,"city":"Bascharage","lon":5.909999847412109,"ranking":52,"id":1025450,"member_count":1,"lat":49.56999969482422},{"zip":"meetup19","country":"lu","localized_country_name":"Luxembourg","distance":9645.24469442678,"city":"Obercorn","lon":5.889999866485596,"ranking":53,"id":1025451,"member_count":1,"lat":49.5099983215332},{"zip":"meetup20","country":"lu","localized_country_name":"Luxembourg","distance":9644.638060258383,"city":"Rodange","lon":5.840000152587891,"ranking":54,"id":1025452,"member_count":1,"lat":49.540000915527344},{"zip":"meetup27","country":"lu","localized_country_name":"Luxembourg","distance":9640.496053307337,"city":"Mondercange","lon":5.980000019073486,"ranking":55,"id":1025459,"member_count":1,"lat":49.529998779296875},{"zip":"meetup43","country":"lu","localized_country_name":"Luxembourg","distance":9629.8763980725,"city":"Itzig","lon":6.170000076293945,"ranking":56,"id":1025475,"member_count":1,"lat":49.58000183105469},{"zip":"meetup47","country":"lu","localized_country_name":"Luxembourg","distance":9621.068307688423,"city":"Lintgen","lon":6.130000114440918,"ranking":57,"id":1025479,"member_count":1,"lat":49.709999084472656},{"zip":"meetup51","country":"lu","localized_country_name":"Luxembourg","distance":9624.111560660962,"city":"Senningerberg","lon":6.199999809265137,"ranking":58,"id":1025483,"member_count":1,"lat":49.63999938964844},{"zip":"meetup63","country":"lu","localized_country_name":"Luxembourg","distance":9619.570999509278,"city":"Gonderange","lon":6.239999771118164,"ranking":59,"id":1025495,"member_count":1,"lat":49.68000030517578},{"zip":"meetup324","country":"lu","localized_country_name":"Luxembourg","distance":9626.492430272981,"city":"Dondelange","lon":6.019999980926514,"ranking":60,"id":1025756,"member_count":1,"lat":49.689998626708984},{"zip":"meetup71","country":"lu","localized_country_name":"Luxembourg","distance":9627.064744270896,"city":"Moutfort","lon":6.25,"ranking":61,"id":1025503,"member_count":1,"lat":49.58000183105469},{"zip":"meetup75","country":"lu","localized_country_name":"Luxembourg","distance":9628.119062656046,"city":"Contern","lon":6.21999979019165,"ranking":62,"id":1025507,"member_count":1,"lat":49.58000183105469},{"zip":"meetup77","country":"lu","localized_country_name":"Luxembourg","distance":9630.52025559858,"city":"Koerich","lon":5.949999809265137,"ranking":63,"id":1025509,"member_count":1,"lat":49.66999816894531},{"zip":"meetup83","country":"lu","localized_country_name":"Luxembourg","distance":9632.830330931101,"city":"Aspelt","lon":6.21999979019165,"ranking":64,"id":1025515,"member_count":1,"lat":49.52000045776367},{"zip":"meetup87","country":"lu","localized_country_name":"Luxembourg","distance":9640.392638447132,"city":"Noertzange","lon":6.050000190734863,"ranking":65,"id":1025519,"member_count":1,"lat":49.5},{"zip":"meetup348","country":"lu","localized_country_name":"Luxembourg","distance":9610.241152071638,"city":"Tadler-Ringel-Dirbach","lon":5.989999771118164,"ranking":66,"id":1025780,"member_count":1,"lat":49.90999984741211},{"zip":"meetup349","country":"lu","localized_country_name":"Luxembourg","distance":9609.785604850756,"city":"Winseler","lon":5.889999866485596,"ranking":67,"id":1025781,"member_count":1,"lat":49.959999084472656},{"zip":"meetup95","country":"lu","localized_country_name":"Luxembourg","distance":9634.287339238188,"city":"Kleinbettingen","lon":5.909999847412109,"ranking":68,"id":1025527,"member_count":1,"lat":49.63999938964844},{"zip":"meetup101","country":"lu","localized_country_name":"Luxembourg","distance":9636.556140235676,"city":"Dippach","lon":5.980000019073486,"ranking":69,"id":1025533,"member_count":1,"lat":49.58000183105469},{"zip":"meetup105","country":"lu","localized_country_name":"Luxembourg","distance":9598.919703806674,"city":"Hosingen","lon":6.090000152587891,"ranking":70,"id":1025537,"member_count":0,"lat":50.0099983215332},{"zip":"meetup361","country":"lu","localized_country_name":"Luxembourg","distance":9628.767406287634,"city":"Colpach-Bas","lon":5.820000171661377,"ranking":71,"id":1025793,"member_count":0,"lat":49.75},{"zip":"meetup362","country":"lu","localized_country_name":"Luxembourg","distance":9616.002870036944,"city":"Dellen-Lehrhof-Grevels","lon":5.960000038146973,"ranking":72,"id":1025794,"member_count":0,"lat":49.849998474121094},{"zip":"meetup107","country":"lu","localized_country_name":"Luxembourg","distance":9622.288934346272,"city":"Lorentzweiler","lon":6.139999866485596,"ranking":73,"id":1025539,"member_count":0,"lat":49.689998626708984},{"zip":"meetup364","country":"lu","localized_country_name":"Luxembourg","distance":9604.567551139009,"city":"Girst","lon":6.489999771118164,"ranking":74,"id":1025796,"member_count":0,"lat":49.7599983215332},{"zip":"meetup365","country":"lu","localized_country_name":"Luxembourg","distance":9603.549170174823,"city":"Hoesdorf","lon":6.25,"ranking":75,"id":1025797,"member_count":0,"lat":49.880001068115234},{"zip":"meetup110","country":"lu","localized_country_name":"Luxembourg","distance":9625.78126927762,"city":"Walferdange","lon":6.130000114440918,"ranking":76,"id":1025542,"member_count":0,"lat":49.650001525878906},{"zip":"meetup366","country":"lu","localized_country_name":"Luxembourg","distance":9602.056260131805,"city":"Hoscheid-Dickt","lon":6.090000152587891,"ranking":77,"id":1025798,"member_count":0,"lat":49.970001220703125},{"zip":"meetup111","country":"lu","localized_country_name":"Luxembourg","distance":9618.539771080566,"city":"Vichten","lon":6,"ranking":78,"id":1025543,"member_count":0,"lat":49.79999923706055},{"zip":"meetup367","country":"lu","localized_country_name":"Luxembourg","distance":9609.635186462701,"city":"Kehmen-Scheidel","lon":6.03000020980835,"ranking":79,"id":1025799,"member_count":0,"lat":49.900001525878906},{"zip":"meetup112","country":"lu","localized_country_name":"Luxembourg","distance":9633.723253427539,"city":"Roeser","lon":6.150000095367432,"ranking":80,"id":1025544,"member_count":0,"lat":49.540000915527344},{"zip":"meetup113","country":"lu","localized_country_name":"Luxembourg","distance":9624.766529904324,"city":"Stadtbredimus","lon":6.360000133514404,"ranking":81,"id":1025545,"member_count":0,"lat":49.560001373291016},{"zip":"meetup369","country":"lu","localized_country_name":"Luxembourg","distance":9623.518654054504,"city":"Marienthal","lon":6.059999942779541,"ranking":82,"id":1025801,"member_count":0,"lat":49.709999084472656},{"zip":"meetup114","country":"lu","localized_country_name":"Luxembourg","distance":9621.923919080009,"city":"Oberanven","lon":6.239999771118164,"ranking":83,"id":1025546,"member_count":0,"lat":49.650001525878906},{"zip":"meetup370","country":"lu","localized_country_name":"Luxembourg","distance":9617.055357110783,"city":"Michelbouch","lon":6.019999980926514,"ranking":84,"id":1025802,"member_count":0,"lat":49.810001373291016},{"zip":"meetup115","country":"lu","localized_country_name":"Luxembourg","distance":9622.274539554504,"city":"Rameldange","lon":6.230000019073486,"ranking":85,"id":1025547,"member_count":0,"lat":49.650001525878906},{"zip":"meetup371","country":"lu","localized_country_name":"Luxembourg","distance":9613.202761373897,"city":"Rippig","lon":6.309999942779541,"ranking":86,"id":1025803,"member_count":0,"lat":49.72999954223633},{"zip":"meetup116","country":"lu","localized_country_name":"Luxembourg","distance":9601.876045784513,"city":"Rosport","lon":6.5,"ranking":87,"id":1025548,"member_count":0,"lat":49.790000915527344},{"zip":"meetup372","country":"lu","localized_country_name":"Luxembourg","distance":9618.169933348547,"city":"Rodenbourg","lon":6.28000020980835,"ranking":88,"id":1025804,"member_count":0,"lat":49.68000030517578},{"zip":"meetup117","country":"lu","localized_country_name":"Luxembourg","distance":9623.34583962685,"city":"Brouch","lon":6.019999980926514,"ranking":89,"id":1025549,"member_count":0,"lat":49.72999954223633},{"zip":"meetup118","country":"lu","localized_country_name":"Luxembourg","distance":9619.837420069845,"city":"Bourglinster","lon":6.210000038146973,"ranking":90,"id":1025550,"member_count":0,"lat":49.689998626708984},{"zip":"meetup374","country":"lu","localized_country_name":"Luxembourg","distance":9604.484587111672,"city":"Dickweiler","lon":6.46999979019165,"ranking":91,"id":1025806,"member_count":0,"lat":49.77000045776367},{"zip":"meetup119","country":"lu","localized_country_name":"Luxembourg","distance":9631.230154040406,"city":"Elvange","lon":6.309999942779541,"ranking":92,"id":1025551,"member_count":0,"lat":49.5},{"zip":"meetup375","country":"lu","localized_country_name":"Luxembourg","distance":9625.681581593819,"city":"Findel","lon":6.199999809265137,"ranking":93,"id":1025807,"member_count":0,"lat":49.619998931884766},{"zip":"meetup120","country":"lu","localized_country_name":"Luxembourg","distance":9627.099467744465,"city":"Kopstal","lon":6.070000171661377,"ranking":94,"id":1025552,"member_count":0,"lat":49.65999984741211},{"zip":"meetup376","country":"lu","localized_country_name":"Luxembourg","distance":9626.052157556107,"city":"Lannen","lon":5.829999923706055,"ranking":95,"id":1025808,"member_count":0,"lat":49.779998779296875},{"zip":"meetup121","country":"lu","localized_country_name":"Luxembourg","distance":9590.205396129022,"city":"Weiswampach","lon":6.070000171661377,"ranking":96,"id":1025553,"member_count":0,"lat":50.130001068115234},{"zip":"meetup377","country":"lu","localized_country_name":"Luxembourg","distance":9595.227487653634,"city":"Biwisch","lon":5.96999979019165,"ranking":97,"id":1025809,"member_count":0,"lat":50.11000061035156},{"zip":"meetup122","country":"lu","localized_country_name":"Luxembourg","distance":9628.24490745756,"city":"Beckerich","lon":5.880000114440918,"ranking":98,"id":1025554,"member_count":0,"lat":49.72999954223633},{"zip":"meetup378","country":"lu","localized_country_name":"Luxembourg","distance":9610.419651445754,"city":"Breidweiler","lon":6.300000190734863,"ranking":99,"id":1025810,"member_count":0,"lat":49.77000045776367},{"zip":"meetup123","country":"lu","localized_country_name":"Luxembourg","distance":9631.389083387261,"city":"Remerschen","lon":6.349999904632568,"ranking":100,"id":1025555,"member_count":0,"lat":49.47999954223633},{"zip":"meetup380","country":"lu","localized_country_name":"Luxembourg","distance":9614.251722978195,"city":"Graulinster-Blumenthal","lon":6.28000020980835,"ranking":101,"id":1025812,"member_count":0,"lat":49.72999954223633},{"zip":"meetup125","country":"lu","localized_country_name":"Luxembourg","distance":9611.188001648514,"city":"Berbourg","lon":6.389999866485596,"ranking":102,"id":1025557,"member_count":0,"lat":49.720001220703125},{"zip":"meetup126","country":"lu","localized_country_name":"Luxembourg","distance":9618.36261911727,"city":"Grosbous","lon":5.960000038146973,"ranking":103,"id":1025558,"member_count":0,"lat":49.81999969482422},{"zip":"meetup127","country":"lu","localized_country_name":"Luxembourg","distance":9622.384821022999,"city":"Useldange","lon":5.980000019073486,"ranking":104,"id":1025559,"member_count":0,"lat":49.7599983215332},{"zip":"meetup383","country":"lu","localized_country_name":"Luxembourg","distance":9607.17741659706,"city":"Mompach","lon":6.460000038146973,"ranking":105,"id":1025815,"member_count":0,"lat":49.7400016784668},{"zip":"meetup128","country":"lu","localized_country_name":"Luxembourg","distance":9623.07418515021,"city":"Helmdange","lon":6.139999866485596,"ranking":106,"id":1025560,"member_count":0,"lat":49.68000030517578},{"zip":"meetup384","country":"lu","localized_country_name":"Luxembourg","distance":9621.418340262919,"city":"Prettange","lon":6.119999885559082,"ranking":107,"id":1025816,"member_count":0,"lat":49.709999084472656},{"zip":"meetup129","country":"lu","localized_country_name":"Luxembourg","distance":9626.130832509554,"city":"Perlé","lon":5.760000228881836,"ranking":108,"id":1025561,"member_count":0,"lat":49.810001373291016},{"zip":"meetup385","country":"lu","localized_country_name":"Luxembourg","distance":9587.510225746022,"city":"Beiler","lon":6.079999923706055,"ranking":109,"id":1025817,"member_count":0,"lat":50.15999984741211},{"zip":"meetup130","country":"lu","localized_country_name":"Luxembourg","distance":9613.452617964474,"city":"Biwer","lon":6.369999885559082,"ranking":110,"id":1025562,"member_count":0,"lat":49.70000076293945},{"zip":"meetup386","country":"lu","localized_country_name":"Luxembourg","distance":9616.50159460689,"city":"Berg","lon":6.349999904632568,"ranking":111,"id":1025818,"member_count":0,"lat":49.66999816894531},{"zip":"meetup131","country":"lu","localized_country_name":"Luxembourg","distance":9636.867964821722,"city":"Hellange","lon":6.150000095367432,"ranking":112,"id":1025563,"member_count":0,"lat":49.5},{"zip":"meetup387","country":"lu","localized_country_name":"Luxembourg","distance":9598.044354063577,"city":"Dorscheid","lon":6.070000171661377,"ranking":113,"id":1025819,"member_count":0,"lat":50.029998779296875},{"zip":"meetup388","country":"lu","localized_country_name":"Luxembourg","distance":9633.504212243233,"city":"Emerange","lon":6.289999961853027,"ranking":114,"id":1025820,"member_count":0,"lat":49.47999954223633},{"zip":"meetup133","country":"lu","localized_country_name":"Luxembourg","distance":9634.427201818986,"city":"Bivange","lon":6.130000114440918,"ranking":115,"id":1025565,"member_count":0,"lat":49.540000915527344},{"zip":"meetup389","country":"lu","localized_country_name":"Luxembourg","distance":9604.047792623021,"city":"Lellingen","lon":6.010000228881836,"ranking":116,"id":1025821,"member_count":0,"lat":49.97999954223633},{"zip":"meetup134","country":"lu","localized_country_name":"Luxembourg","distance":9613.298900151458,"city":"Heffingen","lon":6.239999771118164,"ranking":117,"id":1025566,"member_count":0,"lat":49.7599983215332},{"zip":"meetup390","country":"lu","localized_country_name":"Luxembourg","distance":9606.660033036702,"city":"Merckholtz","lon":5.980000019073486,"ranking":118,"id":1025822,"member_count":0,"lat":49.959999084472656},{"zip":"meetup135","country":"lu","localized_country_name":"Luxembourg","distance":9639.252999312588,"city":"Huncherange","lon":6.059999942779541,"ranking":119,"id":1025567,"member_count":0,"lat":49.5099983215332},{"zip":"meetup391","country":"lu","localized_country_name":"Luxembourg","distance":9627.889215162491,"city":"Petit-Nobressart","lon":5.800000190734863,"ranking":120,"id":1025823,"member_count":0,"lat":49.77000045776367},{"zip":"meetup136","country":"lu","localized_country_name":"Luxembourg","distance":9620.460755178749,"city":"Reckange","lon":6.079999923706055,"ranking":121,"id":1025568,"member_count":0,"lat":49.7400016784668},{"zip":"meetup392","country":"lu","localized_country_name":"Luxembourg","distance":9595.966306075625,"city":"Rodershausen","lon":6.130000114440918,"ranking":122,"id":1025824,"member_count":0,"lat":50.029998779296875},{"zip":"meetup137","country":"lu","localized_country_name":"Luxembourg","distance":9625.269127647836,"city":"Tuntange","lon":6.010000228881836,"ranking":123,"id":1025569,"member_count":0,"lat":49.709999084472656},{"zip":"meetup393","country":"lu","localized_country_name":"Luxembourg","distance":9609.815162192972,"city":"Savelborn-Fermes","lon":6.25,"ranking":124,"id":1025825,"member_count":0,"lat":49.79999923706055},{"zip":"meetup138","country":"lu","localized_country_name":"Luxembourg","distance":9641.65100261557,"city":"Lener","lon":5.880000114440918,"ranking":125,"id":1025570,"member_count":0,"lat":49.560001373291016},{"zip":"meetup394","country":"lu","localized_country_name":"Luxembourg","distance":9602.853270010097,"city":"Wallendorf","lon":6.269999980926514,"ranking":126,"id":1025826,"member_count":0,"lat":49.880001068115234},{"zip":"meetup395","country":"lu","localized_country_name":"Luxembourg","distance":9615.18269935191,"city":"Watrange","lon":5.78000020980835,"ranking":127,"id":1025827,"member_count":0,"lat":49.939998626708984},{"zip":"meetup140","country":"lu","localized_country_name":"Luxembourg","distance":9623.550899397462,"city":"Greiveldange","lon":6.349999904632568,"ranking":128,"id":1025572,"member_count":0,"lat":49.58000183105469},{"zip":"meetup396","country":"lu","localized_country_name":"Luxembourg","distance":9592.02517203912,"city":"Holler","lon":6.039999961853027,"ranking":129,"id":1025828,"member_count":0,"lat":50.119998931884766},{"zip":"meetup141","country":"lu","localized_country_name":"Luxembourg","distance":9636.352138331025,"city":"Peppange","lon":6.119999885559082,"ranking":130,"id":1025573,"member_count":0,"lat":49.52000045776367},{"zip":"meetup397","country":"lu","localized_country_name":"Luxembourg","distance":9605.201435136272,"city":"Tandel","lon":6.179999828338623,"ranking":131,"id":1025829,"member_count":0,"lat":49.88999938964844},{"zip":"meetup142","country":"lu","localized_country_name":"Luxembourg","distance":9632.559137931834,"city":"Altwies","lon":6.25,"ranking":132,"id":1025574,"member_count":0,"lat":49.5099983215332},{"zip":"meetup143","country":"lu","localized_country_name":"Luxembourg","distance":9620.549555876796,"city":"Boevange","lon":6.010000228881836,"ranking":133,"id":1025575,"member_count":0,"lat":49.77000045776367},{"zip":"meetup399","country":"lu","localized_country_name":"Luxembourg","distance":9604.0707782106,"city":"Bigelbach","lon":6.28000020980835,"ranking":134,"id":1025831,"member_count":0,"lat":49.86000061035156},{"zip":"meetup144","country":"lu","localized_country_name":"Luxembourg","distance":9625.091136706124,"city":"Keispelt","lon":6.059999942779541,"ranking":135,"id":1025576,"member_count":0,"lat":49.689998626708984},{"zip":"meetup400","country":"lu","localized_country_name":"Luxembourg","distance":9599.369571062902,"city":"Bivels","lon":6.190000057220459,"ranking":136,"id":1025832,"member_count":0,"lat":49.959999084472656},{"zip":"meetup145","country":"lu","localized_country_name":"Luxembourg","distance":9637.428158500827,"city":"Reckange-sur-Mess","lon":6,"ranking":137,"id":1025577,"member_count":0,"lat":49.560001373291016},{"zip":"meetup146","country":"lu","localized_country_name":"Luxembourg","distance":9627.469475895425,"city":"Bech-Kleinmacher","lon":6.349999904632568,"ranking":138,"id":1025578,"member_count":0,"lat":49.529998779296875},{"zip":"meetup402","country":"lu","localized_country_name":"Luxembourg","distance":9606.478616073993,"city":"Givenich","lon":6.480000019073486,"ranking":139,"id":1025834,"member_count":0,"lat":49.7400016784668},{"zip":"meetup147","country":"lu","localized_country_name":"Luxembourg","distance":9601.360612193148,"city":"Steinheim","lon":6.46999979019165,"ranking":140,"id":1025579,"member_count":0,"lat":49.810001373291016},{"zip":"meetup403","country":"lu","localized_country_name":"Luxembourg","distance":9618.791431181107,"city":"Heispelt","lon":5.880000114440918,"ranking":141,"id":1025835,"member_count":0,"lat":49.849998474121094},{"zip":"meetup148","country":"lu","localized_country_name":"Luxembourg","distance":9633.841791384197,"city":"Holzem","lon":5.989999771118164,"ranking":142,"id":1025580,"member_count":0,"lat":49.61000061035156},{"zip":"meetup404","country":"lu","localized_country_name":"Luxembourg","distance":9612.503488272985,"city":"Hemstal","lon":6.329999923706055,"ranking":143,"id":1025836,"member_count":0,"lat":49.72999954223633},{"zip":"meetup149","country":"lu","localized_country_name":"Luxembourg","distance":9626.95704332147,"city":"Bous","lon":6.320000171661377,"ranking":144,"id":1025581,"member_count":0,"lat":49.54999923706055},{"zip":"meetup405","country":"lu","localized_country_name":"Luxembourg","distance":9603.08842093406,"city":"Hinkel","lon":6.510000228881836,"ranking":145,"id":1025837,"member_count":0,"lat":49.77000045776367},{"zip":"meetup150","country":"lu","localized_country_name":"Luxembourg","distance":9618.663105861146,"city":"Wormeldange-Haut","lon":6.400000095367432,"ranking":146,"id":1025582,"member_count":0,"lat":49.619998931884766},{"zip":"meetup406","country":"lu","localized_country_name":"Luxembourg","distance":9604.588397171035,"city":"Landscheid","lon":6.130000114440918,"ranking":147,"id":1025838,"member_count":0,"lat":49.91999816894531},{"zip":"meetup407","country":"lu","localized_country_name":"Luxembourg","distance":9586.820542856245,"city":"Leithum","lon":6.099999904632568,"ranking":148,"id":1025839,"member_count":0,"lat":50.15999984741211},{"zip":"meetup152","country":"lu","localized_country_name":"Luxembourg","distance":9621.713865666523,"city":"Ehnen","lon":6.380000114440918,"ranking":149,"id":1025584,"member_count":0,"lat":49.59000015258789},{"zip":"meetup408","country":"lu","localized_country_name":"Luxembourg","distance":9614.415565470073,"city":"Liefrange","lon":5.869999885559082,"ranking":150,"id":1025840,"member_count":0,"lat":49.90999984741211},{"zip":"meetup153","country":"lu","localized_country_name":"Luxembourg","distance":9604.767125204904,"city":"Reisdorf","lon":6.260000228881836,"ranking":151,"id":1025585,"member_count":0,"lat":49.86000061035156},{"zip":"meetup409","country":"lu","localized_country_name":"Luxembourg","distance":9604.50565386788,"city":"Longsdorf","lon":6.199999809265137,"ranking":152,"id":1025841,"member_count":0,"lat":49.88999938964844},{"zip":"meetup154","country":"lu","localized_country_name":"Luxembourg","distance":9631.963531115944,"city":"Weiler-la-Tour","lon":6.199999809265137,"ranking":153,"id":1025586,"member_count":0,"lat":49.540000915527344},{"zip":"meetup410","country":"lu","localized_country_name":"Luxembourg","distance":9613.369805794107,"city":"Boudler","lon":6.349999904632568,"ranking":154,"id":1025842,"member_count":0,"lat":49.709999084472656},{"zip":"meetup155","country":"lu","localized_country_name":"Luxembourg","distance":9640.22704333154,"city":"Foetz","lon":6.010000228881836,"ranking":155,"id":1025587,"member_count":0,"lat":49.52000045776367},{"zip":"meetup411","country":"lu","localized_country_name":"Luxembourg","distance":9626.055768669661,"city":"Bour","lon":6.010000228881836,"ranking":156,"id":1025843,"member_count":0,"lat":49.70000076293945},{"zip":"meetup156","country":"lu","localized_country_name":"Luxembourg","distance":9621.929183325807,"city":"Bigonville","lon":5.789999961853027,"ranking":157,"id":1025588,"member_count":0,"lat":49.849998474121094},{"zip":"meetup412","country":"lu","localized_country_name":"Luxembourg","distance":9635.77777559177,"city":"Grass","lon":5.889999866485596,"ranking":158,"id":1025844,"member_count":0,"lat":49.630001068115234},{"zip":"meetup157","country":"lu","localized_country_name":"Luxembourg","distance":9621.23823244969,"city":"Blaschette","lon":6.170000076293945,"ranking":159,"id":1025589,"member_count":0,"lat":49.689998626708984},{"zip":"meetup413","country":"lu","localized_country_name":"Luxembourg","distance":9616.519877479714,"city":"Kuborn","lon":5.900000095367432,"ranking":160,"id":1025845,"member_count":0,"lat":49.869998931884766},{"zip":"meetup414","country":"lu","localized_country_name":"Luxembourg","distance":9603.367549946366,"city":"Nachtmanderscheid","lon":6.119999885559082,"ranking":161,"id":1025846,"member_count":0,"lat":49.939998626708984},{"zip":"meetup159","country":"lu","localized_country_name":"Luxembourg","distance":9609.117528834191,"city":"Bürden","lon":6.090000152587891,"ranking":162,"id":1025591,"member_count":0,"lat":49.880001068115234},{"zip":"meetup415","country":"lu","localized_country_name":"Luxembourg","distance":9617.216603037627,"city":"Neunhausen","lon":5.880000114440918,"ranking":163,"id":1025847,"member_count":0,"lat":49.869998931884766},{"zip":"meetup160","country":"lu","localized_country_name":"Luxembourg","distance":9616.784163391583,"city":"Godbrange","lon":6.230000019073486,"ranking":164,"id":1025592,"member_count":0,"lat":49.720001220703125},{"zip":"meetup416","country":"lu","localized_country_name":"Luxembourg","distance":9639.003655727107,"city":"Pissange","lon":6,"ranking":165,"id":1025848,"member_count":0,"lat":49.540000915527344},{"zip":"meetup161","country":"lu","localized_country_name":"Luxembourg","distance":9620.982634169315,"city":"Gosseldange","lon":6.110000133514404,"ranking":166,"id":1025593,"member_count":0,"lat":49.720001220703125},{"zip":"meetup417","country":"lu","localized_country_name":"Luxembourg","distance":9596.1299483759,"city":"Roder","lon":6.079999923706055,"ranking":167,"id":1025849,"member_count":0,"lat":50.04999923706055},{"zip":"meetup418","country":"lu","localized_country_name":"Luxembourg","distance":9595.760130612065,"city":"Troine-Route","lon":6,"ranking":168,"id":1025850,"member_count":0,"lat":50.09000015258789},{"zip":"meetup163","country":"lu","localized_country_name":"Luxembourg","distance":9608.324654375869,"city":"Scheidgen","lon":6.360000133514404,"ranking":169,"id":1025595,"member_count":0,"lat":49.77000045776367},{"zip":"meetup419","country":"lu","localized_country_name":"Luxembourg","distance":9603.198095186544,"city":"Walsdorf","lon":6.170000076293945,"ranking":170,"id":1025851,"member_count":0,"lat":49.91999816894531},{"zip":"meetup164","country":"lu","localized_country_name":"Luxembourg","distance":9631.963531115944,"city":"Hassel","lon":6.199999809265137,"ranking":171,"id":1025596,"member_count":0,"lat":49.540000915527344},{"zip":"meetup420","country":"lu","localized_country_name":"Luxembourg","distance":9604.9732846642,"city":"Allerborn","lon":5.869999885559082,"ranking":172,"id":1025852,"member_count":0,"lat":50.029998779296875},{"zip":"meetup165","country":"lu","localized_country_name":"Luxembourg","distance":9630.957064049404,"city":"Goeblange","lon":5.960000038146973,"ranking":173,"id":1025597,"member_count":0,"lat":49.65999984741211},{"zip":"meetup166","country":"lu","localized_country_name":"Luxembourg","distance":9596.822215533624,"city":"Marnach","lon":6.059999942779541,"ranking":174,"id":1025598,"member_count":0,"lat":50.04999923706055},{"zip":"meetup422","country":"lu","localized_country_name":"Luxembourg","distance":9608.906497300472,"city":"Grümelscheid","lon":5.869999885559082,"ranking":175,"id":1025854,"member_count":0,"lat":49.97999954223633},{"zip":"meetup167","country":"lu","localized_country_name":"Luxembourg","distance":9611.702995466518,"city":"Manternach","lon":6.420000076293945,"ranking":176,"id":1025599,"member_count":0,"lat":49.70000076293945},{"zip":"meetup423","country":"lu","localized_country_name":"Luxembourg","distance":9591.174432656717,"city":"Kalborn","lon":6.110000133514404,"ranking":177,"id":1025855,"member_count":0,"lat":50.099998474121094},{"zip":"meetup168","country":"lu","localized_country_name":"Luxembourg","distance":9631.820426058606,"city":"Schengen","lon":6.360000133514404,"ranking":178,"id":1025600,"member_count":0,"lat":49.470001220703125},{"zip":"meetup424","country":"lu","localized_country_name":"Luxembourg","distance":9613.628506896159,"city":"Mecher","lon":5.869999885559082,"ranking":179,"id":1025856,"member_count":0,"lat":49.91999816894531},{"zip":"meetup169","country":"lu","localized_country_name":"Luxembourg","distance":9638.651565027343,"city":"Ehlange","lon":6.010000228881836,"ranking":180,"id":1025601,"member_count":0,"lat":49.540000915527344},{"zip":"meetup425","country":"lu","localized_country_name":"Luxembourg","distance":9604.119332998453,"city":"Selscheid","lon":5.940000057220459,"ranking":181,"id":1025857,"member_count":0,"lat":50.0099983215332},{"zip":"meetup170","country":"lu","localized_country_name":"Luxembourg","distance":9629.689271776273,"city":"Syren","lon":6.21999979019165,"ranking":182,"id":1025602,"member_count":0,"lat":49.560001373291016},{"zip":"meetup426","country":"lu","localized_country_name":"Luxembourg","distance":9601.34597707706,"city":"Siebenaler","lon":6.019999980926514,"ranking":183,"id":1025858,"member_count":0,"lat":50.0099983215332},{"zip":"meetup171","country":"lu","localized_country_name":"Luxembourg","distance":9614.687959061483,"city":"Eschdorf","lon":5.929999828338623,"ranking":184,"id":1025603,"member_count":0,"lat":49.880001068115234},{"zip":"meetup172","country":"lu","localized_country_name":"Luxembourg","distance":9613.295163196666,"city":"Heiderscheid","lon":5.96999979019165,"ranking":185,"id":1025604,"member_count":0,"lat":49.880001068115234},{"zip":"meetup173","country":"lu","localized_country_name":"Luxembourg","distance":9592.994580040984,"city":"Heinerscheid","lon":6.079999923706055,"ranking":186,"id":1025605,"member_count":0,"lat":50.09000015258789},{"zip":"meetup429","country":"lu","localized_country_name":"Luxembourg","distance":9591.33449645114,"city":"Breidfeld","lon":6.059999942779541,"ranking":187,"id":1025861,"member_count":0,"lat":50.119998931884766},{"zip":"meetup174","country":"lu","localized_country_name":"Luxembourg","distance":9605.811714304007,"city":"Moestroff","lon":6.230000019073486,"ranking":188,"id":1025606,"member_count":0,"lat":49.86000061035156},{"zip":"meetup175","country":"lu","localized_country_name":"Luxembourg","distance":9614.787091410335,"city":"Cruchten","lon":6.130000114440918,"ranking":189,"id":1025607,"member_count":0,"lat":49.790000915527344},{"zip":"meetup431","country":"lu","localized_country_name":"Luxembourg","distance":9599.174931769096,"city":"Neidhausen","lon":6.059999942779541,"ranking":190,"id":1025863,"member_count":0,"lat":50.02000045776367},{"zip":"meetup176","country":"lu","localized_country_name":"Luxembourg","distance":9622.639173222942,"city":"Hünsdorf","lon":6.130000114440918,"ranking":191,"id":1025608,"member_count":0,"lat":49.689998626708984},{"zip":"meetup432","country":"lu","localized_country_name":"Luxembourg","distance":9610.827595359053,"city":"Pommerloch","lon":5.860000133514404,"ranking":192,"id":1025864,"member_count":0,"lat":49.959999084472656},{"zip":"meetup177","country":"lu","localized_country_name":"Luxembourg","distance":9610.253380956581,"city":"Stegen","lon":6.170000076293945,"ranking":193,"id":1025609,"member_count":0,"lat":49.83000183105469},{"zip":"meetup433","country":"lu","localized_country_name":"Luxembourg","distance":9624.308098974641,"city":"Schwebach","lon":5.96999979019165,"ranking":194,"id":1025865,"member_count":0,"lat":49.7400016784668},{"zip":"meetup178","country":"lu","localized_country_name":"Luxembourg","distance":9610.33492085843,"city":"Waldbillig","lon":6.28000020980835,"ranking":195,"id":1025610,"member_count":0,"lat":49.779998779296875},{"zip":"meetup434","country":"lu","localized_country_name":"Luxembourg","distance":9595.945779818245,"city":"Urspelt","lon":6.039999961853027,"ranking":196,"id":1025866,"member_count":0,"lat":50.06999969482422},{"zip":"meetup179","country":"lu","localized_country_name":"Luxembourg","distance":9596.797352829351,"city":"Asselborn","lon":5.96999979019165,"ranking":197,"id":1025611,"member_count":0,"lat":50.09000015258789},{"zip":"meetup435","country":"lu","localized_country_name":"Luxembourg","distance":9614.502474632789,"city":"Breinert","lon":6.340000152587891,"ranking":198,"id":1025867,"member_count":0,"lat":49.70000076293945},{"zip":"meetup436","country":"lu","localized_country_name":"Luxembourg","distance":9612.070714618043,"city":"Heiderscheid-Fond","lon":5.960000038146973,"ranking":199,"id":1025868,"member_count":0,"lat":49.900001525878906}],"meta":{"next":"http:\/\/api.meetup.com\/2\/cities?country=lu&offset=1&sign=True&format=json&photo-host=public&page=200&radius=50&order=size&desc=false","method":"Cities","total_count":454,"link":"http:\/\/api.meetup.com\/2\/cities","count":200,"description":"Returns Meetup cities. This method supports search by latitude\/longitude\/radius, by country\/state, by query term\/zip, or a combination of all of these. Location-only searches by lat and lon return all cities within a radius of the provided coordinates. Searches with a query return up to 10 cities matching the term, and can be sorted by size or distance to a given coordinate. 'smart' ordering can be used to return the match(es) with the highest member_count, unless a smaller size match exists nearby the given coordinates. Query searches are supported for country but not country and state","lon":"None","title":"Cities","url":"http:\/\/api.meetup.com\/2\/cities?country=lu&offset=0&sign=True&format=json&photo-host=public&page=200&radius=50&order=size&desc=false","id":"","updated":1251864867000,"lat":"None"}}
