{"results":[{"zip":"meetup1","country":"md","localized_country_name":"Moldova","distance":8991.428364626148,"city":"Chisinau","lon":28.829999923706055,"ranking":0,"id":1026166,"member_count":73,"lat":47.029998779296875},{"zip":"meetup3","country":"md","localized_country_name":"Moldova","distance":8984.620727119893,"city":"Balti","lon":27.90999984741211,"ranking":1,"id":1026168,"member_count":8,"lat":47.7599983215332},{"zip":"meetup2","country":"md","localized_country_name":"Moldova","distance":8972.198982522747,"city":"Tiraspol'","lon":29.6299991607666,"ranking":2,"id":1026167,"member_count":2,"lat":46.849998474121094},{"zip":"meetup6","country":"md","localized_country_name":"Moldova","distance":9075.920677590311,"city":"Cahul","lon":28.190000534057617,"ranking":3,"id":1026171,"member_count":2,"lat":45.90999984741211},{"zip":"meetup15","country":"md","localized_country_name":"Moldova","distance":8982.840463877605,"city":"Edinet","lon":27.31999969482422,"ranking":4,"id":1026180,"member_count":2,"lat":48.16999816894531},{"zip":"meetup23","country":"md","localized_country_name":"Moldova","distance":9020.259458123945,"city":"Cimislia","lon":28.780000686645508,"ranking":5,"id":1026188,"member_count":2,"lat":46.529998779296875},{"zip":"meetup10","country":"md","localized_country_name":"Moldova","distance":8972.411705240278,"city":"Orhei","lon":28.81999969482422,"ranking":6,"id":1026175,"member_count":1,"lat":47.38999938964844},{"zip":"meetup14","country":"md","localized_country_name":"Moldova","distance":8991.356919895965,"city":"Causani","lon":29.40999984741211,"ranking":7,"id":1026179,"member_count":1,"lat":46.63999938964844},{"zip":"meetup19","country":"md","localized_country_name":"Moldova","distance":8996.931566858982,"city":"Calarasi","lon":28.329999923706055,"ranking":8,"id":1026184,"member_count":1,"lat":47.2599983215332},{"zip":"meetup32","country":"md","localized_country_name":"Moldova","distance":9041.670878303548,"city":"Leova","lon":28.239999771118164,"ranking":9,"id":1026197,"member_count":1,"lat":46.5},{"zip":"meetup4","country":"md","localized_country_name":"Moldova","distance":8978.684557568611,"city":"Tighina","lon":29.479999542236328,"ranking":10,"id":1026169,"member_count":0,"lat":46.83000183105469},{"zip":"meetup5","country":"md","localized_country_name":"Moldova","distance":8945.699727256955,"city":"Rabnita","lon":29,"ranking":11,"id":1026170,"member_count":0,"lat":47.77000045776367},{"zip":"meetup7","country":"md","localized_country_name":"Moldova","distance":8949.261006056873,"city":"Soroca","lon":28.299999237060547,"ranking":12,"id":1026172,"member_count":0,"lat":48.15999984741211},{"zip":"meetup8","country":"md","localized_country_name":"Moldova","distance":9018.309357313527,"city":"Ungheni","lon":27.809999465942383,"ranking":13,"id":1026173,"member_count":0,"lat":47.209999084472656},{"zip":"meetup9","country":"md","localized_country_name":"Moldova","distance":8966.71850016585,"city":"Dubasari","lon":29.15999984741211,"ranking":14,"id":1026174,"member_count":0,"lat":47.27000045776367},{"zip":"meetup11","country":"md","localized_country_name":"Moldova","distance":9036.604433266597,"city":"Comrat","lon":28.65999984741211,"ranking":15,"id":1026176,"member_count":0,"lat":46.310001373291016},{"zip":"meetup12","country":"md","localized_country_name":"Moldova","distance":9043.901264913802,"city":"Ciadar Lunga","lon":28.829999923706055,"ranking":16,"id":1026177,"member_count":0,"lat":46.060001373291016},{"zip":"meetup13","country":"md","localized_country_name":"Moldova","distance":8973.050390956369,"city":"Drochia","lon":27.81999969482422,"ranking":17,"id":1026178,"member_count":0,"lat":48.029998779296875},{"zip":"meetup16","country":"md","localized_country_name":"Moldova","distance":9001.196921237868,"city":"Falesti","lon":27.719999313354492,"ranking":18,"id":1026181,"member_count":0,"lat":47.58000183105469},{"zip":"meetup17","country":"md","localized_country_name":"Moldova","distance":8954.015198198065,"city":"Hancesti","lon":28.8700008392334,"ranking":19,"id":1026182,"member_count":0,"lat":47.70000076293945},{"zip":"meetup18","country":"md","localized_country_name":"Moldova","distance":8974.608965365183,"city":"Slobozia","lon":29.709999084472656,"ranking":20,"id":1026183,"member_count":0,"lat":46.75},{"zip":"meetup20","country":"md","localized_country_name":"Moldova","distance":8963.487529074775,"city":"Floresti","lon":28.309999465942383,"ranking":21,"id":1026185,"member_count":0,"lat":47.88999938964844},{"zip":"meetup21","country":"md","localized_country_name":"Moldova","distance":9080.319284307032,"city":"Vulcanesti","lon":28.40999984741211,"ranking":22,"id":1026186,"member_count":0,"lat":45.68000030517578},{"zip":"meetup22","country":"md","localized_country_name":"Moldova","distance":8985.636087081168,"city":"Rascani","lon":27.56999969482422,"ranking":23,"id":1026187,"member_count":0,"lat":47.959999084472656},{"zip":"meetup24","country":"md","localized_country_name":"Moldova","distance":9011.579115201434,"city":"Nisporeni","lon":28.18000030517578,"ranking":24,"id":1026189,"member_count":0,"lat":47.09000015258789},{"zip":"meetup25","country":"md","localized_country_name":"Moldova","distance":9058.555880269334,"city":"Taraclia","lon":28.670000076293945,"ranking":25,"id":1026190,"member_count":0,"lat":45.900001525878906},{"zip":"meetup26","country":"md","localized_country_name":"Moldova","distance":9023.568239986327,"city":"Basarabeasca","lon":28.969999313354492,"ranking":26,"id":1026191,"member_count":0,"lat":46.34000015258789},{"zip":"meetup27","country":"md","localized_country_name":"Moldova","distance":8948.173582930935,"city":"Rezina","lon":28.959999084472656,"ranking":27,"id":1026192,"member_count":0,"lat":47.75},{"zip":"meetup28","country":"md","localized_country_name":"Moldova","distance":8973.206901381167,"city":"Dnestrovsc","lon":29.8799991607666,"ranking":28,"id":1026193,"member_count":0,"lat":46.65999984741211},{"zip":"meetup29","country":"md","localized_country_name":"Moldova","distance":8942.685296691592,"city":"Camenca","lon":28.719999313354492,"ranking":29,"id":1026194,"member_count":0,"lat":48.0099983215332},{"zip":"meetup30","country":"md","localized_country_name":"Moldova","distance":8969.601595897142,"city":"Donduseni","lon":27.59000015258789,"ranking":30,"id":1026195,"member_count":0,"lat":48.2400016784668},{"zip":"meetup31","country":"md","localized_country_name":"Moldova","distance":9001.687651038766,"city":"Glodeni","lon":27.520000457763672,"ranking":31,"id":1026196,"member_count":0,"lat":47.70000076293945},{"zip":"meetup33","country":"md","localized_country_name":"Moldova","distance":8967.756290020347,"city":"Griguriopol","lon":29.309999465942383,"ranking":32,"id":1026198,"member_count":0,"lat":47.150001525878906},{"zip":"meetup34","country":"md","localized_country_name":"Moldova","distance":8959.730349023273,"city":"Briceni","lon":27.670000076293945,"ranking":33,"id":1026199,"member_count":0,"lat":48.369998931884766},{"zip":"meetup35","country":"md","localized_country_name":"Moldova","distance":8963.369105058331,"city":"Ocnita","lon":27.469999313354492,"ranking":34,"id":1026200,"member_count":0,"lat":48.43000030517578},{"zip":"meetup36","country":"md","localized_country_name":"Moldova","distance":8992.858567892423,"city":"Straseni","lon":28.610000610351562,"ranking":35,"id":1026201,"member_count":0,"lat":47.150001525878906},{"zip":"meetup37","country":"md","localized_country_name":"Moldova","distance":8982.478575277692,"city":"Telenesti","lon":28.3700008392334,"ranking":36,"id":1026202,"member_count":0,"lat":47.5}],"meta":{"next":"","method":"Cities","total_count":37,"link":"http:\/\/api.meetup.com\/2\/cities","count":37,"description":"Returns Meetup cities. This method supports search by latitude\/longitude\/radius, by country\/state, by query term\/zip, or a combination of all of these. Location-only searches by lat and lon return all cities within a radius of the provided coordinates. Searches with a query return up to 10 cities matching the term, and can be sorted by size or distance to a given coordinate. 'smart' ordering can be used to return the match(es) with the highest member_count, unless a smaller size match exists nearby the given coordinates. Query searches are supported for country but not country and state","lon":"None","title":"Cities","url":"http:\/\/api.meetup.com\/2\/cities?country=md&offset=0&sign=True&format=json&photo-host=public&page=200&radius=50&order=size&desc=false","id":"","updated":1251864867000,"lat":"None"}}
