{"results":[{"zip":"meetup1","country":"ml","localized_country_name":"Mali","distance":12430.241661605445,"city":"Bamako","lon":-7.989999771118164,"ranking":0,"id":1026394,"member_count":22,"lat":12.649999618530273},{"zip":"meetup34","country":"ml","localized_country_name":"Mali","distance":12276.146599546148,"city":"Araouane","lon":-3.5299999713897705,"ranking":1,"id":1026427,"member_count":2,"lat":18.899999618530273},{"zip":"meetup3","country":"ml","localized_country_name":"Mali","distance":12486.408425167738,"city":"Mopti","lon":-4.179999828338623,"ranking":2,"id":1026396,"member_count":1,"lat":14.489999771118164},{"zip":"meetup8","country":"ml","localized_country_name":"Mali","distance":12421.797898986371,"city":"Kati","lon":-8.079999923706055,"ranking":3,"id":1026401,"member_count":1,"lat":12.75},{"zip":"meetup14","country":"ml","localized_country_name":"Mali","distance":12569.072068070342,"city":"San´a","lon":-4.900000095367432,"ranking":4,"id":1026407,"member_count":1,"lat":13.300000190734863},{"zip":"meetup28","country":"ml","localized_country_name":"Mali","distance":12587.446940734611,"city":"Yorosso","lon":-4.789999961853027,"ranking":5,"id":1026421,"member_count":1,"lat":12.369999885559082},{"zip":"meetup36","country":"ml","localized_country_name":"Mali","distance":12488.527733264229,"city":"Sokolo","lon":-6.130000114440918,"ranking":6,"id":1026429,"member_count":1,"lat":14.739999771118164},{"zip":"meetup38","country":"ml","localized_country_name":"Mali","distance":11935.969865461173,"city":"Tessalit","lon":0.9800000190734863,"ranking":7,"id":1026431,"member_count":1,"lat":20.280000686645508},{"zip":"meetup2","country":"ml","localized_country_name":"Mali","distance":12613.0392703311,"city":"Sikasso","lon":-5.679999828338623,"ranking":8,"id":1026395,"member_count":0,"lat":11.319999694824219},{"zip":"meetup4","country":"ml","localized_country_name":"Mali","distance":12520.442470044381,"city":"Ségou","lon":-6.260000228881836,"ranking":9,"id":1026397,"member_count":0,"lat":13.4399995803833},{"zip":"meetup5","country":"ml","localized_country_name":"Mali","distance":12600.570705657392,"city":"Koutiala","lon":-5.46999979019165,"ranking":10,"id":1026398,"member_count":0,"lat":12.390000343322754},{"zip":"meetup6","country":"ml","localized_country_name":"Mali","distance":12157.649816132029,"city":"Nkayi","lon":-11.4399995803833,"ranking":11,"id":1026399,"member_count":0,"lat":14.449999809265137},{"zip":"meetup7","country":"ml","localized_country_name":"Mali","distance":12251.33570422831,"city":"Nioro","lon":-9.59000015258789,"ranking":12,"id":1026400,"member_count":0,"lat":15.229999542236328},{"zip":"meetup9","country":"ml","localized_country_name":"Mali","distance":12525.941477707474,"city":"Markala","lon":-6.070000171661377,"ranking":13,"id":1026402,"member_count":0,"lat":13.670000076293945},{"zip":"meetup10","country":"ml","localized_country_name":"Mali","distance":12163.098108994047,"city":"Gao","lon":-0.05000000074505806,"ranking":14,"id":1026403,"member_count":0,"lat":16.270000457763672},{"zip":"meetup11","country":"ml","localized_country_name":"Mali","distance":12400.918758090831,"city":"Kolokani","lon":-8.050000190734863,"ranking":15,"id":1026404,"member_count":0,"lat":13.579999923706055},{"zip":"meetup12","country":"ml","localized_country_name":"Mali","distance":12331.288891956248,"city":"Tombouctou","lon":-3.009999990463257,"ranking":16,"id":1026405,"member_count":0,"lat":16.780000686645508},{"zip":"meetup13","country":"ml","localized_country_name":"Mali","distance":12492.560816414709,"city":"Bougouni","lon":-7.489999771118164,"ranking":17,"id":1026406,"member_count":0,"lat":11.420000076293945},{"zip":"meetup15","country":"ml","localized_country_name":"Mali","distance":12513.937829050441,"city":"Niono","lon":-5.989999771118164,"ranking":18,"id":1026408,"member_count":0,"lat":14.229999542236328},{"zip":"meetup16","country":"ml","localized_country_name":"Mali","distance":12450.997438403987,"city":"Koulikoro","lon":-7.579999923706055,"ranking":19,"id":1026409,"member_count":0,"lat":12.869999885559082},{"zip":"meetup17","country":"ml","localized_country_name":"Mali","distance":12440.468741044038,"city":"Banamba","lon":-7.449999809265137,"ranking":20,"id":1026410,"member_count":0,"lat":13.550000190734863},{"zip":"meetup18","country":"ml","localized_country_name":"Mali","distance":12400.330304451652,"city":"Nara","lon":-7.28000020980835,"ranking":21,"id":1026411,"member_count":0,"lat":15.180000305175781},{"zip":"meetup19","country":"ml","localized_country_name":"Mali","distance":12528.70715784325,"city":"Djenné","lon":-4.559999942779541,"ranking":22,"id":1026412,"member_count":0,"lat":13.920000076293945},{"zip":"meetup20","country":"ml","localized_country_name":"Mali","distance":12216.321747028112,"city":"Bafoulabé","lon":-10.819999694824219,"ranking":23,"id":1026413,"member_count":0,"lat":13.800000190734863},{"zip":"meetup21","country":"ml","localized_country_name":"Mali","distance":12418.651545678029,"city":"Kangaba","lon":-8.4399995803833,"ranking":24,"id":1026414,"member_count":0,"lat":11.9399995803833},{"zip":"meetup22","country":"ml","localized_country_name":"Mali","distance":12246.853116137458,"city":"Diré","lon":-10.960000038146973,"ranking":25,"id":1026415,"member_count":0,"lat":12.279999732971191},{"zip":"meetup23","country":"ml","localized_country_name":"Mali","distance":11988.510501230328,"city":"Kidal","lon":1.409999966621399,"ranking":26,"id":1026416,"member_count":0,"lat":18.450000762939453},{"zip":"meetup24","country":"ml","localized_country_name":"Mali","distance":12429.858438111787,"city":"Koro","lon":-3.0899999141693115,"ranking":27,"id":1026417,"member_count":0,"lat":14.0600004196167},{"zip":"meetup25","country":"ml","localized_country_name":"Mali","distance":12425.015817675387,"city":"Niafunké","lon":-3.990000009536743,"ranking":28,"id":1026418,"member_count":0,"lat":15.930000305175781},{"zip":"meetup26","country":"ml","localized_country_name":"Mali","distance":12386.899089292268,"city":"Goundam","lon":-3.680000066757202,"ranking":29,"id":1026419,"member_count":0,"lat":16.43000030517578},{"zip":"meetup27","country":"ml","localized_country_name":"Mali","distance":12539.254493160393,"city":"Kolondiéba","lon":-6.889999866485596,"ranking":30,"id":1026420,"member_count":0,"lat":11.079999923706055},{"zip":"meetup29","country":"ml","localized_country_name":"Mali","distance":12562.578616280387,"city":"Ké-Massina","lon":-5.360000133514404,"ranking":31,"id":1026422,"member_count":0,"lat":13.970000267028809},{"zip":"meetup30","country":"ml","localized_country_name":"Mali","distance":12391.661904307795,"city":"Douentza","lon":-2.9600000381469727,"ranking":32,"id":1026423,"member_count":0,"lat":15},{"zip":"meetup31","country":"ml","localized_country_name":"Mali","distance":12454.287015038642,"city":"Bandiagara","lon":-3.609999895095825,"ranking":33,"id":1026424,"member_count":0,"lat":14.350000381469727},{"zip":"meetup32","country":"ml","localized_country_name":"Mali","distance":12535.179011427374,"city":"Tenenkou","lon":-4.920000076293945,"ranking":34,"id":1026425,"member_count":0,"lat":14.449999809265137},{"zip":"meetup33","country":"ml","localized_country_name":"Mali","distance":12583.969969210022,"city":"Kimparana","lon":-4.929999828338623,"ranking":35,"id":1026426,"member_count":0,"lat":12.84000015258789},{"zip":"meetup35","country":"ml","localized_country_name":"Mali","distance":12322.902650690192,"city":"Kita","lon":-9.489999771118164,"ranking":36,"id":1026428,"member_count":0,"lat":13.039999961853027},{"zip":"meetup37","country":"ml","localized_country_name":"Mali","distance":12116.543948190394,"city":"Taoudenni","lon":-3.9800000190734863,"ranking":37,"id":1026430,"member_count":0,"lat":22.670000076293945}],"meta":{"next":"","method":"Cities","total_count":38,"link":"http:\/\/api.meetup.com\/2\/cities","count":38,"description":"Returns Meetup cities. This method supports search by latitude\/longitude\/radius, by country\/state, by query term\/zip, or a combination of all of these. Location-only searches by lat and lon return all cities within a radius of the provided coordinates. Searches with a query return up to 10 cities matching the term, and can be sorted by size or distance to a given coordinate. 'smart' ordering can be used to return the match(es) with the highest member_count, unless a smaller size match exists nearby the given coordinates. Query searches are supported for country but not country and state","lon":"None","title":"Cities","url":"http:\/\/api.meetup.com\/2\/cities?country=ml&offset=0&sign=True&format=json&photo-host=public&page=200&radius=50&order=size&desc=false","id":"","updated":1251864867000,"lat":"None"}}
