{"results":[{"zip":"meetup1","country":"mw","localized_country_name":"Malawi","distance":9407.289972374212,"city":"Blantyre","lon":34.9900016784668,"ranking":0,"id":1026962,"member_count":25,"lat":-15.789999961853027},{"zip":"meetup2","country":"mw","localized_country_name":"Malawi","distance":9583.92216280308,"city":"Lilongwe","lon":33.79999923706055,"ranking":1,"id":1026963,"member_count":24,"lat":-13.970000267028809},{"zip":"meetup13","country":"mw","localized_country_name":"Malawi","distance":9453.839797301154,"city":"Balaka","lon":34.959999084472656,"ranking":2,"id":1026974,"member_count":7,"lat":-14.979999542236328},{"zip":"meetup4","country":"mw","localized_country_name":"Malawi","distance":9408.444995531107,"city":"Zomba","lon":35.310001373291016,"ranking":3,"id":1026965,"member_count":4,"lat":-15.390000343322754},{"zip":"meetup3","country":"mw","localized_country_name":"Malawi","distance":9691.740893045262,"city":"Mzuzu","lon":34.02000045776367,"ranking":4,"id":1026964,"member_count":3,"lat":-11.460000038146973},{"zip":"meetup7","country":"mw","localized_country_name":"Malawi","distance":9653.323295180822,"city":"Kasungu","lon":33.47999954223633,"ranking":5,"id":1026968,"member_count":3,"lat":-13.020000457763672},{"zip":"meetup6","country":"mw","localized_country_name":"Malawi","distance":9461.161632568272,"city":"Mangochi","lon":35.27000045776367,"ranking":6,"id":1026967,"member_count":2,"lat":-14.460000038146973},{"zip":"meetup15","country":"mw","localized_country_name":"Malawi","distance":9699.820341550294,"city":"Mzimba","lon":33.599998474121094,"ranking":7,"id":1026976,"member_count":2,"lat":-11.890000343322754},{"zip":"meetup5","country":"mw","localized_country_name":"Malawi","distance":9762.993913156937,"city":"Karonga","lon":33.95000076293945,"ranking":8,"id":1026966,"member_count":1,"lat":-9.9399995803833},{"zip":"meetup12","country":"mw","localized_country_name":"Malawi","distance":9528.500008852312,"city":"Dedza","lon":34.33000183105469,"ranking":9,"id":1026973,"member_count":1,"lat":-14.359999656677246},{"zip":"meetup16","country":"mw","localized_country_name":"Malawi","distance":9360.875139309961,"city":"Mulanje","lon":35.5,"ranking":10,"id":1026977,"member_count":1,"lat":-16.020000457763672},{"zip":"meetup18","country":"mw","localized_country_name":"Malawi","distance":9612.823406729774,"city":"Mponela","lon":33.720001220703125,"ranking":11,"id":1026979,"member_count":1,"lat":-13.510000228881836},{"zip":"meetup30","country":"mw","localized_country_name":"Malawi","distance":9591.789501640771,"city":"Dowa","lon":33.93000030517578,"ranking":12,"id":1026991,"member_count":1,"lat":-13.649999618530273},{"zip":"meetup8","country":"mw","localized_country_name":"Malawi","distance":9552.556554041957,"city":"Salima","lon":34.43000030517578,"ranking":13,"id":1026969,"member_count":0,"lat":-13.770000457763672},{"zip":"meetup9","country":"mw","localized_country_name":"Malawi","distance":9604.356009790437,"city":"Nkhotakota","lon":34.29999923706055,"ranking":14,"id":1026970,"member_count":0,"lat":-12.90999984741211},{"zip":"meetup10","country":"mw","localized_country_name":"Malawi","distance":9324.758588849772,"city":"Nsanje","lon":35.27000045776367,"ranking":15,"id":1026971,"member_count":0,"lat":-16.90999984741211},{"zip":"meetup11","country":"mw","localized_country_name":"Malawi","distance":9432.921838043841,"city":"Liwonde","lon":35.220001220703125,"ranking":16,"id":1026972,"member_count":0,"lat":-15.050000190734863},{"zip":"meetup14","country":"mw","localized_country_name":"Malawi","distance":9722.045069060965,"city":"Rumphi","lon":33.869998931884766,"ranking":17,"id":1026975,"member_count":0,"lat":-11.010000228881836},{"zip":"meetup17","country":"mw","localized_country_name":"Malawi","distance":9653.59078421512,"city":"Mchinji","lon":32.880001068115234,"ranking":18,"id":1026978,"member_count":0,"lat":-13.800000190734863},{"zip":"meetup19","country":"mw","localized_country_name":"Malawi","distance":9731.136409681234,"city":"Chilumba","lon":33.68000030517578,"ranking":19,"id":1026980,"member_count":0,"lat":-11.09000015258789},{"zip":"meetup20","country":"mw","localized_country_name":"Malawi","distance":9667.14020494767,"city":"Nkhata Bay","lon":34.29999923706055,"ranking":20,"id":1026981,"member_count":0,"lat":-11.59000015258789},{"zip":"meetup21","country":"mw","localized_country_name":"Malawi","distance":9374.565432132931,"city":"Luchenza","lon":35.29999923706055,"ranking":21,"id":1026982,"member_count":0,"lat":-16.010000228881836},{"zip":"meetup22","country":"mw","localized_country_name":"Malawi","distance":9504.680800375501,"city":"Monkey Bay","lon":34.91999816894531,"ranking":22,"id":1026983,"member_count":0,"lat":-14.069999694824219},{"zip":"meetup23","country":"mw","localized_country_name":"Malawi","distance":9448.786434108453,"city":"Mwanza","lon":34.52000045776367,"ranking":23,"id":1026984,"member_count":0,"lat":-15.600000381469727},{"zip":"meetup24","country":"mw","localized_country_name":"Malawi","distance":9484.754058496204,"city":"Ntcheu","lon":34.630001068115234,"ranking":24,"id":1026985,"member_count":0,"lat":-14.8100004196167},{"zip":"meetup25","country":"mw","localized_country_name":"Malawi","distance":9818.860264144982,"city":"Chitipa","lon":33.27000045776367,"ranking":25,"id":1026986,"member_count":0,"lat":-9.6899995803833},{"zip":"meetup26","country":"mw","localized_country_name":"Malawi","distance":9407.473100449664,"city":"Chikwawa","lon":34.790000915527344,"ranking":26,"id":1026987,"member_count":0,"lat":-16.020000457763672},{"zip":"meetup27","country":"mw","localized_country_name":"Malawi","distance":9382.895364553859,"city":"Thyolo","lon":35.130001068115234,"ranking":27,"id":1026988,"member_count":0,"lat":-16.059999465942383},{"zip":"meetup28","country":"mw","localized_country_name":"Malawi","distance":9598.06375784169,"city":"Ntchisi","lon":34.08000183105469,"ranking":28,"id":1026989,"member_count":0,"lat":-13.329999923706055},{"zip":"meetup29","country":"mw","localized_country_name":"Malawi","distance":9723.870592195974,"city":"Livingstonia","lon":34.119998931884766,"ranking":29,"id":1026990,"member_count":0,"lat":-10.59000015258789},{"zip":"meetup31","country":"mw","localized_country_name":"Malawi","distance":9363.935380083145,"city":"Phalombe","lon":35.650001525878906,"ranking":30,"id":1026992,"member_count":0,"lat":-15.789999961853027},{"zip":"meetup32","country":"mw","localized_country_name":"Malawi","distance":9536.593921791078,"city":"Chipoka","lon":34.5,"ranking":31,"id":1026993,"member_count":0,"lat":-13.989999771118164},{"zip":"meetup33","country":"mw","localized_country_name":"Malawi","distance":9400.391950126474,"city":"Chiradzulu","lon":35.18000030517578,"ranking":32,"id":1026994,"member_count":0,"lat":-15.6899995803833},{"zip":"meetup34","country":"mw","localized_country_name":"Malawi","distance":9418.019186035508,"city":"Machinga","lon":35.52000045776367,"ranking":33,"id":1026995,"member_count":0,"lat":-14.960000038146973}],"meta":{"next":"","method":"Cities","total_count":34,"link":"http:\/\/api.meetup.com\/2\/cities","count":34,"description":"Returns Meetup cities. This method supports search by latitude\/longitude\/radius, by country\/state, by query term\/zip, or a combination of all of these. Location-only searches by lat and lon return all cities within a radius of the provided coordinates. Searches with a query return up to 10 cities matching the term, and can be sorted by size or distance to a given coordinate. 'smart' ordering can be used to return the match(es) with the highest member_count, unless a smaller size match exists nearby the given coordinates. Query searches are supported for country but not country and state","lon":"None","title":"Cities","url":"http:\/\/api.meetup.com\/2\/cities?country=mw&offset=0&sign=True&format=json&photo-host=public&page=200&radius=50&order=size&desc=false","id":"","updated":1251864867000,"lat":"None"}}
