{"results":[{"zip":"meetup1","country":"ne","localized_country_name":"Niger","distance":12110.176913050072,"city":"Niamey","lon":2.119999885559082,"ranking":0,"id":1029185,"member_count":8,"lat":13.520000457763672},{"zip":"meetup4","country":"ne","localized_country_name":"Niger","distance":11632.539682342462,"city":"Agadez","lon":7.980000019073486,"ranking":1,"id":1029188,"member_count":1,"lat":17},{"zip":"meetup5","country":"ne","localized_country_name":"Niger","distance":11870.448524088686,"city":"Tahoua","lon":5.260000228881836,"ranking":2,"id":1029189,"member_count":1,"lat":14.899999618530273},{"zip":"meetup7","country":"ne","localized_country_name":"Niger","distance":11901.283375658975,"city":"Birni N'Konni","lon":5.260000228881836,"ranking":3,"id":1029191,"member_count":1,"lat":13.789999961853027},{"zip":"meetup10","country":"ne","localized_country_name":"Niger","distance":11785.304317630358,"city":"Dakoro","lon":6.769999980926514,"ranking":4,"id":1029194,"member_count":1,"lat":14.510000228881836},{"zip":"meetup20","country":"ne","localized_country_name":"Niger","distance":11637.59113140244,"city":"Tanout","lon":8.890000343322754,"ranking":5,"id":1029204,"member_count":1,"lat":14.970000267028809},{"zip":"meetup28","country":"ne","localized_country_name":"Niger","distance":11792.269577244655,"city":"Madarounfa","lon":7.150000095367432,"ranking":6,"id":1029212,"member_count":1,"lat":13.300000190734863},{"zip":"meetup2","country":"ne","localized_country_name":"Niger","distance":11662.01757694126,"city":"Zinder","lon":8.989999771118164,"ranking":7,"id":1029186,"member_count":0,"lat":13.800000190734863},{"zip":"meetup3","country":"ne","localized_country_name":"Niger","distance":11790.844054381478,"city":"Maradi","lon":7.099999904632568,"ranking":8,"id":1029187,"member_count":0,"lat":13.489999771118164},{"zip":"meetup6","country":"ne","localized_country_name":"Niger","distance":11607.26738584705,"city":"Arlit","lon":7.329999923706055,"ranking":9,"id":1029190,"member_count":0,"lat":18.81999969482422},{"zip":"meetup8","country":"ne","localized_country_name":"Niger","distance":12052.756606572488,"city":"Dosso","lon":3.200000047683716,"ranking":10,"id":1029192,"member_count":0,"lat":13.050000190734863},{"zip":"meetup9","country":"ne","localized_country_name":"Niger","distance":11727.301813390588,"city":"Tessaoua","lon":7.989999771118164,"ranking":11,"id":1029193,"member_count":0,"lat":13.75},{"zip":"meetup11","country":"ne","localized_country_name":"Niger","distance":11984.184176801255,"city":"Dogondoutchi","lon":4.03000020980835,"ranking":12,"id":1029195,"member_count":0,"lat":13.640000343322754},{"zip":"meetup12","country":"ne","localized_country_name":"Niger","distance":12151.423848097722,"city":"Ayorou","lon":0.9300000071525574,"ranking":13,"id":1029196,"member_count":0,"lat":14.739999771118164},{"zip":"meetup13","country":"ne","localized_country_name":"Niger","distance":11653.346037211806,"city":"Mirriah","lon":9.15999984741211,"ranking":14,"id":1029197,"member_count":0,"lat":13.710000038146973},{"zip":"meetup14","country":"ne","localized_country_name":"Niger","distance":12070.709077674594,"city":"Birni N'Gaouré","lon":2.9100000858306885,"ranking":15,"id":1029198,"member_count":0,"lat":13.079999923706055},{"zip":"meetup15","country":"ne","localized_country_name":"Niger","distance":12060.994822653854,"city":"Gaya","lon":3.490000009536743,"ranking":16,"id":1029199,"member_count":0,"lat":11.890000343322754},{"zip":"meetup16","country":"ne","localized_country_name":"Niger","distance":11440.741854619167,"city":"Diffa","lon":12.619999885559082,"ranking":17,"id":1029200,"member_count":0,"lat":13.319999694824219},{"zip":"meetup17","country":"ne","localized_country_name":"Niger","distance":12184.001197608211,"city":"Téra","lon":0.7599999904632568,"ranking":18,"id":1029201,"member_count":0,"lat":14.010000228881836},{"zip":"meetup18","country":"ne","localized_country_name":"Niger","distance":11686.32723131111,"city":"Magaria","lon":8.90999984741211,"ranking":19,"id":1029202,"member_count":0,"lat":12.989999771118164},{"zip":"meetup19","country":"ne","localized_country_name":"Niger","distance":11884.353329163325,"city":"Illéla","lon":5.239999771118164,"ranking":20,"id":1029203,"member_count":0,"lat":14.460000038146973},{"zip":"meetup21","country":"ne","localized_country_name":"Niger","distance":11703.957465214598,"city":"Matameye","lon":8.479999542236328,"ranking":21,"id":1029205,"member_count":0,"lat":13.420000076293945},{"zip":"meetup22","country":"ne","localized_country_name":"Niger","distance":11387.32553503253,"city":"N'Guigmi","lon":13.119999885559082,"ranking":22,"id":1029206,"member_count":0,"lat":14.25},{"zip":"meetup23","country":"ne","localized_country_name":"Niger","distance":12133.97211236135,"city":"Tillabéry","lon":1.4500000476837158,"ranking":23,"id":1029207,"member_count":0,"lat":14.210000038146973},{"zip":"meetup24","country":"ne","localized_country_name":"Niger","distance":11791.178605100029,"city":"Tibiri","lon":7.059999942779541,"ranking":24,"id":1029208,"member_count":0,"lat":13.579999923706055},{"zip":"meetup25","country":"ne","localized_country_name":"Niger","distance":11812.012405534166,"city":"Guidan Roumdji","lon":6.699999809265137,"ranking":25,"id":1029209,"member_count":0,"lat":13.670000076293945},{"zip":"meetup26","country":"ne","localized_country_name":"Niger","distance":12009.558186258631,"city":"Filingué","lon":3.3299999237060547,"ranking":26,"id":1029210,"member_count":0,"lat":14.350000381469727},{"zip":"meetup27","country":"ne","localized_country_name":"Niger","distance":11841.385897571814,"city":"Keita","lon":5.78000020980835,"ranking":27,"id":1029211,"member_count":0,"lat":14.760000228881836},{"zip":"meetup29","country":"ne","localized_country_name":"Niger","distance":11480.984694166524,"city":"Maïné-Soroa","lon":12.029999732971191,"ranking":28,"id":1029213,"member_count":0,"lat":13.210000038146973},{"zip":"meetup30","country":"ne","localized_country_name":"Niger","distance":11849.013992553448,"city":"Madaoua","lon":5.960000038146973,"ranking":29,"id":1029214,"member_count":0,"lat":14.069999694824219},{"zip":"meetup31","country":"ne","localized_country_name":"Niger","distance":12089.782652227379,"city":"Ouallam","lon":2.0899999141693115,"ranking":30,"id":1029215,"member_count":0,"lat":14.319999694824219},{"zip":"meetup32","country":"ne","localized_country_name":"Niger","distance":11575.708417560181,"city":"Gouré","lon":10.270000457763672,"ranking":31,"id":1029216,"member_count":0,"lat":13.979999542236328},{"zip":"meetup33","country":"ne","localized_country_name":"Niger","distance":11742.205360482472,"city":"Mayahi","lon":7.670000076293945,"ranking":32,"id":1029217,"member_count":0,"lat":13.970000267028809},{"zip":"meetup34","country":"ne","localized_country_name":"Niger","distance":12105.424978954989,"city":"Say","lon":2.359999895095825,"ranking":33,"id":1029218,"member_count":0,"lat":13.109999656677246},{"zip":"meetup35","country":"ne","localized_country_name":"Niger","distance":12101.94157091634,"city":"Kollo","lon":2.3299999237060547,"ranking":34,"id":1029219,"member_count":0,"lat":13.319999694824219},{"zip":"meetup36","country":"ne","localized_country_name":"Niger","distance":12075.296505698583,"city":"Boboye","lon":2.869999885559082,"ranking":35,"id":1029220,"member_count":0,"lat":13},{"zip":"meetup37","country":"ne","localized_country_name":"Niger","distance":11638.211019333696,"city":"Tchirozérine","lon":7.829999923706055,"ranking":36,"id":1029221,"member_count":0,"lat":17.110000610351562},{"zip":"meetup38","country":"ne","localized_country_name":"Niger","distance":11701.46478417289,"city":"Kantché","lon":8.470000267028809,"ranking":37,"id":1029222,"member_count":0,"lat":13.550000190734863},{"zip":"meetup39","country":"ne","localized_country_name":"Niger","distance":11833.742538929915,"city":"Bouza","lon":6.050000190734863,"ranking":38,"id":1029223,"member_count":0,"lat":14.420000076293945},{"zip":"meetup40","country":"ne","localized_country_name":"Niger","distance":11746.949410500187,"city":"Aguié","lon":7.78000020980835,"ranking":39,"id":1029224,"member_count":0,"lat":13.5},{"zip":"meetup41","country":"ne","localized_country_name":"Niger","distance":11805.654986956328,"city":"Tchintabaraden","lon":5.800000190734863,"ranking":40,"id":1029225,"member_count":0,"lat":15.899999618530273},{"zip":"meetup42","country":"ne","localized_country_name":"Niger","distance":11266.33456896332,"city":"Bilma","lon":12.9399995803833,"ranking":41,"id":1029226,"member_count":0,"lat":18.690000534057617}],"meta":{"next":"","method":"Cities","total_count":42,"link":"http:\/\/api.meetup.com\/2\/cities","count":42,"description":"Returns Meetup cities. This method supports search by latitude\/longitude\/radius, by country\/state, by query term\/zip, or a combination of all of these. Location-only searches by lat and lon return all cities within a radius of the provided coordinates. Searches with a query return up to 10 cities matching the term, and can be sorted by size or distance to a given coordinate. 'smart' ordering can be used to return the match(es) with the highest member_count, unless a smaller size match exists nearby the given coordinates. Query searches are supported for country but not country and state","lon":"None","title":"Cities","url":"http:\/\/api.meetup.com\/2\/cities?country=ne&offset=0&sign=True&format=json&photo-host=public&page=200&radius=50&order=size&desc=false","id":"","updated":1251864867000,"lat":"None"}}
