{"results":[{"zip":"meetup1","country":"ng","localized_country_name":"Nigeria","distance":12136.180871445213,"city":"Lagos","lon":3.4700000286102295,"ranking":0,"id":1029228,"member_count":1761,"lat":6.449999809265137},{"zip":"meetup52","country":"ng","localized_country_name":"Nigeria","distance":11866.71719846744,"city":"Abuja","lon":7.170000076293945,"ranking":1,"id":1029279,"member_count":789,"lat":9.180000305175781},{"zip":"meetup5","country":"ng","localized_country_name":"Nigeria","distance":11905.01956130018,"city":"Port Harcourt","lon":7,"ranking":2,"id":1029232,"member_count":281,"lat":4.78000020980835},{"zip":"meetup9","country":"ng","localized_country_name":"Nigeria","distance":11881.612213408403,"city":"Aba","lon":7.349999904632568,"ranking":3,"id":1029236,"member_count":261,"lat":5.099999904632568},{"zip":"meetup3","country":"ng","localized_country_name":"Nigeria","distance":12099.297915172563,"city":"Ibadan","lon":3.930000066757202,"ranking":4,"id":1029230,"member_count":169,"lat":7.380000114440918},{"zip":"meetup6","country":"ng","localized_country_name":"Nigeria","distance":11993.694377850497,"city":"Benin","lon":5.619999885559082,"ranking":5,"id":1029233,"member_count":110,"lat":6.340000152587891},{"zip":"meetup14","country":"ng","localized_country_name":"Nigeria","distance":11868.727006774747,"city":"Enugu","lon":7.5,"ranking":6,"id":1029241,"member_count":84,"lat":6.329999923706055},{"zip":"meetup46","country":"ng","localized_country_name":"Nigeria","distance":11903.156489991734,"city":"Owerri","lon":7.019999980926514,"ranking":7,"id":1029273,"member_count":73,"lat":5.5},{"zip":"meetup17","country":"ng","localized_country_name":"Nigeria","distance":11987.826831087084,"city":"Warri","lon":5.75,"ranking":8,"id":1029244,"member_count":63,"lat":5.510000228881836},{"zip":"meetup4","country":"ng","localized_country_name":"Nigeria","distance":11829.712541423578,"city":"Kaduna","lon":7.440000057220459,"ranking":9,"id":1029231,"member_count":52,"lat":10.520000457763672},{"zip":"meetup15","country":"ng","localized_country_name":"Nigeria","distance":12139.511169578247,"city":"Abeokuta","lon":3.3499999046325684,"ranking":10,"id":1029242,"member_count":45,"lat":7.159999847412109},{"zip":"meetup20","country":"ng","localized_country_name":"Nigeria","distance":11817.566078002288,"city":"Calabar","lon":8.3100004196167,"ranking":11,"id":1029247,"member_count":43,"lat":4.960000038146973},{"zip":"meetup254","country":"ng","localized_country_name":"Nigeria","distance":11846.694162500158,"city":"´Îsa","lon":6.329999923706055,"ranking":12,"id":1029481,"member_count":42,"lat":13.229999542236328},{"zip":"meetup2","country":"ng","localized_country_name":"Nigeria","distance":11732.60448935097,"city":"Kano","lon":8.520000457763672,"ranking":13,"id":1029229,"member_count":30,"lat":12},{"zip":"meetup116","country":"ng","localized_country_name":"Nigeria","distance":11919.791684656248,"city":"Asaba","lon":6.739999771118164,"ranking":14,"id":1029343,"member_count":29,"lat":6.199999809265137},{"zip":"meetup11","country":"ng","localized_country_name":"Nigeria","distance":11743.910996083981,"city":"Jos","lon":8.890000343322754,"ranking":15,"id":1029238,"member_count":28,"lat":9.930000305175781},{"zip":"meetup25","country":"ng","localized_country_name":"Nigeria","distance":12132.60955389361,"city":"Ikorodu","lon":3.509999990463257,"ranking":16,"id":1029252,"member_count":25,"lat":6.610000133514404},{"zip":"meetup558","country":"ng","localized_country_name":"Nigeria","distance":11870.150841845798,"city":"Anambra","lon":7.400000095367432,"ranking":17,"id":1029785,"member_count":25,"lat":7.269999980926514},{"zip":"meetup412","country":"ng","localized_country_name":"Nigeria","distance":12147.101745268887,"city":"Surulere","lon":3.299999952316284,"ranking":18,"id":1029639,"member_count":24,"lat":6.519999980926514},{"zip":"meetup85","country":"ng","localized_country_name":"Nigeria","distance":11848.269645517197,"city":"Uyo","lon":7.849999904632568,"ranking":19,"id":1029312,"member_count":24,"lat":5.010000228881836},{"zip":"meetup10","country":"ng","localized_country_name":"Nigeria","distance":12048.696664117702,"city":"Ilorin","lon":4.53000020980835,"ranking":20,"id":1029237,"member_count":23,"lat":8.5},{"zip":"meetup23","country":"ng","localized_country_name":"Nigeria","distance":12016.102112039116,"city":"Akure","lon":5.199999809265137,"ranking":21,"id":1029250,"member_count":23,"lat":7.25},{"zip":"meetup47","country":"ng","localized_country_name":"Nigeria","distance":12104.118054273322,"city":"Ijebu Ode","lon":3.9200000762939453,"ranking":22,"id":1029274,"member_count":23,"lat":6.809999942779541},{"zip":"meetup24","country":"ng","localized_country_name":"Nigeria","distance":12055.467077413645,"city":"Ife","lon":4.570000171661377,"ranking":23,"id":1029251,"member_count":22,"lat":7.550000190734863},{"zip":"meetup16","country":"ng","localized_country_name":"Nigeria","distance":11917.285834023269,"city":"Onitsha","lon":6.78000020980835,"ranking":24,"id":1029243,"member_count":21,"lat":6.159999847412109},{"zip":"meetup21","country":"ng","localized_country_name":"Nigeria","distance":12052.31077498178,"city":"Oshogbo","lon":4.579999923706055,"ranking":25,"id":1029248,"member_count":20,"lat":7.829999923706055},{"zip":"meetup36","country":"ng","localized_country_name":"Nigeria","distance":11872.419849986089,"city":"Umuahia","lon":7.480000019073486,"ranking":26,"id":1029263,"member_count":20,"lat":5.539999961853027},{"zip":"meetup13","country":"ng","localized_country_name":"Nigeria","distance":12095.989608725396,"city":"Oyo","lon":3.9200000762939453,"ranking":27,"id":1029240,"member_count":19,"lat":7.829999923706055},{"zip":"meetup142","country":"ng","localized_country_name":"Nigeria","distance":11957.678106242627,"city":"Ekpoma","lon":6.130000114440918,"ranking":28,"id":1029369,"member_count":17,"lat":6.75},{"zip":"meetup37","country":"ng","localized_country_name":"Nigeria","distance":12041.140301359423,"city":"Ondo","lon":4.840000152587891,"ranking":29,"id":1029264,"member_count":15,"lat":7.090000152587891},{"zip":"meetup60","country":"ng","localized_country_name":"Nigeria","distance":11992.10694246002,"city":"Sapele","lon":5.670000076293945,"ranking":30,"id":1029287,"member_count":15,"lat":5.900000095367432},{"zip":"meetup84","country":"ng","localized_country_name":"Nigeria","distance":11873.411571151883,"city":"Nsukka","lon":7.389999866485596,"ranking":31,"id":1029311,"member_count":15,"lat":6.860000133514404},{"zip":"meetup649","country":"ng","localized_country_name":"Nigeria","distance":12091.42246736758,"city":"Egbeda","lon":4.050000190734863,"ranking":32,"id":1029876,"member_count":15,"lat":7.369999885559082},{"zip":"meetup22","country":"ng","localized_country_name":"Nigeria","distance":11770.4123806247,"city":"Katsina","lon":7.599999904632568,"ranking":33,"id":1029249,"member_count":12,"lat":13},{"zip":"meetup264","country":"ng","localized_country_name":"Nigeria","distance":11918.292484228574,"city":"Agenebode","lon":6.690000057220459,"ranking":34,"id":1029491,"member_count":9,"lat":7.110000133514404},{"zip":"meetup27","country":"ng","localized_country_name":"Nigeria","distance":12111.068947610229,"city":"Iseyin","lon":3.6700000762939453,"ranking":35,"id":1029254,"member_count":9,"lat":7.980000019073486},{"zip":"meetup32","country":"ng","localized_country_name":"Nigeria","distance":12008.08283992641,"city":"Ado","lon":5.269999980926514,"ranking":36,"id":1029259,"member_count":9,"lat":7.670000076293945},{"zip":"meetup628","country":"ng","localized_country_name":"Nigeria","distance":11928.419867743205,"city":"Abua","lon":6.650000095367432,"ranking":37,"id":1029855,"member_count":9,"lat":4.869999885559082},{"zip":"meetup28","country":"ng","localized_country_name":"Nigeria","distance":11901.868280359962,"city":"Minna","lon":6.550000190734863,"ranking":38,"id":1029255,"member_count":8,"lat":9.600000381469727},{"zip":"meetup300","country":"ng","localized_country_name":"Nigeria","distance":11955.135400197989,"city":"Yenagoa","lon":6.25,"ranking":39,"id":1029527,"member_count":8,"lat":4.929999828338623},{"zip":"meetup304","country":"ng","localized_country_name":"Nigeria","distance":11842.776033151107,"city":"Eket","lon":7.929999828338623,"ranking":40,"id":1029531,"member_count":8,"lat":4.630000114440918},{"zip":"meetup72","country":"ng","localized_country_name":"Nigeria","distance":11828.183105254331,"city":"Abakaliki","lon":8.109999656677246,"ranking":41,"id":1029299,"member_count":8,"lat":6.329999923706055},{"zip":"meetup12","country":"ng","localized_country_name":"Nigeria","distance":12076.33072488885,"city":"Ogbomosho","lon":4.179999828338623,"ranking":42,"id":1029239,"member_count":7,"lat":8.079999923706055},{"zip":"meetup29","country":"ng","localized_country_name":"Nigeria","distance":11791.947982086986,"city":"Makurdi","lon":8.529999732971191,"ranking":43,"id":1029256,"member_count":7,"lat":7.730000019073486},{"zip":"meetup98","country":"ng","localized_country_name":"Nigeria","distance":11518.919341198241,"city":"Yola","lon":12.460000038146973,"ranking":44,"id":1029325,"member_count":7,"lat":9.229999542236328},{"zip":"meetup8","country":"ng","localized_country_name":"Nigeria","distance":11802.577781725204,"city":"Zaria","lon":7.710000038146973,"ranking":45,"id":1029235,"member_count":6,"lat":11.079999923706055},{"zip":"meetup18","country":"ng","localized_country_name":"Nigeria","distance":11920.75239641586,"city":"Sokoto","lon":5.239999771118164,"ranking":46,"id":1029245,"member_count":6,"lat":13.069999694824219},{"zip":"meetup44","country":"ng","localized_country_name":"Nigeria","distance":12122.461696986793,"city":"Shagamu","lon":3.640000104904175,"ranking":47,"id":1029271,"member_count":6,"lat":6.849999904632568},{"zip":"meetup49","country":"ng","localized_country_name":"Nigeria","distance":11908.438813147379,"city":"Nnewi","lon":6.920000076293945,"ranking":48,"id":1029276,"member_count":6,"lat":6.03000020980835},{"zip":"meetup156","country":"ng","localized_country_name":"Nigeria","distance":11966.0360520366,"city":"Isanlu","lon":5.820000171661377,"ranking":49,"id":1029383,"member_count":5,"lat":8.270000457763672},{"zip":"meetup165","country":"ng","localized_country_name":"Nigeria","distance":12164.121702759217,"city":"Ilaro","lon":3.009999990463257,"ranking":50,"id":1029392,"member_count":5,"lat":6.880000114440918},{"zip":"meetup178","country":"ng","localized_country_name":"Nigeria","distance":11872.993087115425,"city":"Enugu Ngwo","lon":7.429999828338623,"ranking":51,"id":1029405,"member_count":5,"lat":6.420000076293945},{"zip":"meetup246","country":"ng","localized_country_name":"Nigeria","distance":11915.047352816791,"city":"Ajaokuta","lon":6.699999809265137,"ranking":52,"id":1029473,"member_count":5,"lat":7.46999979019165},{"zip":"meetup26","country":"ng","localized_country_name":"Nigeria","distance":11676.301959331831,"city":"Bauchi","lon":9.84000015258789,"ranking":53,"id":1029253,"member_count":5,"lat":10.3100004196167},{"zip":"meetup69","country":"ng","localized_country_name":"Nigeria","distance":11899.657530035807,"city":"Okrika","lon":7.079999923706055,"ranking":54,"id":1029296,"member_count":5,"lat":4.739999771118164},{"zip":"meetup96","country":"ng","localized_country_name":"Nigeria","distance":11821.530030742491,"city":"Oron","lon":8.25,"ranking":55,"id":1029323,"member_count":5,"lat":4.809999942779541},{"zip":"meetup392","country":"ng","localized_country_name":"Nigeria","distance":12153.482919636583,"city":"Ojo","lon":3.2100000381469727,"ranking":56,"id":1029619,"member_count":5,"lat":6.449999809265137},{"zip":"meetup137","country":"ng","localized_country_name":"Nigeria","distance":11947.006939727708,"city":"Auchi","lon":6.260000228881836,"ranking":57,"id":1029364,"member_count":5,"lat":7.079999923706055},{"zip":"meetup145","country":"ng","localized_country_name":"Nigeria","distance":11868.66212465887,"city":"Enugu Ezike","lon":7.449999809265137,"ranking":58,"id":1029372,"member_count":5,"lat":6.989999771118164},{"zip":"meetup195","country":"ng","localized_country_name":"Nigeria","distance":12132.991573795332,"city":"Agbara","lon":3.4000000953674316,"ranking":59,"id":1029422,"member_count":4,"lat":7.550000190734863},{"zip":"meetup199","country":"ng","localized_country_name":"Nigeria","distance":11977.911681255193,"city":"Ode","lon":5.710000038146973,"ranking":60,"id":1029426,"member_count":4,"lat":7.789999961853027},{"zip":"meetup35","country":"ng","localized_country_name":"Nigeria","distance":12116.809633127983,"city":"Ilesha","lon":3.4200000762939453,"ranking":61,"id":1029262,"member_count":4,"lat":8.920000076293945},{"zip":"meetup41","country":"ng","localized_country_name":"Nigeria","distance":11857.530485221121,"city":"Ikot Ekpene","lon":7.710000038146973,"ranking":62,"id":1029268,"member_count":4,"lat":5.190000057220459},{"zip":"meetup562","country":"ng","localized_country_name":"Nigeria","distance":12117.677937487806,"city":"Ikene","lon":3.7100000381469727,"ranking":63,"id":1029789,"member_count":4,"lat":6.869999885559082},{"zip":"meetup56","country":"ng","localized_country_name":"Nigeria","distance":12150.680080442618,"city":"Ota","lon":3.2300000190734863,"ranking":64,"id":1029283,"member_count":4,"lat":6.699999809265137},{"zip":"meetup59","country":"ng","localized_country_name":"Nigeria","distance":11866.842462781739,"city":"Suleja","lon":7.170000076293945,"ranking":65,"id":1029286,"member_count":4,"lat":9.170000076293945},{"zip":"meetup326","country":"ng","localized_country_name":"Nigeria","distance":11874.130570420997,"city":"Gwagwalada","lon":7.099999904632568,"ranking":66,"id":1029553,"member_count":4,"lat":8.949999809265137},{"zip":"meetup76","country":"ng","localized_country_name":"Nigeria","distance":12096.204174289664,"city":"Igboho","lon":3.75,"ranking":67,"id":1029303,"member_count":4,"lat":8.829999923706055},{"zip":"meetup590","country":"ng","localized_country_name":"Nigeria","distance":12035.01453297208,"city":"Ijesha","lon":4.889999866485596,"ranking":68,"id":1029817,"member_count":4,"lat":7.460000038146973},{"zip":"meetup87","country":"ng","localized_country_name":"Nigeria","distance":12076.755535885175,"city":"Modakeke","lon":4.269999980926514,"ranking":69,"id":1029314,"member_count":4,"lat":7.380000114440918},{"zip":"meetup91","country":"ng","localized_country_name":"Nigeria","distance":12097.737352220269,"city":"Ijebu Igbo","lon":4,"ranking":70,"id":1029318,"member_count":4,"lat":6.96999979019165},{"zip":"meetup618","country":"ng","localized_country_name":"Nigeria","distance":11456.414698813738,"city":"Abadan","lon":12.270000457763672,"ranking":71,"id":1029845,"member_count":4,"lat":13.619999885559082},{"zip":"meetup131","country":"ng","localized_country_name":"Nigeria","distance":11956.132980205688,"city":"Agbor","lon":6.190000057220459,"ranking":72,"id":1029358,"member_count":4,"lat":6.260000228881836},{"zip":"meetup411","country":"ng","localized_country_name":"Nigeria","distance":11738.096536489245,"city":"Rano","lon":8.569999694824219,"ranking":73,"id":1029638,"member_count":3,"lat":11.550000190734863},{"zip":"meetup176","country":"ng","localized_country_name":"Nigeria","distance":11996.66728435183,"city":"Emure","lon":5.46999979019165,"ranking":74,"id":1029403,"member_count":3,"lat":7.449999809265137},{"zip":"meetup441","country":"ng","localized_country_name":"Nigeria","distance":11680.479053796967,"city":"Garki","lon":9.1899995803833,"ranking":75,"id":1029668,"member_count":3,"lat":12.430000305175781},{"zip":"meetup240","country":"ng","localized_country_name":"Nigeria","distance":11963.826376634745,"city":"Abraka","lon":6.099999904632568,"ranking":76,"id":1029467,"member_count":3,"lat":5.78000020980835},{"zip":"meetup261","country":"ng","localized_country_name":"Nigeria","distance":11892.031344285611,"city":"Dekina","lon":7.019999980926514,"ranking":77,"id":1029488,"member_count":3,"lat":7.699999809265137},{"zip":"meetup267","country":"ng","localized_country_name":"Nigeria","distance":11928.075230790168,"city":"Omoko","lon":6.650000095367432,"ranking":78,"id":1029494,"member_count":3,"lat":5.349999904632568},{"zip":"meetup272","country":"ng","localized_country_name":"Nigeria","distance":11956.218741109162,"city":"Igarra","lon":6.099999904632568,"ranking":79,"id":1029499,"member_count":3,"lat":7.28000020980835},{"zip":"meetup288","country":"ng","localized_country_name":"Nigeria","distance":11948.773318239811,"city":"Umunede","lon":6.300000190734863,"ranking":80,"id":1029515,"member_count":3,"lat":6.269999980926514},{"zip":"meetup45","country":"ng","localized_country_name":"Nigeria","distance":11831.868645873214,"city":"Ugep","lon":8.079999923706055,"ranking":81,"id":1029272,"member_count":3,"lat":5.809999942779541},{"zip":"meetup48","country":"ng","localized_country_name":"Nigeria","distance":12083.043331428587,"city":"Ikire","lon":4.179999828338623,"ranking":82,"id":1029275,"member_count":3,"lat":7.340000152587891},{"zip":"meetup315","country":"ng","localized_country_name":"Nigeria","distance":11890.399137403438,"city":"Abaji","lon":6.929999828338623,"ranking":83,"id":1029542,"member_count":3,"lat":8.5},{"zip":"meetup67","country":"ng","localized_country_name":"Nigeria","distance":12046.167872764681,"city":"Ikirun","lon":4.659999847412109,"ranking":84,"id":1029294,"member_count":3,"lat":7.920000076293945},{"zip":"meetup75","country":"ng","localized_country_name":"Nigeria","distance":12068.851446988496,"city":"Ejigbo","lon":4.320000171661377,"ranking":85,"id":1029302,"member_count":3,"lat":7.900000095367432},{"zip":"meetup79","country":"ng","localized_country_name":"Nigeria","distance":12040.02551263871,"city":"Offa","lon":4.71999979019165,"ranking":86,"id":1029306,"member_count":3,"lat":8.140000343322754},{"zip":"meetup86","country":"ng","localized_country_name":"Nigeria","distance":11880.368266071315,"city":"Okigwe","lon":7.349999904632568,"ranking":87,"id":1029313,"member_count":3,"lat":5.849999904632568},{"zip":"meetup603","country":"ng","localized_country_name":"Nigeria","distance":12131.318499281011,"city":"Ilero","lon":3.3499999046325684,"ranking":88,"id":1029830,"member_count":3,"lat":8.069999694824219},{"zip":"meetup94","country":"ng","localized_country_name":"Nigeria","distance":11913.959362134992,"city":"Nkpor","lon":6.829999923706055,"ranking":89,"id":1029321,"member_count":3,"lat":6.159999847412109},{"zip":"meetup103","country":"ng","localized_country_name":"Nigeria","distance":12101.470656145124,"city":"Epe","lon":3.9800000190734863,"ranking":90,"id":1029330,"member_count":3,"lat":6.590000152587891},{"zip":"meetup617","country":"ng","localized_country_name":"Nigeria","distance":11851.874611003484,"city":"Uburu","lon":7.769999980926514,"ranking":91,"id":1029844,"member_count":3,"lat":6.03000020980835},{"zip":"meetup621","country":"ng","localized_country_name":"Nigeria","distance":11897.823566547717,"city":"Aguata","lon":7.079999923706055,"ranking":92,"id":1029848,"member_count":3,"lat":6.019999980926514},{"zip":"meetup367","country":"ng","localized_country_name":"Nigeria","distance":11747.68982258063,"city":"Bukuru","lon":8.859999656677246,"ranking":93,"id":1029594,"member_count":3,"lat":9.800000190734863},{"zip":"meetup119","country":"ng","localized_country_name":"Nigeria","distance":11980.728173592839,"city":"Oka","lon":5.71999979019165,"ranking":94,"id":1029346,"member_count":3,"lat":7.369999885559082},{"zip":"meetup384","country":"ng","localized_country_name":"Nigeria","distance":11413.115957275058,"city":"Gwoza","lon":13.699999809265137,"ranking":95,"id":1029611,"member_count":3,"lat":11.09000015258789},{"zip":"meetup132","country":"ng","localized_country_name":"Nigeria","distance":11850.942859920202,"city":"Ohafia","lon":7.800000190734863,"ranking":96,"id":1029359,"member_count":3,"lat":5.619999885559082},{"zip":"meetup138","country":"ng","localized_country_name":"Nigeria","distance":11895.95109855709,"city":"Nkwerre","lon":7.119999885559082,"ranking":97,"id":1029365,"member_count":3,"lat":5.75},{"zip":"meetup144","country":"ng","localized_country_name":"Nigeria","distance":11985.920950063222,"city":"Lafiagi","lon":5.420000076293945,"ranking":98,"id":1029371,"member_count":3,"lat":8.850000381469727},{"zip":"meetup157","country":"ng","localized_country_name":"Nigeria","distance":11946.39674343642,"city":"Kwale","lon":6.369999885559082,"ranking":99,"id":1029384,"member_count":2,"lat":5.550000190734863},{"zip":"meetup417","country":"ng","localized_country_name":"Nigeria","distance":11692.176499781144,"city":"Donga","lon":10.039999961853027,"ranking":100,"id":1029644,"member_count":2,"lat":7.730000019073486},{"zip":"meetup164","country":"ng","localized_country_name":"Nigeria","distance":11863.078883560924,"city":"Sabon Birnin Gwari","lon":6.800000190734863,"ranking":101,"id":1029391,"member_count":2,"lat":11.010000228881836},{"zip":"meetup190","country":"ng","localized_country_name":"Nigeria","distance":11881.792690189051,"city":"Egume","lon":7.199999809265137,"ranking":102,"id":1029417,"member_count":2,"lat":7.489999771118164},{"zip":"meetup193","country":"ng","localized_country_name":"Nigeria","distance":11781.56891088955,"city":"Ogoja","lon":8.789999961853027,"ranking":103,"id":1029420,"member_count":2,"lat":6.659999847412109},{"zip":"meetup222","country":"ng","localized_country_name":"Nigeria","distance":11874.751286526702,"city":"Udi","lon":7.409999847412109,"ranking":104,"id":1029449,"member_count":2,"lat":6.320000171661377},{"zip":"meetup235","country":"ng","localized_country_name":"Nigeria","distance":11822.264003619573,"city":"Oturkpo","lon":8.130000114440918,"ranking":105,"id":1029462,"member_count":2,"lat":7.199999809265137},{"zip":"meetup275","country":"ng","localized_country_name":"Nigeria","distance":11917.39490442694,"city":"Oguta","lon":6.800000190734863,"ranking":106,"id":1029502,"member_count":2,"lat":5.699999809265137},{"zip":"meetup284","country":"ng","localized_country_name":"Nigeria","distance":12014.915332708697,"city":"Omu-Aran","lon":5.099999904632568,"ranking":107,"id":1029511,"member_count":2,"lat":8.140000343322754},{"zip":"meetup31","country":"ng","localized_country_name":"Nigeria","distance":11990.679294882573,"city":"Owo","lon":5.590000152587891,"ranking":108,"id":1029258,"member_count":2,"lat":7.190000057220459},{"zip":"meetup543","country":"ng","localized_country_name":"Nigeria","distance":12107.352966797793,"city":"Ibeju","lon":3.9000000953674316,"ranking":109,"id":1029770,"member_count":2,"lat":6.489999771118164},{"zip":"meetup34","country":"ng","localized_country_name":"Nigeria","distance":11589.791458782649,"city":"Gombe","lon":11.170000076293945,"ranking":110,"id":1029261,"member_count":2,"lat":10.289999961853027},{"zip":"meetup557","country":"ng","localized_country_name":"Nigeria","distance":11581.798780819381,"city":"Dadiya","lon":11.430000305175781,"ranking":111,"id":1029784,"member_count":2,"lat":9.619999885559082},{"zip":"meetup51","country":"ng","localized_country_name":"Nigeria","distance":11770.41450221092,"city":"Gboko","lon":8.899999618530273,"ranking":112,"id":1029278,"member_count":2,"lat":7.329999923706055},{"zip":"meetup54","country":"ng","localized_country_name":"Nigeria","distance":12024.231014167613,"city":"Ilawe","lon":5.059999942779541,"ranking":113,"id":1029281,"member_count":2,"lat":7.400000095367432},{"zip":"meetup316","country":"ng","localized_country_name":"Nigeria","distance":11888.506914928575,"city":"Aboh","lon":7.239999771118164,"ranking":114,"id":1029543,"member_count":2,"lat":5.489999771118164},{"zip":"meetup575","country":"ng","localized_country_name":"Nigeria","distance":11893.347343363661,"city":"Bonny","lon":7.170000076293945,"ranking":115,"id":1029802,"member_count":2,"lat":4.429999828338623},{"zip":"meetup323","country":"ng","localized_country_name":"Nigeria","distance":12021.495791836642,"city":"Jebba","lon":4.829999923706055,"ranking":116,"id":1029550,"member_count":2,"lat":9.109999656677246},{"zip":"meetup70","country":"ng","localized_country_name":"Nigeria","distance":11911.484324974808,"city":"Obosi","lon":6.869999885559082,"ranking":117,"id":1029297,"member_count":2,"lat":6.110000133514404},{"zip":"meetup327","country":"ng","localized_country_name":"Nigeria","distance":12171.307003956224,"city":"Ado Odo","lon":2.930000066757202,"ranking":118,"id":1029554,"member_count":2,"lat":6.590000152587891},{"zip":"meetup77","country":"ng","localized_country_name":"Nigeria","distance":11848.588787569359,"city":"Amaigbo","lon":7.829999923706055,"ranking":119,"id":1029304,"member_count":2,"lat":5.78000020980835},{"zip":"meetup335","country":"ng","localized_country_name":"Nigeria","distance":11716.577295070429,"city":"Pankshin","lon":9.430000305175781,"ranking":120,"id":1029562,"member_count":2,"lat":9.319999694824219},{"zip":"meetup83","country":"ng","localized_country_name":"Nigeria","distance":11945.230040503282,"city":"Uromi","lon":6.320000171661377,"ranking":121,"id":1029310,"member_count":2,"lat":6.71999979019165},{"zip":"meetup343","country":"ng","localized_country_name":"Nigeria","distance":11943.737647363681,"city":"Taki","lon":6.150000095367432,"ranking":122,"id":1029570,"member_count":2,"lat":8.319999694824219},{"zip":"meetup88","country":"ng","localized_country_name":"Nigeria","distance":11625.003821798591,"city":"Hadejia","lon":10.039999961853027,"ranking":123,"id":1029315,"member_count":2,"lat":12.460000038146973},{"zip":"meetup93","country":"ng","localized_country_name":"Nigeria","distance":12002.94125049441,"city":"Birnin Kebbi","lon":4.190000057220459,"ranking":124,"id":1029320,"member_count":2,"lat":12.460000038146973},{"zip":"meetup101","country":"ng","localized_country_name":"Nigeria","distance":11708.833572113448,"city":"Wukari","lon":9.770000457763672,"ranking":125,"id":1029328,"member_count":2,"lat":7.880000114440918},{"zip":"meetup106","country":"ng","localized_country_name":"Nigeria","distance":11824.747203638128,"city":"Keffi","lon":7.869999885559082,"ranking":126,"id":1029333,"member_count":2,"lat":8.84000015258789},{"zip":"meetup109","country":"ng","localized_country_name":"Nigeria","distance":11972.50710823959,"city":"Ughelli","lon":5.980000019073486,"ranking":127,"id":1029336,"member_count":2,"lat":5.5},{"zip":"meetup114","country":"ng","localized_country_name":"Nigeria","distance":11899.507565709633,"city":"Agulu","lon":7.050000190734863,"ranking":128,"id":1029341,"member_count":2,"lat":6.110000133514404},{"zip":"meetup125","country":"ng","localized_country_name":"Nigeria","distance":11867.512380489883,"city":"Opobo","lon":7.559999942779541,"ranking":129,"id":1029352,"member_count":2,"lat":4.639999866485596},{"zip":"meetup639","country":"ng","localized_country_name":"Nigeria","distance":11684.789799042297,"city":"Babura","lon":9.010000228881836,"ranking":130,"id":1029866,"member_count":2,"lat":12.770000457763672},{"zip":"meetup130","country":"ng","localized_country_name":"Nigeria","distance":11880.927078880619,"city":"Etiti","lon":7.349999904632568,"ranking":131,"id":1029357,"member_count":2,"lat":5.619999885559082},{"zip":"meetup645","country":"ng","localized_country_name":"Nigeria","distance":11564.93835977183,"city":"Fika","lon":11.3100004196167,"ranking":132,"id":1029872,"member_count":2,"lat":11.289999961853027},{"zip":"meetup141","country":"ng","localized_country_name":"Nigeria","distance":11909.614526605881,"city":"Lokoja","lon":6.739999771118164,"ranking":133,"id":1029368,"member_count":2,"lat":7.809999942779541},{"zip":"meetup654","country":"ng","localized_country_name":"Nigeria","distance":11883.137812615189,"city":"Ezeagu","lon":7.28000020980835,"ranking":134,"id":1029881,"member_count":2,"lat":6.380000114440918},{"zip":"meetup146","country":"ng","localized_country_name":"Nigeria","distance":11953.654112036214,"city":"Kabba","lon":6.070000171661377,"ranking":135,"id":1029373,"member_count":2,"lat":7.840000152587891},{"zip":"meetup666","country":"ng","localized_country_name":"Nigeria","distance":11949.165090513308,"city":"Okpe","lon":6.329999923706055,"ranking":136,"id":1029893,"member_count":1,"lat":5.5},{"zip":"meetup160","country":"ng","localized_country_name":"Nigeria","distance":11997.946288716923,"city":"Yelwa","lon":4.769999980926514,"ranking":137,"id":1029387,"member_count":1,"lat":10.869999885559082},{"zip":"meetup418","country":"ng","localized_country_name":"Nigeria","distance":11494.828904088588,"city":"Garkida","lon":12.600000381469727,"ranking":138,"id":1029645,"member_count":1,"lat":10.40999984741211},{"zip":"meetup163","country":"ng","localized_country_name":"Nigeria","distance":11881.5920964081,"city":"Bori","lon":7.349999904632568,"ranking":139,"id":1029390,"member_count":1,"lat":4.699999809265137},{"zip":"meetup167","country":"ng","localized_country_name":"Nigeria","distance":12097.861451263536,"city":"Fiditi","lon":3.9100000858306885,"ranking":140,"id":1029394,"member_count":1,"lat":7.699999809265137},{"zip":"meetup425","country":"ng","localized_country_name":"Nigeria","distance":11785.639425408928,"city":"Kurfi","lon":7.480000019073486,"ranking":141,"id":1029652,"member_count":1,"lat":12.670000076293945},{"zip":"meetup174","country":"ng","localized_country_name":"Nigeria","distance":11980.556177000546,"city":"Ifon","lon":5.769999980926514,"ranking":142,"id":1029401,"member_count":1,"lat":6.920000076293945},{"zip":"meetup175","country":"ng","localized_country_name":"Nigeria","distance":12089.93597360331,"city":"Lalupon","lon":4.059999942779541,"ranking":143,"id":1029402,"member_count":1,"lat":7.46999979019165},{"zip":"meetup432","country":"ng","localized_country_name":"Nigeria","distance":11865.081529209172,"city":"Zuba","lon":7.210000038146973,"ranking":144,"id":1029659,"member_count":1,"lat":9.100000381469727},{"zip":"meetup433","country":"ng","localized_country_name":"Nigeria","distance":12028.590582854133,"city":"Dakingari","lon":4.070000171661377,"ranking":145,"id":1029660,"member_count":1,"lat":11.640000343322754},{"zip":"meetup179","country":"ng","localized_country_name":"Nigeria","distance":12019.519617510528,"city":"Ipoti","lon":5.070000171661377,"ranking":146,"id":1029406,"member_count":1,"lat":7.869999885559082},{"zip":"meetup435","country":"ng","localized_country_name":"Nigeria","distance":12160.789478112296,"city":"Aiyetoro","lon":3.0199999809265137,"ranking":147,"id":1029662,"member_count":1,"lat":7.239999771118164},{"zip":"meetup436","country":"ng","localized_country_name":"Nigeria","distance":11700.21898852979,"city":"Amper","lon":9.670000076293945,"ranking":148,"id":1029663,"member_count":1,"lat":9.369999885559082},{"zip":"meetup183","country":"ng","localized_country_name":"Nigeria","distance":12023.084872621623,"city":"Idanre","lon":5.110000133514404,"ranking":149,"id":1029410,"member_count":1,"lat":7.110000133514404},{"zip":"meetup189","country":"ng","localized_country_name":"Nigeria","distance":12022.206768086176,"city":"Aramoko","lon":5.050000190734863,"ranking":150,"id":1029416,"member_count":1,"lat":7.71999979019165},{"zip":"meetup445","country":"ng","localized_country_name":"Nigeria","distance":11765.90215880057,"city":"Shanono","lon":7.989999771118164,"ranking":151,"id":1029672,"member_count":1,"lat":12.050000190734863},{"zip":"meetup191","country":"ng","localized_country_name":"Nigeria","distance":11868.29068963594,"city":"Ete","lon":7.449999809265137,"ranking":152,"id":1029418,"member_count":1,"lat":7.050000190734863},{"zip":"meetup194","country":"ng","localized_country_name":"Nigeria","distance":12119.997871278956,"city":"Iperu","lon":3.6700000762939453,"ranking":153,"id":1029421,"member_count":1,"lat":6.920000076293945},{"zip":"meetup451","country":"ng","localized_country_name":"Nigeria","distance":11725.87502960225,"city":"Kazaure","lon":8.40999984741211,"ranking":154,"id":1029678,"member_count":1,"lat":12.65999984741211},{"zip":"meetup200","country":"ng","localized_country_name":"Nigeria","distance":11887.65505505874,"city":"Okwe","lon":7.260000228881836,"ranking":155,"id":1029427,"member_count":1,"lat":5.019999980926514},{"zip":"meetup456","country":"ng","localized_country_name":"Nigeria","distance":11544.280977960047,"city":"Jada","lon":12.149999618530273,"ranking":156,"id":1029683,"member_count":1,"lat":8.75},{"zip":"meetup203","country":"ng","localized_country_name":"Nigeria","distance":11566.351212590354,"city":"Nafada","lon":11.34000015258789,"ranking":157,"id":1029430,"member_count":1,"lat":11.09000015258789},{"zip":"meetup462","country":"ng","localized_country_name":"Nigeria","distance":11586.44397003718,"city":"Kaltungo","lon":11.319999694824219,"ranking":158,"id":1029689,"member_count":1,"lat":9.819999694824219},{"zip":"meetup465","country":"ng","localized_country_name":"Nigeria","distance":11882.028103213619,"city":"Sabongari","lon":6.429999828338623,"ranking":159,"id":1029692,"member_count":1,"lat":11.289999961853027},{"zip":"meetup213","country":"ng","localized_country_name":"Nigeria","distance":11871.668985921966,"city":"Awgu","lon":7.46999979019165,"ranking":160,"id":1029440,"member_count":1,"lat":6.079999923706055},{"zip":"meetup214","country":"ng","localized_country_name":"Nigeria","distance":11777.669525600106,"city":"Jikamshi","lon":7.769999980926514,"ranking":161,"id":1029441,"member_count":1,"lat":12.170000076293945},{"zip":"meetup215","country":"ng","localized_country_name":"Nigeria","distance":11865.180680375199,"city":"Nike","lon":7.539999961853027,"ranking":162,"id":1029442,"member_count":1,"lat":6.53000020980835},{"zip":"meetup472","country":"ng","localized_country_name":"Nigeria","distance":11879.337618262523,"city":"Shiroro","lon":6.809999942779541,"ranking":163,"id":1029699,"member_count":1,"lat":9.979999542236328},{"zip":"meetup475","country":"ng","localized_country_name":"Nigeria","distance":11900.73069240635,"city":"Chanchaga","lon":6.579999923706055,"ranking":164,"id":1029702,"member_count":1,"lat":9.539999961853027},{"zip":"meetup220","country":"ng","localized_country_name":"Nigeria","distance":11858.75631276492,"city":"Amagunze","lon":7.650000095367432,"ranking":165,"id":1029447,"member_count":1,"lat":6.329999923706055},{"zip":"meetup476","country":"ng","localized_country_name":"Nigeria","distance":11988.192254886419,"city":"Gulma","lon":4.349999904632568,"ranking":166,"id":1029703,"member_count":1,"lat":12.649999618530273},{"zip":"meetup228","country":"ng","localized_country_name":"Nigeria","distance":11815.50493287589,"city":"Giwa","lon":7.449999809265137,"ranking":167,"id":1029455,"member_count":1,"lat":11.300000190734863},{"zip":"meetup484","country":"ng","localized_country_name":"Nigeria","distance":11789.36421312322,"city":"Igbor","lon":8.600000381469727,"ranking":168,"id":1029711,"member_count":1,"lat":7.460000038146973},{"zip":"meetup233","country":"ng","localized_country_name":"Nigeria","distance":11913.35020216792,"city":"Gwadabawa","lon":5.239999771118164,"ranking":169,"id":1029460,"member_count":1,"lat":13.369999885559082},{"zip":"meetup238","country":"ng","localized_country_name":"Nigeria","distance":12045.011194772549,"city":"Agbabu","lon":4.829999923706055,"ranking":170,"id":1029465,"member_count":1,"lat":6.579999923706055},{"zip":"meetup239","country":"ng","localized_country_name":"Nigeria","distance":12129.754847501019,"city":"Owode","lon":3.5199999809265137,"ranking":171,"id":1029466,"member_count":1,"lat":6.949999809265137},{"zip":"meetup506","country":"ng","localized_country_name":"Nigeria","distance":11687.535057986106,"city":"Ringim","lon":9.170000076293945,"ranking":172,"id":1029733,"member_count":1,"lat":12.149999618530273},{"zip":"meetup260","country":"ng","localized_country_name":"Nigeria","distance":11883.151750988021,"city":"Mando","lon":6.570000171661377,"ranking":173,"id":1029487,"member_count":1,"lat":10.720000267028809},{"zip":"meetup262","country":"ng","localized_country_name":"Nigeria","distance":11756.969658274389,"city":"Obudu","lon":9.15999984741211,"ranking":174,"id":1029489,"member_count":1,"lat":6.670000076293945},{"zip":"meetup7","country":"ng","localized_country_name":"Nigeria","distance":11435.318434545185,"city":"Maiduguri","lon":13.15999984741211,"ranking":175,"id":1029234,"member_count":1,"lat":11.850000381469727},{"zip":"meetup265","country":"ng","localized_country_name":"Nigeria","distance":11941.628175735845,"city":"Ubiaja","lon":6.380000114440918,"ranking":176,"id":1029492,"member_count":1,"lat":6.650000095367432},{"zip":"meetup271","country":"ng","localized_country_name":"Nigeria","distance":11838.673023723359,"city":"Kotorkoshi","lon":6.849999904632568,"ranking":177,"id":1029498,"member_count":1,"lat":12.100000381469727},{"zip":"meetup273","country":"ng","localized_country_name":"Nigeria","distance":11494.298181769887,"city":"Geidam","lon":11.930000305175781,"ranking":178,"id":1029500,"member_count":1,"lat":12.890000343322754},{"zip":"meetup274","country":"ng","localized_country_name":"Nigeria","distance":12008.916148816039,"city":"Ifaki","lon":5.239999771118164,"ranking":179,"id":1029501,"member_count":1,"lat":7.800000190734863},{"zip":"meetup19","country":"ng","localized_country_name":"Nigeria","distance":11945.453714736212,"city":"Okene","lon":6.230000019073486,"ranking":180,"id":1029246,"member_count":1,"lat":7.559999942779541},{"zip":"meetup277","country":"ng","localized_country_name":"Nigeria","distance":11591.539952071633,"city":"Biliri","lon":11.229999542236328,"ranking":181,"id":1029504,"member_count":1,"lat":9.880000114440918},{"zip":"meetup534","country":"ng","localized_country_name":"Nigeria","distance":11698.72709856121,"city":"Takum","lon":9.989999771118164,"ranking":182,"id":1029761,"member_count":1,"lat":7.260000228881836},{"zip":"meetup535","country":"ng","localized_country_name":"Nigeria","distance":11755.736792854008,"city":"Bebeji","lon":8.260000228881836,"ranking":183,"id":1029762,"member_count":1,"lat":11.680000305175781},{"zip":"meetup280","country":"ng","localized_country_name":"Nigeria","distance":11468.335304455186,"city":"Chibok","lon":12.899999618530273,"ranking":184,"id":1029507,"member_count":1,"lat":10.880000114440918},{"zip":"meetup281","country":"ng","localized_country_name":"Nigeria","distance":11772.413738057181,"city":"Gwazo","lon":7.929999828338623,"ranking":185,"id":1029508,"member_count":1,"lat":11.920000076293945},{"zip":"meetup282","country":"ng","localized_country_name":"Nigeria","distance":11607.805569443202,"city":"Duku","lon":10.770000457763672,"ranking":186,"id":1029509,"member_count":1,"lat":10.819999694824219},{"zip":"meetup539","country":"ng","localized_country_name":"Nigeria","distance":11837.245130756686,"city":"Chafe","lon":6.920000076293945,"ranking":187,"id":1029766,"member_count":1,"lat":11.949999809265137},{"zip":"meetup548","country":"ng","localized_country_name":"Nigeria","distance":12041.853312958583,"city":"Odigbo","lon":4.860000133514404,"ranking":188,"id":1029775,"member_count":1,"lat":6.78000020980835},{"zip":"meetup38","country":"ng","localized_country_name":"Nigeria","distance":11514.724986712077,"city":"Damaturu","lon":11.960000038146973,"ranking":189,"id":1029265,"member_count":1,"lat":11.75},{"zip":"meetup294","country":"ng","localized_country_name":"Nigeria","distance":12068.316760860982,"city":"Babana","lon":3.819999933242798,"ranking":190,"id":1029521,"member_count":1,"lat":10.399999618530273},{"zip":"meetup296","country":"ng","localized_country_name":"Nigeria","distance":11935.41084098278,"city":"Badeggi","lon":6.150000095367432,"ranking":191,"id":1029523,"member_count":1,"lat":9.050000190734863},{"zip":"meetup43","country":"ng","localized_country_name":"Nigeria","distance":11453.113787802231,"city":"Mubi","lon":13.270000457763672,"ranking":192,"id":1029270,"member_count":1,"lat":10.270000457763672},{"zip":"meetup555","country":"ng","localized_country_name":"Nigeria","distance":11949.6371558062,"city":"Ogori","lon":6.179999828338623,"ranking":193,"id":1029782,"member_count":1,"lat":7.449999809265137},{"zip":"meetup302","country":"ng","localized_country_name":"Nigeria","distance":11697.841532890181,"city":"Langtang","lon":9.75,"ranking":194,"id":1029529,"member_count":1,"lat":9.130000114440918},{"zip":"meetup306","country":"ng","localized_country_name":"Nigeria","distance":12041.431208231626,"city":"Ore","lon":4.869999885559082,"ranking":195,"id":1029533,"member_count":1,"lat":6.739999771118164},{"zip":"meetup308","country":"ng","localized_country_name":"Nigeria","distance":11544.104001987185,"city":"Lajere","lon":11.4399995803833,"ranking":196,"id":1029535,"member_count":1,"lat":11.979999542236328},{"zip":"meetup564","country":"ng","localized_country_name":"Nigeria","distance":12114.488570122607,"city":"Odogbolu","lon":3.759999990463257,"ranking":197,"id":1029791,"member_count":1,"lat":6.849999904632568},{"zip":"meetup53","country":"ng","localized_country_name":"Nigeria","distance":11944.244553319237,"city":"Bida","lon":6.010000228881836,"ranking":198,"id":1029280,"member_count":1,"lat":9.079999923706055},{"zip":"meetup55","country":"ng","localized_country_name":"Nigeria","distance":11988.055161919487,"city":"Ikare","lon":5.599999904632568,"ranking":199,"id":1029282,"member_count":1,"lat":7.449999809265137}],"meta":{"next":"http:\/\/api.meetup.com\/2\/cities?country=ng&offset=1&sign=True&format=json&photo-host=public&page=200&radius=50&order=size&desc=false","method":"Cities","total_count":650,"link":"http:\/\/api.meetup.com\/2\/cities","count":200,"description":"Returns Meetup cities. This method supports search by latitude\/longitude\/radius, by country\/state, by query term\/zip, or a combination of all of these. Location-only searches by lat and lon return all cities within a radius of the provided coordinates. Searches with a query return up to 10 cities matching the term, and can be sorted by size or distance to a given coordinate. 'smart' ordering can be used to return the match(es) with the highest member_count, unless a smaller size match exists nearby the given coordinates. Query searches are supported for country but not country and state","lon":"None","title":"Cities","url":"http:\/\/api.meetup.com\/2\/cities?country=ng&offset=0&sign=True&format=json&photo-host=public&page=200&radius=50&order=size&desc=false","id":"","updated":1251864867000,"lat":"None"}}
