{"results":[{"zip":"meetup1","country":"pe","localized_country_name":"Peru","distance":7508.200690536174,"city":"Lima","lon":-77.05000305175781,"ranking":0,"id":1031126,"member_count":750,"lat":-12.069999694824219},{"zip":"meetup2","country":"pe","localized_country_name":"Peru","distance":7669.216676805891,"city":"Arequipa","lon":-71.52999877929688,"ranking":1,"id":1031127,"member_count":82,"lat":-16.389999389648438},{"zip":"meetup9","country":"pe","localized_country_name":"Peru","distance":7777.3253256669595,"city":"Cusco","lon":-71.98999786376953,"ranking":2,"id":1031134,"member_count":27,"lat":-13.520000457763672},{"zip":"meetup3","country":"pe","localized_country_name":"Peru","distance":7531.9116566884595,"city":"Trujillo","lon":-79.02999877929688,"ranking":3,"id":1031128,"member_count":25,"lat":-8.109999656677246},{"zip":"meetup32","country":"pe","localized_country_name":"Peru","distance":7712.720443081782,"city":"Abancay","lon":-72.88999938964844,"ranking":4,"id":1031157,"member_count":14,"lat":-13.640000343322754},{"zip":"meetup4","country":"pe","localized_country_name":"Peru","distance":7525.120999490032,"city":"Chiclayo","lon":-79.83999633789062,"ranking":5,"id":1031129,"member_count":9,"lat":-6.760000228881836},{"zip":"meetup6","country":"pe","localized_country_name":"Peru","distance":7523.665288203964,"city":"Piura","lon":-80.62999725341797,"ranking":6,"id":1031131,"member_count":9,"lat":-5.190000057220459},{"zip":"meetup39","country":"pe","localized_country_name":"Peru","distance":7522.843341929071,"city":"Lambayeque","lon":-79.91000366210938,"ranking":7,"id":1031164,"member_count":6,"lat":-6.690000057220459},{"zip":"meetup92","country":"pe","localized_country_name":"Peru","distance":7530.850924140253,"city":"Chaclacayo","lon":-76.7699966430664,"ranking":8,"id":1031217,"member_count":4,"lat":-11.970000267028809},{"zip":"meetup5","country":"pe","localized_country_name":"Peru","distance":8056.528270590364,"city":"Iquitos","lon":-73.19999694824219,"ranking":9,"id":1031130,"member_count":4,"lat":-3.75},{"zip":"meetup7","country":"pe","localized_country_name":"Peru","distance":7629.310797362226,"city":"Huancayo","lon":-75.20999908447266,"ranking":10,"id":1031132,"member_count":4,"lat":-12.069999694824219},{"zip":"meetup8","country":"pe","localized_country_name":"Peru","distance":7525.308113676073,"city":"Chimbote","lon":-78.5999984741211,"ranking":11,"id":1031133,"member_count":4,"lat":-9.069999694824219},{"zip":"meetup10","country":"pe","localized_country_name":"Peru","distance":7819.2030166203385,"city":"Pucallpa","lon":-74.52999877929688,"ranking":12,"id":1031135,"member_count":4,"lat":-8.390000343322754},{"zip":"meetup11","country":"pe","localized_country_name":"Peru","distance":7666.998177117596,"city":"Tacna","lon":-70.25,"ranking":13,"id":1031136,"member_count":4,"lat":-18.020000457763672},{"zip":"meetup12","country":"pe","localized_country_name":"Peru","distance":7505.860812264195,"city":"Ica","lon":-75.75,"ranking":14,"id":1031137,"member_count":3,"lat":-14.0600004196167},{"zip":"meetup15","country":"pe","localized_country_name":"Peru","distance":7648.78396235853,"city":"Huánuco","lon":-76.23999786376953,"ranking":15,"id":1031140,"member_count":3,"lat":-9.920000076293945},{"zip":"meetup24","country":"pe","localized_country_name":"Peru","distance":7578.607083504756,"city":"Huaraz","lon":-77.52999877929688,"ranking":16,"id":1031149,"member_count":3,"lat":-9.529999732971191},{"zip":"meetup84","country":"pe","localized_country_name":"Peru","distance":7621.6305955533235,"city":"Jauja","lon":-75.5,"ranking":17,"id":1031209,"member_count":2,"lat":-11.800000190734863},{"zip":"meetup88","country":"pe","localized_country_name":"Peru","distance":7672.618595643046,"city":"Chachapoyas","lon":-77.87000274658203,"ranking":18,"id":1031213,"member_count":2,"lat":-6.230000019073486},{"zip":"meetup109","country":"pe","localized_country_name":"Peru","distance":7614.971915708718,"city":"Junín","lon":-76.01000213623047,"ranking":19,"id":1031234,"member_count":2,"lat":-11.149999618530273},{"zip":"meetup130","country":"pe","localized_country_name":"Peru","distance":7828.19745282886,"city":"Azángaro","lon":-70.22000122070312,"ranking":20,"id":1031255,"member_count":2,"lat":-14.90999984741211},{"zip":"meetup197","country":"pe","localized_country_name":"Peru","distance":7736.9535145111,"city":"Jepelacio","lon":-76.94999694824219,"ranking":21,"id":1031322,"member_count":2,"lat":-6.119999885559082},{"zip":"meetup17","country":"pe","localized_country_name":"Peru","distance":7509.263577984761,"city":"Chincha Alta","lon":-76.13999938964844,"ranking":22,"id":1031142,"member_count":2,"lat":-13.420000076293945},{"zip":"meetup19","country":"pe","localized_country_name":"Peru","distance":7598.70495165927,"city":"Cajamarca","lon":-78.5199966430664,"ranking":23,"id":1031144,"member_count":2,"lat":-7.159999847412109},{"zip":"meetup21","country":"pe","localized_country_name":"Peru","distance":7793.50930247047,"city":"Puno","lon":-70.05000305175781,"ranking":24,"id":1031146,"member_count":2,"lat":-15.84000015258789},{"zip":"meetup29","country":"pe","localized_country_name":"Peru","distance":7510.500946470378,"city":"Huacho","lon":-77.62000274658203,"ranking":25,"id":1031154,"member_count":2,"lat":-11.109999656677246},{"zip":"meetup31","country":"pe","localized_country_name":"Peru","distance":7616.698681570865,"city":"Ilo","lon":-71.33999633789062,"ranking":26,"id":1031156,"member_count":2,"lat":-17.639999389648438},{"zip":"meetup34","country":"pe","localized_country_name":"Peru","distance":7515.545130265809,"city":"Barranca","lon":-77.7699966430664,"ranking":27,"id":1031159,"member_count":2,"lat":-10.739999771118164},{"zip":"meetup41","country":"pe","localized_country_name":"Peru","distance":7537.2603769349325,"city":"Chepén","lon":-79.41999816894531,"ranking":28,"id":1031166,"member_count":2,"lat":-7.21999979019165},{"zip":"meetup67","country":"pe","localized_country_name":"Peru","distance":7520.110331709979,"city":"Monsefú","lon":-79.86000061035156,"ranking":29,"id":1031192,"member_count":1,"lat":-6.869999885559082},{"zip":"meetup68","country":"pe","localized_country_name":"Peru","distance":7531.272818758796,"city":"Guadalupe","lon":-79.48999786376953,"ranking":30,"id":1031193,"member_count":1,"lat":-7.260000228881836},{"zip":"meetup80","country":"pe","localized_country_name":"Peru","distance":7607.225322073872,"city":"Huamachuco","lon":-78.05000305175781,"ranking":31,"id":1031205,"member_count":1,"lat":-7.809999942779541},{"zip":"meetup97","country":"pe","localized_country_name":"Peru","distance":7678.769616859635,"city":"Andahuaylas","lon":-73.4000015258789,"ranking":32,"id":1031222,"member_count":1,"lat":-13.649999618530273},{"zip":"meetup103","country":"pe","localized_country_name":"Peru","distance":7521.029396315827,"city":"Ajoloapán","lon":-76.9000015258789,"ranking":33,"id":1031228,"member_count":1,"lat":-12},{"zip":"meetup106","country":"pe","localized_country_name":"Peru","distance":7697.501006875961,"city":"Satipo","lon":-74.69000244140625,"ranking":34,"id":1031231,"member_count":1,"lat":-11.260000228881836},{"zip":"meetup121","country":"pe","localized_country_name":"Peru","distance":7539.750984873455,"city":"Ascope","lon":-79.12000274658203,"ranking":35,"id":1031246,"member_count":1,"lat":-7.71999979019165},{"zip":"meetup146","country":"pe","localized_country_name":"Peru","distance":7729.672269144139,"city":"Soritor","lon":-77.06999969482422,"ranking":36,"id":1031271,"member_count":1,"lat":-6.099999904632568},{"zip":"meetup180","country":"pe","localized_country_name":"Peru","distance":7678.651557186707,"city":"Oxapampa","lon":-75.4000015258789,"ranking":37,"id":1031305,"member_count":1,"lat":-10.569999694824219},{"zip":"meetup183","country":"pe","localized_country_name":"Peru","distance":7681.546851332825,"city":"Ilabaya","lon":-70.5199966430664,"ranking":38,"id":1031308,"member_count":1,"lat":-17.420000076293945},{"zip":"meetup191","country":"pe","localized_country_name":"Peru","distance":7512.731642089051,"city":"El Alto","lon":-81.22000122070312,"ranking":39,"id":1031316,"member_count":1,"lat":-4.269999980926514},{"zip":"meetup193","country":"pe","localized_country_name":"Peru","distance":7587.839040298724,"city":"Morococha","lon":-76.13999938964844,"ranking":40,"id":1031318,"member_count":1,"lat":-11.600000381469727},{"zip":"meetup195","country":"pe","localized_country_name":"Peru","distance":7636.3668334368895,"city":"Acobamba","lon":-74.56999969482422,"ranking":41,"id":1031320,"member_count":1,"lat":-12.880000114440918},{"zip":"meetup223","country":"pe","localized_country_name":"Peru","distance":7511.5663314158655,"city":"Caleta de Carquín","lon":-77.61000061035156,"ranking":42,"id":1031348,"member_count":1,"lat":-11.100000381469727},{"zip":"meetup248","country":"pe","localized_country_name":"Peru","distance":7624.300980491313,"city":"Lircay","lon":-74.72000122070312,"ranking":43,"id":1031373,"member_count":1,"lat":-12.930000305175781},{"zip":"meetup265","country":"pe","localized_country_name":"Peru","distance":7632.013493926534,"city":"Llata","lon":-76.79000091552734,"ranking":44,"id":1031390,"member_count":1,"lat":-9.40999984741211},{"zip":"meetup14","country":"pe","localized_country_name":"Peru","distance":7804.560492290808,"city":"Juliaca","lon":-70.13999938964844,"ranking":45,"id":1031139,"member_count":1,"lat":-15.5},{"zip":"meetup16","country":"pe","localized_country_name":"Peru","distance":7646.528380214159,"city":"Ayacucho","lon":-74.22000122070312,"ranking":46,"id":1031141,"member_count":1,"lat":-13.170000076293945},{"zip":"meetup18","country":"pe","localized_country_name":"Peru","distance":7755.270267684341,"city":"Tarapoto","lon":-76.4800033569336,"ranking":47,"id":1031143,"member_count":1,"lat":-6.510000228881836},{"zip":"meetup275","country":"pe","localized_country_name":"Peru","distance":7625.418539791593,"city":"Orcotuna","lon":-75.33999633789062,"ranking":48,"id":1031400,"member_count":1,"lat":-11.960000038146973},{"zip":"meetup26","country":"pe","localized_country_name":"Peru","distance":7521.514411011539,"city":"Huaral","lon":-77.20999908447266,"ranking":49,"id":1031151,"member_count":1,"lat":-11.5},{"zip":"meetup33","country":"pe","localized_country_name":"Peru","distance":7622.738262150767,"city":"Tarma","lon":-75.7300033569336,"ranking":50,"id":1031158,"member_count":1,"lat":-11.40999984741211},{"zip":"meetup43","country":"pe","localized_country_name":"Peru","distance":7612.700943920071,"city":"Huancavelica","lon":-74.98999786376953,"ranking":51,"id":1031168,"member_count":0,"lat":-12.789999961853027},{"zip":"meetup44","country":"pe","localized_country_name":"Peru","distance":7738.536746455001,"city":"Moyobamba","lon":-76.97000122070312,"ranking":52,"id":1031169,"member_count":0,"lat":-6.03000020980835},{"zip":"meetup45","country":"pe","localized_country_name":"Peru","distance":7997.895593732824,"city":"Tambopata","lon":-69.18000030517578,"ranking":53,"id":1031170,"member_count":0,"lat":-12.729999542236328},{"zip":"meetup46","country":"pe","localized_country_name":"Peru","distance":7791.573834234189,"city":"Sicuani","lon":-71.2300033569336,"ranking":54,"id":1031171,"member_count":0,"lat":-14.289999961853027},{"zip":"meetup47","country":"pe","localized_country_name":"Peru","distance":7537.231010567573,"city":"Saña","lon":-79.58000183105469,"ranking":55,"id":1031172,"member_count":0,"lat":-6.909999847412109},{"zip":"meetup48","country":"pe","localized_country_name":"Peru","distance":7715.941039557772,"city":"Juanjuí","lon":-76.73999786376953,"ranking":56,"id":1031173,"member_count":0,"lat":-7.170000076293945},{"zip":"meetup49","country":"pe","localized_country_name":"Peru","distance":7532.095994844762,"city":"Ferreñafe","lon":-79.80000305175781,"ranking":57,"id":1031174,"member_count":0,"lat":-6.630000114440918},{"zip":"meetup50","country":"pe","localized_country_name":"Peru","distance":7510.359028175208,"city":"Imperial","lon":-76.36000061035156,"ranking":58,"id":1031175,"member_count":0,"lat":-13.069999694824219},{"zip":"meetup51","country":"pe","localized_country_name":"Peru","distance":7511.888319901678,"city":"Nuevo Imperial","lon":-76.33000183105469,"ranking":59,"id":1031176,"member_count":0,"lat":-13.079999923706055},{"zip":"meetup52","country":"pe","localized_country_name":"Peru","distance":8002.354083538904,"city":"Puerto Maldonado","lon":-69.19999694824219,"ranking":60,"id":1031177,"member_count":0,"lat":-12.600000381469727},{"zip":"meetup53","country":"pe","localized_country_name":"Peru","distance":7509.874641645135,"city":"La Unión","lon":-80.73999786376953,"ranking":61,"id":1031178,"member_count":0,"lat":-5.400000095367432},{"zip":"meetup54","country":"pe","localized_country_name":"Peru","distance":7604.341410700203,"city":"La Oroya","lon":-75.94000244140625,"ranking":62,"id":1031179,"member_count":0,"lat":-11.520000457763672},{"zip":"meetup55","country":"pe","localized_country_name":"Peru","distance":7516.015762260871,"city":"La Arena","lon":-80.68000030517578,"ranking":63,"id":1031180,"member_count":0,"lat":-5.329999923706055},{"zip":"meetup56","country":"pe","localized_country_name":"Peru","distance":7530.388822816005,"city":"Chocope","lon":-79.2300033569336,"ranking":64,"id":1031181,"member_count":0,"lat":-7.78000020980835},{"zip":"meetup57","country":"pe","localized_country_name":"Peru","distance":7513.729599206347,"city":"Paramonga","lon":-77.83999633789062,"ranking":65,"id":1031182,"member_count":0,"lat":-10.670000076293945},{"zip":"meetup58","country":"pe","localized_country_name":"Peru","distance":7521.181639331049,"city":"Pacasmayo","lon":-79.56999969482422,"ranking":66,"id":1031183,"member_count":0,"lat":-7.400000095367432},{"zip":"meetup59","country":"pe","localized_country_name":"Peru","distance":7515.080011231755,"city":"Chancay","lon":-77.2699966430664,"ranking":67,"id":1031184,"member_count":0,"lat":-11.5600004196167},{"zip":"meetup60","country":"pe","localized_country_name":"Peru","distance":7608.9952832222025,"city":"Chaupimarca","lon":-76.54000091552734,"ranking":68,"id":1031185,"member_count":0,"lat":-10.430000305175781},{"zip":"meetup61","country":"pe","localized_country_name":"Peru","distance":7510.65533857658,"city":"Hualmay","lon":-77.62999725341797,"ranking":69,"id":1031186,"member_count":0,"lat":-11.09000015258789},{"zip":"meetup62","country":"pe","localized_country_name":"Peru","distance":7605.034871384228,"city":"Mollendo","lon":-72.0199966430664,"ranking":70,"id":1031187,"member_count":0,"lat":-17.020000457763672},{"zip":"meetup63","country":"pe","localized_country_name":"Peru","distance":7695.172640054713,"city":"Tocache","lon":-76.5199966430664,"ranking":71,"id":1031188,"member_count":0,"lat":-8.180000305175781},{"zip":"meetup64","country":"pe","localized_country_name":"Peru","distance":7550.108028232838,"city":"Tambo Grande","lon":-80.3499984741211,"ranking":72,"id":1031189,"member_count":0,"lat":-4.929999828338623},{"zip":"meetup65","country":"pe","localized_country_name":"Peru","distance":7506.8498075600455,"city":"San Vicente de Cañete","lon":-76.4000015258789,"ranking":73,"id":1031190,"member_count":0,"lat":-13.09000015258789},{"zip":"meetup66","country":"pe","localized_country_name":"Peru","distance":7654.873716165303,"city":"La Peca","lon":-78.44000244140625,"ranking":74,"id":1031191,"member_count":0,"lat":-5.610000133514404},{"zip":"meetup69","country":"pe","localized_country_name":"Peru","distance":7758.509053841751,"city":"Santa Ana","lon":-72.72000122070312,"ranking":75,"id":1031194,"member_count":0,"lat":-12.869999885559082},{"zip":"meetup70","country":"pe","localized_country_name":"Peru","distance":7723.697352284591,"city":"Rioja","lon":-77.18000030517578,"ranking":76,"id":1031195,"member_count":0,"lat":-6.059999942779541},{"zip":"meetup71","country":"pe","localized_country_name":"Peru","distance":7537.547352685065,"city":"Laredo","lon":-78.94999694824219,"ranking":77,"id":1031196,"member_count":0,"lat":-8.100000381469727},{"zip":"meetup72","country":"pe","localized_country_name":"Peru","distance":7527.278692052756,"city":"Marcavélica","lon":-80.72000122070312,"ranking":78,"id":1031197,"member_count":0,"lat":-4.880000114440918},{"zip":"meetup73","country":"pe","localized_country_name":"Peru","distance":7531.53286515159,"city":"Querecotillo","lon":-80.66000366210938,"ranking":79,"id":1031198,"member_count":0,"lat":-4.869999885559082},{"zip":"meetup74","country":"pe","localized_country_name":"Peru","distance":7607.40937080118,"city":"Yanacancha","lon":-76.54000091552734,"ranking":80,"id":1031199,"member_count":0,"lat":-10.470000267028809},{"zip":"meetup75","country":"pe","localized_country_name":"Peru","distance":7523.030198920791,"city":"Nazca","lon":-74.94000244140625,"ranking":81,"id":1031200,"member_count":0,"lat":-14.829999923706055},{"zip":"meetup76","country":"pe","localized_country_name":"Peru","distance":7513.849658826382,"city":"Huaura","lon":-77.5999984741211,"ranking":82,"id":1031201,"member_count":0,"lat":-11.0600004196167},{"zip":"meetup77","country":"pe","localized_country_name":"Peru","distance":7528.752341753425,"city":"Moche","lon":-79.04000091552734,"ranking":83,"id":1031202,"member_count":0,"lat":-8.180000305175781},{"zip":"meetup78","country":"pe","localized_country_name":"Peru","distance":7522.7235194712275,"city":"Santiago de Cao","lon":-79.25,"ranking":84,"id":1031203,"member_count":0,"lat":-7.960000038146973},{"zip":"meetup79","country":"pe","localized_country_name":"Peru","distance":7499.570365735108,"city":"Sechura","lon":-80.81999969482422,"ranking":85,"id":1031204,"member_count":0,"lat":-5.559999942779541},{"zip":"meetup81","country":"pe","localized_country_name":"Peru","distance":8036.51754422235,"city":"Paucarpata","lon":-73.30000305175781,"ranking":86,"id":1031206,"member_count":0,"lat":-4.21999979019165},{"zip":"meetup82","country":"pe","localized_country_name":"Peru","distance":7537.150359215194,"city":"Casma","lon":-78.20999908447266,"ranking":87,"id":1031207,"member_count":0,"lat":-9.4399995803833},{"zip":"meetup83","country":"pe","localized_country_name":"Peru","distance":7526.864101716009,"city":"Paiján","lon":-79.30999755859375,"ranking":88,"id":1031208,"member_count":0,"lat":-7.730000019073486},{"zip":"meetup85","country":"pe","localized_country_name":"Peru","distance":7538.599389605825,"city":"Virú","lon":-78.76000213623047,"ranking":89,"id":1031210,"member_count":0,"lat":-8.420000076293945},{"zip":"meetup86","country":"pe","localized_country_name":"Peru","distance":7970.931776572705,"city":"Requena","lon":-73.91000366210938,"ranking":90,"id":1031211,"member_count":0,"lat":-5.070000171661377},{"zip":"meetup87","country":"pe","localized_country_name":"Peru","distance":7649.484203516422,"city":"Bagua Grande","lon":-78.44000244140625,"ranking":91,"id":1031212,"member_count":0,"lat":-5.78000020980835},{"zip":"meetup89","country":"pe","localized_country_name":"Peru","distance":7804.754129778163,"city":"Ayaviri","lon":-70.5999984741211,"ranking":92,"id":1031214,"member_count":0,"lat":-14.880000114440918},{"zip":"meetup90","country":"pe","localized_country_name":"Peru","distance":7619.298416266828,"city":"Corrales","lon":-72.6500015258789,"ranking":93,"id":1031215,"member_count":0,"lat":-15.930000305175781},{"zip":"meetup91","country":"pe","localized_country_name":"Peru","distance":7654.321483515403,"city":"Huanta","lon":-74.25,"ranking":94,"id":1031216,"member_count":0,"lat":-12.949999809265137},{"zip":"meetup93","country":"pe","localized_country_name":"Peru","distance":7509.888483672583,"city":"Malaita","lon":-76.63999938964844,"ranking":95,"id":1031218,"member_count":0,"lat":-12.65999984741211},{"zip":"meetup94","country":"pe","localized_country_name":"Peru","distance":7512.821680197612,"city":"Pachacámac","lon":-76.87000274658203,"ranking":96,"id":1031219,"member_count":0,"lat":-12.239999771118164},{"zip":"meetup95","country":"pe","localized_country_name":"Peru","distance":7527.041258091673,"city":"Huanchanco","lon":-79.12000274658203,"ranking":97,"id":1031220,"member_count":0,"lat":-8.079999923706055},{"zip":"meetup96","country":"pe","localized_country_name":"Peru","distance":7693.797942169806,"city":"Uchiza","lon":-76.41000366210938,"ranking":98,"id":1031221,"member_count":0,"lat":-8.420000076293945},{"zip":"meetup98","country":"pe","localized_country_name":"Peru","distance":7596.171646781291,"city":"Zarumilla","lon":-80.29000091552734,"ranking":99,"id":1031223,"member_count":0,"lat":-3.5},{"zip":"meetup99","country":"pe","localized_country_name":"Peru","distance":7580.037221010869,"city":"Camaná","lon":-72.72000122070312,"ranking":100,"id":1031224,"member_count":0,"lat":-16.6200008392334},{"zip":"meetup100","country":"pe","localized_country_name":"Peru","distance":7516.273255212633,"city":"Huarmey","lon":-78.16000366210938,"ranking":101,"id":1031225,"member_count":0,"lat":-10.069999694824219},{"zip":"meetup101","country":"pe","localized_country_name":"Peru","distance":7806.227821196079,"city":"Ilave","lon":-69.66999816894531,"ranking":102,"id":1031226,"member_count":0,"lat":-16.079999923706055},{"zip":"meetup102","country":"pe","localized_country_name":"Peru","distance":7523.7901165383755,"city":"San Pedro de Lloc","lon":-79.5199966430664,"ranking":103,"id":1031227,"member_count":0,"lat":-7.420000076293945},{"zip":"meetup104","country":"pe","localized_country_name":"Peru","distance":7559.138691541281,"city":"Chongoyape","lon":-79.38999938964844,"ranking":104,"id":1031229,"member_count":0,"lat":-6.630000114440918},{"zip":"meetup105","country":"pe","localized_country_name":"Peru","distance":7497.376913266029,"city":"San Clemente","lon":-76.1500015258789,"ranking":105,"id":1031230,"member_count":0,"lat":-13.670000076293945},{"zip":"meetup107","country":"pe","localized_country_name":"Peru","distance":7496.912945746731,"city":"Marcona","lon":-75.06999969482422,"ranking":106,"id":1031232,"member_count":0,"lat":-15.199999809265137},{"zip":"meetup108","country":"pe","localized_country_name":"Peru","distance":7516.838637596941,"city":"Pimentel","lon":-79.93000030517578,"ranking":107,"id":1031233,"member_count":0,"lat":-6.829999923706055},{"zip":"meetup110","country":"pe","localized_country_name":"Peru","distance":7733.223943424957,"city":"Bojaya","lon":-76.52999877929688,"ranking":108,"id":1031235,"member_count":0,"lat":-7.070000171661377},{"zip":"meetup111","country":"pe","localized_country_name":"Peru","distance":7525.1880210699655,"city":"Choishco","lon":-78.62999725341797,"ranking":109,"id":1031236,"member_count":0,"lat":-9.020000457763672},{"zip":"meetup112","country":"pe","localized_country_name":"Peru","distance":7533.206099310486,"city":"Chicama","lon":-79.1500015258789,"ranking":110,"id":1031237,"member_count":0,"lat":-7.849999904632568},{"zip":"meetup113","country":"pe","localized_country_name":"Peru","distance":7515.775835795229,"city":"Supe","lon":-77.7300033569336,"ranking":111,"id":1031238,"member_count":0,"lat":-10.800000190734863},{"zip":"meetup114","country":"pe","localized_country_name":"Peru","distance":7659.969024384944,"city":"Apaseo el Grande","lon":-75.33999633789062,"ranking":112,"id":1031239,"member_count":0,"lat":-11.130000114440918},{"zip":"meetup115","country":"pe","localized_country_name":"Peru","distance":7720.112859288901,"city":"Saposoa","lon":-76.80000305175781,"ranking":113,"id":1031240,"member_count":0,"lat":-6.929999828338623},{"zip":"meetup116","country":"pe","localized_country_name":"Peru","distance":7633.288429194864,"city":"Celendín","lon":-78.1500015258789,"ranking":114,"id":1031241,"member_count":0,"lat":-6.860000133514404},{"zip":"meetup117","country":"pe","localized_country_name":"Peru","distance":7605.334725648225,"city":"Cutervo","lon":-78.81999969482422,"ranking":115,"id":1031242,"member_count":0,"lat":-6.369999885559082},{"zip":"meetup118","country":"pe","localized_country_name":"Peru","distance":7610.620682485047,"city":"Chota","lon":-78.6500015258789,"ranking":116,"id":1031243,"member_count":0,"lat":-6.550000190734863},{"zip":"meetup119","country":"pe","localized_country_name":"Peru","distance":7534.363279221427,"city":"La Brea","lon":-80.9000015258789,"ranking":117,"id":1031244,"member_count":0,"lat":-4.25},{"zip":"meetup120","country":"pe","localized_country_name":"Peru","distance":7526.672468524252,"city":"Santa","lon":-78.62999725341797,"ranking":118,"id":1031245,"member_count":0,"lat":-8.979999542236328},{"zip":"meetup122","country":"pe","localized_country_name":"Peru","distance":7509.367814146275,"city":"Chilca","lon":-76.73999786376953,"ranking":119,"id":1031247,"member_count":0,"lat":-12.520000457763672},{"zip":"meetup123","country":"pe","localized_country_name":"Peru","distance":7823.86132555076,"city":"Contamana","lon":-75.0199966430664,"ranking":120,"id":1031248,"member_count":0,"lat":-7.340000152587891},{"zip":"meetup124","country":"pe","localized_country_name":"Peru","distance":7631.43446815595,"city":"Santa Rosa de Saco","lon":-75.30000305175781,"ranking":121,"id":1031249,"member_count":0,"lat":-11.880000114440918},{"zip":"meetup125","country":"pe","localized_country_name":"Peru","distance":7518.440566644226,"city":"Etén","lon":-79.87000274658203,"ranking":122,"id":1031250,"member_count":0,"lat":-6.900000095367432},{"zip":"meetup126","country":"pe","localized_country_name":"Peru","distance":7553.811208473996,"city":"Motupe","lon":-79.70999908447266,"ranking":123,"id":1031251,"member_count":0,"lat":-6.150000095367432},{"zip":"meetup127","country":"pe","localized_country_name":"Peru","distance":7755.261072347214,"city":"Santa Maria de Lamas","lon":-76.5199966430664,"ranking":124,"id":1031252,"member_count":0,"lat":-6.429999828338623},{"zip":"meetup128","country":"pe","localized_country_name":"Peru","distance":7499.9956031181155,"city":"Colán","lon":-81.05999755859375,"ranking":125,"id":1031253,"member_count":0,"lat":-5.039999961853027},{"zip":"meetup129","country":"pe","localized_country_name":"Peru","distance":7614.538117343017,"city":"Cajabamba","lon":-78.04000091552734,"ranking":126,"id":1031254,"member_count":0,"lat":-7.619999885559082},{"zip":"meetup131","country":"pe","localized_country_name":"Peru","distance":7614.224116768069,"city":"Bambamarca","lon":-78.52999877929688,"ranking":127,"id":1031256,"member_count":0,"lat":-6.679999828338623},{"zip":"meetup132","country":"pe","localized_country_name":"Peru","distance":7760.494962712362,"city":"Quillabamba","lon":-72.70999908447266,"ranking":128,"id":1031257,"member_count":0,"lat":-12.84000015258789},{"zip":"meetup133","country":"pe","localized_country_name":"Peru","distance":7746.782588704117,"city":"Yanahuara","lon":-70.55000305175781,"ranking":129,"id":1031258,"member_count":0,"lat":-16.1200008392334},{"zip":"meetup134","country":"pe","localized_country_name":"Peru","distance":7555.768743163096,"city":"Pueblo Nuevo","lon":-79.88999938964844,"ranking":130,"id":1031259,"member_count":0,"lat":-5.71999979019165},{"zip":"meetup135","country":"pe","localized_country_name":"Peru","distance":7514.056636950084,"city":"Supe Puerto","lon":-77.75,"ranking":131,"id":1031260,"member_count":0,"lat":-10.8100004196167},{"zip":"meetup136","country":"pe","localized_country_name":"Peru","distance":7747.309935842232,"city":"Tabalosos","lon":-76.68000030517578,"ranking":132,"id":1031261,"member_count":0,"lat":-6.349999904632568},{"zip":"meetup137","country":"pe","localized_country_name":"Peru","distance":7506.927060320035,"city":"Vice","lon":-80.77999877929688,"ranking":133,"id":1031262,"member_count":0,"lat":-5.409999847412109},{"zip":"meetup138","country":"pe","localized_country_name":"Peru","distance":7515.167395518454,"city":"Pativilca","lon":-77.80000305175781,"ranking":134,"id":1031263,"member_count":0,"lat":-10.699999809265137},{"zip":"meetup139","country":"pe","localized_country_name":"Peru","distance":7567.014428371735,"city":"Zorritos","lon":-80.66000366210938,"ranking":135,"id":1031264,"member_count":0,"lat":-3.6700000762939453},{"zip":"meetup140","country":"pe","localized_country_name":"Peru","distance":7994.533425439545,"city":"Nauta","lon":-73.77999877929688,"ranking":136,"id":1031265,"member_count":0,"lat":-4.570000171661377},{"zip":"meetup141","country":"pe","localized_country_name":"Peru","distance":7567.442708776308,"city":"Morropón","lon":-79.97000122070312,"ranking":137,"id":1031266,"member_count":0,"lat":-5.179999828338623},{"zip":"meetup142","country":"pe","localized_country_name":"Peru","distance":7628.85042566568,"city":"Concepción","lon":-75.31999969482422,"ranking":138,"id":1031267,"member_count":0,"lat":-11.90999984741211},{"zip":"meetup143","country":"pe","localized_country_name":"Peru","distance":7496.022221708794,"city":"Tupac Amaru Inca","lon":-76.1500015258789,"ranking":139,"id":1031268,"member_count":0,"lat":-13.699999809265137},{"zip":"meetup144","country":"pe","localized_country_name":"Peru","distance":7577.52847486125,"city":"Caraz","lon":-77.81999969482422,"ranking":140,"id":1031269,"member_count":0,"lat":-9.050000190734863},{"zip":"meetup145","country":"pe","localized_country_name":"Peru","distance":7582.183655910429,"city":"Puquío","lon":-74.12999725341797,"ranking":141,"id":1031270,"member_count":0,"lat":-14.699999809265137},{"zip":"meetup147","country":"pe","localized_country_name":"Peru","distance":7556.495274285727,"city":"Ulma","lon":-79.61000061035156,"ranking":142,"id":1031272,"member_count":0,"lat":-6.269999980926514},{"zip":"meetup148","country":"pe","localized_country_name":"Peru","distance":7524.786227005083,"city":"Santa Rosa","lon":-79.83999633789062,"ranking":143,"id":1031273,"member_count":0,"lat":-6.769999980926514},{"zip":"meetup149","country":"pe","localized_country_name":"Peru","distance":7500.540436185194,"city":"Santiago","lon":-75.73999786376953,"ranking":144,"id":1031274,"member_count":0,"lat":-14.1899995803833},{"zip":"meetup150","country":"pe","localized_country_name":"Peru","distance":7689.390305969553,"city":"Tingo María","lon":-75.98999786376953,"ranking":145,"id":1031275,"member_count":0,"lat":-9.289999961853027},{"zip":"meetup151","country":"pe","localized_country_name":"Peru","distance":7508.285440370386,"city":"Vista Alegre","lon":-75.72000122070312,"ranking":146,"id":1031276,"member_count":0,"lat":-14.050000190734863},{"zip":"meetup152","country":"pe","localized_country_name":"Peru","distance":7671.961125101417,"city":"Yunguyo","lon":-70.87000274658203,"ranking":147,"id":1031277,"member_count":0,"lat":-17.170000076293945},{"zip":"meetup153","country":"pe","localized_country_name":"Peru","distance":7569.722110011267,"city":"Otuzco","lon":-78.56999969482422,"ranking":148,"id":1031278,"member_count":0,"lat":-7.900000095367432},{"zip":"meetup154","country":"pe","localized_country_name":"Peru","distance":7530.620163004556,"city":"Salaverry","lon":-78.98999786376953,"ranking":149,"id":1031279,"member_count":0,"lat":-8.220000267028809},{"zip":"meetup155","country":"pe","localized_country_name":"Peru","distance":7556.673965201989,"city":"Olmos","lon":-79.75,"ranking":150,"id":1031280,"member_count":0,"lat":-5.980000019073486},{"zip":"meetup156","country":"pe","localized_country_name":"Peru","distance":7523.084780470408,"city":"Reque","lon":-79.81999969482422,"ranking":151,"id":1031281,"member_count":0,"lat":-6.860000133514404},{"zip":"meetup157","country":"pe","localized_country_name":"Peru","distance":7511.067186275805,"city":"Huamantla","lon":-77,"ranking":152,"id":1031282,"member_count":0,"lat":-12.079999923706055},{"zip":"meetup158","country":"pe","localized_country_name":"Peru","distance":7740.3943960854895,"city":"San José de Sisa","lon":-76.6500015258789,"ranking":153,"id":1031283,"member_count":0,"lat":-6.619999885559082},{"zip":"meetup159","country":"pe","localized_country_name":"Peru","distance":7851.627132597403,"city":"Lagunas","lon":-75.63999938964844,"ranking":154,"id":1031284,"member_count":0,"lat":-5.230000019073486},{"zip":"meetup160","country":"pe","localized_country_name":"Peru","distance":7787.715456570329,"city":"Calca","lon":-71.97000122070312,"ranking":155,"id":1031285,"member_count":0,"lat":-13.319999694824219},{"zip":"meetup161","country":"pe","localized_country_name":"Peru","distance":7622.096570600079,"city":"Carhuamayo","lon":-76.05000305175781,"ranking":156,"id":1031286,"member_count":0,"lat":-10.90999984741211},{"zip":"meetup162","country":"pe","localized_country_name":"Peru","distance":7624.468094012898,"city":"Chupaca","lon":-75.29000091552734,"ranking":157,"id":1031287,"member_count":0,"lat":-12.0600004196167},{"zip":"meetup163","country":"pe","localized_country_name":"Peru","distance":7591.673222154078,"city":"Quiruvilca","lon":-78.19999694824219,"ranking":158,"id":1031288,"member_count":0,"lat":-7.96999979019165},{"zip":"meetup164","country":"pe","localized_country_name":"Peru","distance":7614.4624658309995,"city":"Yauya","lon":-77.30000305175781,"ranking":159,"id":1031289,"member_count":0,"lat":-8.979999542236328},{"zip":"meetup165","country":"pe","localized_country_name":"Peru","distance":7507.891368826645,"city":"Subtanjalla","lon":-75.73999786376953,"ranking":160,"id":1031290,"member_count":0,"lat":-14.029999732971191},{"zip":"meetup166","country":"pe","localized_country_name":"Peru","distance":7598.052487438173,"city":"Aguas Verdes","lon":-80.2699966430664,"ranking":161,"id":1031291,"member_count":0,"lat":-3.4800000190734863},{"zip":"meetup167","country":"pe","localized_country_name":"Peru","distance":7565.191277590058,"city":"Las Lomas","lon":-80.25,"ranking":162,"id":1031292,"member_count":0,"lat":-4.650000095367432},{"zip":"meetup168","country":"pe","localized_country_name":"Peru","distance":7631.769092781685,"city":"San Jerónimo de Tunán","lon":-75.25,"ranking":163,"id":1031293,"member_count":0,"lat":-11.949999809265137},{"zip":"meetup169","country":"pe","localized_country_name":"Peru","distance":7797.775624186258,"city":"Campoverde","lon":-74.80999755859375,"ranking":164,"id":1031294,"member_count":0,"lat":-8.470000267028809},{"zip":"meetup170","country":"pe","localized_country_name":"Peru","distance":7617.651961545495,"city":"Cocachacra","lon":-71.7699966430664,"ranking":165,"id":1031295,"member_count":0,"lat":-17.09000015258789},{"zip":"meetup171","country":"pe","localized_country_name":"Peru","distance":7533.69063489414,"city":"Pacanga","lon":-79.5,"ranking":166,"id":1031296,"member_count":0,"lat":-7.170000076293945},{"zip":"meetup172","country":"pe","localized_country_name":"Peru","distance":7626.210447471704,"city":"Pilcomayo","lon":-75.2699966430664,"ranking":167,"id":1031297,"member_count":0,"lat":-12.050000190734863},{"zip":"meetup173","country":"pe","localized_country_name":"Peru","distance":7599.848111661322,"city":"Huancabamba","lon":-79.44999694824219,"ranking":168,"id":1031298,"member_count":0,"lat":-5.239999771118164},{"zip":"meetup174","country":"pe","localized_country_name":"Peru","distance":7852.478421342006,"city":"Putina","lon":-69.43000030517578,"ranking":169,"id":1031299,"member_count":0,"lat":-15.470000267028809},{"zip":"meetup175","country":"pe","localized_country_name":"Peru","distance":7509.908870995664,"city":"La Huaca","lon":-80.97000122070312,"ranking":170,"id":1031300,"member_count":0,"lat":-4.909999847412109},{"zip":"meetup176","country":"pe","localized_country_name":"Peru","distance":7776.425432139135,"city":"Chazuta","lon":-76.12999725341797,"ranking":171,"id":1031301,"member_count":0,"lat":-6.570000171661377},{"zip":"meetup177","country":"pe","localized_country_name":"Peru","distance":7632.602856751429,"city":"San Ignacio","lon":-79,"ranking":172,"id":1031302,"member_count":0,"lat":-5.139999866485596},{"zip":"meetup178","country":"pe","localized_country_name":"Peru","distance":7739.6519595835825,"city":"Huancane","lon":-70.88999938964844,"ranking":173,"id":1031303,"member_count":0,"lat":-15.819999694824219},{"zip":"meetup179","country":"pe","localized_country_name":"Peru","distance":7509.267891707101,"city":"Los Aquijes","lon":-75.66999816894531,"ranking":174,"id":1031304,"member_count":0,"lat":-14.100000381469727},{"zip":"meetup181","country":"pe","localized_country_name":"Peru","distance":7565.272079406289,"city":"Buenos Aires","lon":-79.97000122070312,"ranking":175,"id":1031306,"member_count":0,"lat":-5.25},{"zip":"meetup182","country":"pe","localized_country_name":"Peru","distance":7589.213547724243,"city":"Coracora","lon":-73.79000091552734,"ranking":176,"id":1031307,"member_count":0,"lat":-15.020000457763672},{"zip":"meetup184","country":"pe","localized_country_name":"Peru","distance":7619.876945249867,"city":"Pacocha","lon":-71.33999633789062,"ranking":177,"id":1031309,"member_count":0,"lat":-17.579999923706055},{"zip":"meetup185","country":"pe","localized_country_name":"Peru","distance":7778.303343693988,"city":"Urubamba","lon":-72.12000274658203,"ranking":178,"id":1031310,"member_count":0,"lat":-13.3100004196167},{"zip":"meetup186","country":"pe","localized_country_name":"Peru","distance":7679.898946180583,"city":"Villa Rica","lon":-75.29000091552734,"ranking":179,"id":1031311,"member_count":0,"lat":-10.720000267028809},{"zip":"meetup187","country":"pe","localized_country_name":"Peru","distance":7526.124387933203,"city":"Chiapa","lon":-79.83999633789062,"ranking":180,"id":1031312,"member_count":0,"lat":-6.730000019073486},{"zip":"meetup188","country":"pe","localized_country_name":"Peru","distance":7530.466975236516,"city":"Mochumí","lon":-79.87000274658203,"ranking":181,"id":1031313,"member_count":0,"lat":-6.539999961853027},{"zip":"meetup189","country":"pe","localized_country_name":"Peru","distance":7676.7996413155515,"city":"Talavera","lon":-73.43000030517578,"ranking":182,"id":1031314,"member_count":0,"lat":-13.649999618530273},{"zip":"meetup190","country":"pe","localized_country_name":"Peru","distance":7651.416562561004,"city":"Cajaruro","lon":-78.43000030517578,"ranking":183,"id":1031315,"member_count":0,"lat":-5.739999771118164},{"zip":"meetup192","country":"pe","localized_country_name":"Peru","distance":7813.471386467733,"city":"Juli","lon":-69.44999694824219,"ranking":184,"id":1031317,"member_count":0,"lat":-16.219999313354492},{"zip":"meetup194","country":"pe","localized_country_name":"Peru","distance":7530.890683595771,"city":"Máncora","lon":-81.0199966430664,"ranking":185,"id":1031319,"member_count":0,"lat":-4.099999904632568},{"zip":"meetup196","country":"pe","localized_country_name":"Peru","distance":7571.037964128604,"city":"Chicla","lon":-76.30000305175781,"ranking":186,"id":1031321,"member_count":0,"lat":-11.75},{"zip":"meetup198","country":"pe","localized_country_name":"Peru","distance":7779.9047427398355,"city":"Vargas Guerra","lon":-77.72000122070312,"ranking":187,"id":1031323,"member_count":0,"lat":-2.9700000286102295},{"zip":"meetup199","country":"pe","localized_country_name":"Peru","distance":7768.464597285845,"city":"Juan Lacaze","lon":-76.16999816894531,"ranking":188,"id":1031324,"member_count":0,"lat":-6.730000019073486},{"zip":"meetup200","country":"pe","localized_country_name":"Peru","distance":7513.009602789122,"city":"Quilmaná","lon":-76.4000015258789,"ranking":189,"id":1031325,"member_count":0,"lat":-12.949999809265137},{"zip":"meetup201","country":"pe","localized_country_name":"Peru","distance":7532.448142873582,"city":"Túcume","lon":-79.8499984741211,"ranking":190,"id":1031326,"member_count":0,"lat":-6.519999980926514},{"zip":"meetup202","country":"pe","localized_country_name":"Peru","distance":7679.005353598638,"city":"Torata","lon":-70.8499984741211,"ranking":191,"id":1031327,"member_count":0,"lat":-17.059999465942383},{"zip":"meetup203","country":"pe","localized_country_name":"Peru","distance":7541.166849104245,"city":"Santa Eulalia","lon":-76.69000244140625,"ranking":192,"id":1031328,"member_count":0,"lat":-11.850000381469727},{"zip":"meetup204","country":"pe","localized_country_name":"Peru","distance":7584.011519567719,"city":"Oyón","lon":-76.77999877929688,"ranking":193,"id":1031329,"member_count":0,"lat":-10.65999984741211},{"zip":"meetup205","country":"pe","localized_country_name":"Peru","distance":7674.409255306917,"city":"Perené","lon":-75.22000122070312,"ranking":194,"id":1031330,"member_count":0,"lat":-10.970000267028809},{"zip":"meetup206","country":"pe","localized_country_name":"Peru","distance":7507.235793082143,"city":"Tuxtepec","lon":-75.75,"ranking":195,"id":1031331,"member_count":0,"lat":-14.029999732971191},{"zip":"meetup207","country":"pe","localized_country_name":"Peru","distance":7619.95810030777,"city":"Acolla","lon":-75.56999969482422,"ranking":196,"id":1031332,"member_count":0,"lat":-11.729999542236328},{"zip":"meetup208","country":"pe","localized_country_name":"Peru","distance":7645.616043461969,"city":"Ambos","lon":-76.16999816894531,"ranking":197,"id":1031333,"member_count":0,"lat":-10.119999885559082},{"zip":"meetup209","country":"pe","localized_country_name":"Peru","distance":7701.699628531275,"city":"Mazamari","lon":-74.56999969482422,"ranking":198,"id":1031334,"member_count":0,"lat":-11.350000381469727},{"zip":"meetup210","country":"pe","localized_country_name":"Peru","distance":7625.742848839246,"city":"Sicaya","lon":-75.29000091552734,"ranking":199,"id":1031335,"member_count":0,"lat":-12.029999732971191}],"meta":{"next":"http:\/\/api.meetup.com\/2\/cities?country=pe&offset=1&sign=True&format=json&photo-host=public&page=200&radius=50&order=size&desc=false","method":"Cities","total_count":274,"link":"http:\/\/api.meetup.com\/2\/cities","count":200,"description":"Returns Meetup cities. This method supports search by latitude\/longitude\/radius, by country\/state, by query term\/zip, or a combination of all of these. Location-only searches by lat and lon return all cities within a radius of the provided coordinates. Searches with a query return up to 10 cities matching the term, and can be sorted by size or distance to a given coordinate. 'smart' ordering can be used to return the match(es) with the highest member_count, unless a smaller size match exists nearby the given coordinates. Query searches are supported for country but not country and state","lon":"None","title":"Cities","url":"http:\/\/api.meetup.com\/2\/cities?country=pe&offset=0&sign=True&format=json&photo-host=public&page=200&radius=50&order=size&desc=false","id":"","updated":1251864867000,"lat":"None"}}
