{"results":[{"zip":"meetup1","country":"ps","localized_country_name":"Palestine","distance":9520.438216314013,"city":"Gaza City","lon":34.439998626708984,"ranking":0,"id":1032547,"member_count":56,"lat":31.530000686645508},{"zip":"meetup23","country":"ps","localized_country_name":"Palestine","distance":9466.04149263831,"city":"Ramallah","lon":35.20000076293945,"ranking":1,"id":1032569,"member_count":34,"lat":31.899999618530273},{"zip":"meetup2","country":"ps","localized_country_name":"Palestine","distance":9469.069646905707,"city":"al-Quds","lon":35.2400016784668,"ranking":2,"id":1032548,"member_count":15,"lat":31.780000686645508},{"zip":"meetup11","country":"ps","localized_country_name":"Palestine","distance":9456.775933308596,"city":"Tulkarm","lon":35.029998779296875,"ranking":3,"id":1032557,"member_count":12,"lat":32.31999969482422},{"zip":"meetup5","country":"ps","localized_country_name":"Palestine","distance":9449.019690946894,"city":"Nabulus","lon":35.2599983215332,"ranking":4,"id":1032551,"member_count":10,"lat":32.22999954223633},{"zip":"meetup3","country":"ps","localized_country_name":"Palestine","distance":9486.800472692741,"city":"al-Khalil","lon":35.09000015258789,"ranking":5,"id":1032549,"member_count":7,"lat":31.540000915527344},{"zip":"meetup18","country":"ps","localized_country_name":"Palestine","distance":9473.540729411328,"city":"Bayt Lahm","lon":35.209999084472656,"ranking":6,"id":1032564,"member_count":4,"lat":31.709999084472656},{"zip":"meetup20","country":"ps","localized_country_name":"Palestine","distance":9498.063080160739,"city":"ad-Dahiriyah","lon":34.959999084472656,"ranking":7,"id":1032566,"member_count":4,"lat":31.43000030517578},{"zip":"meetup28","country":"ps","localized_country_name":"Palestine","distance":9473.362821364602,"city":"Bayt Sahur","lon":35.22999954223633,"ranking":8,"id":1032574,"member_count":4,"lat":31.690000534057617},{"zip":"meetup15","country":"ps","localized_country_name":"Palestine","distance":9436.777757752887,"city":"Janin","lon":35.29999923706055,"ranking":9,"id":1032561,"member_count":3,"lat":32.470001220703125},{"zip":"meetup7","country":"ps","localized_country_name":"Palestine","distance":9535.770119543597,"city":"Khan Yunis","lon":34.290000915527344,"ranking":10,"id":1032553,"member_count":2,"lat":31.350000381469727},{"zip":"meetup9","country":"ps","localized_country_name":"Palestine","distance":9529.720714246507,"city":"Dayr-al-Balah","lon":34.349998474121094,"ranking":11,"id":1032555,"member_count":2,"lat":31.420000076293945},{"zip":"meetup14","country":"ps","localized_country_name":"Palestine","distance":9465.11173903875,"city":"al-Birah","lon":35.209999084472656,"ranking":12,"id":1032560,"member_count":2,"lat":31.90999984741211},{"zip":"meetup22","country":"ps","localized_country_name":"Palestine","distance":9466.120997581074,"city":"ar-Ram","lon":35.2400016784668,"ranking":13,"id":1032568,"member_count":2,"lat":31.850000381469727},{"zip":"meetup6","country":"ps","localized_country_name":"Palestine","distance":9540.370364851271,"city":"Rafah","lon":34.25,"ranking":14,"id":1032552,"member_count":1,"lat":31.290000915527344},{"zip":"meetup10","country":"ps","localized_country_name":"Palestine","distance":9516.09563402549,"city":"Bayt Lahiyah","lon":34.5,"ranking":15,"id":1032556,"member_count":1,"lat":31.559999465942383},{"zip":"meetup12","country":"ps","localized_country_name":"Palestine","distance":9464.935767719951,"city":"Qalqilyah","lon":34.970001220703125,"ranking":16,"id":1032558,"member_count":1,"lat":32.20000076293945},{"zip":"meetup24","country":"ps","localized_country_name":"Palestine","distance":9483.259970452087,"city":"Halhul","lon":35.11000061035156,"ranking":17,"id":1032570,"member_count":1,"lat":31.600000381469727},{"zip":"meetup29","country":"ps","localized_country_name":"Palestine","distance":9439.727324243244,"city":"Tubas","lon":35.36000061035156,"ranking":18,"id":1032575,"member_count":1,"lat":32.33000183105469},{"zip":"meetup30","country":"ps","localized_country_name":"Palestine","distance":9474.138257876955,"city":"Bayt Jala","lon":35.189998626708984,"ranking":19,"id":1032576,"member_count":1,"lat":31.719999313354492},{"zip":"meetup31","country":"ps","localized_country_name":"Palestine","distance":9459.008517671016,"city":"Salfit","lon":35.18000030517578,"ranking":20,"id":1032577,"member_count":1,"lat":32.09000015258789},{"zip":"meetup4","country":"ps","localized_country_name":"Palestine","distance":9528.109186917509,"city":"Jabaliyah","lon":34.290000915527344,"ranking":21,"id":1032550,"member_count":0,"lat":31.530000686645508},{"zip":"meetup8","country":"ps","localized_country_name":"Palestine","distance":9526.48423190893,"city":"al-Insayrat","lon":34.380001068115234,"ranking":22,"id":1032554,"member_count":0,"lat":31.459999084472656},{"zip":"meetup13","country":"ps","localized_country_name":"Palestine","distance":9488.621075954274,"city":"Yattah","lon":35.119998931884766,"ranking":23,"id":1032559,"member_count":0,"lat":31.459999084472656},{"zip":"meetup16","country":"ps","localized_country_name":"Palestine","distance":9526.734307284178,"city":"al-Burayj","lon":34.400001525878906,"ranking":24,"id":1032562,"member_count":0,"lat":31.43000030517578},{"zip":"meetup17","country":"ps","localized_country_name":"Palestine","distance":9534.65548260908,"city":"Bani Suhaylah","lon":34.31999969482422,"ranking":25,"id":1032563,"member_count":0,"lat":31.34000015258789},{"zip":"meetup19","country":"ps","localized_country_name":"Palestine","distance":9488.423196659707,"city":"Bayt Hanun","lon":35.04999923706055,"ranking":26,"id":1032565,"member_count":0,"lat":31.549999237060547},{"zip":"meetup21","country":"ps","localized_country_name":"Palestine","distance":9466.85983567355,"city":"MaÂ´ale Adummim","lon":35.29999923706055,"ranking":27,"id":1032567,"member_count":0,"lat":31.760000228881836},{"zip":"meetup25","country":"ps","localized_country_name":"Palestine","distance":9490.194009114291,"city":"Dura","lon":35.040000915527344,"ranking":28,"id":1032571,"member_count":0,"lat":31.520000457763672},{"zip":"meetup26","country":"ps","localized_country_name":"Palestine","distance":9456.474004261016,"city":"Ariha","lon":35.43000030517578,"ranking":29,"id":1032572,"member_count":0,"lat":31.850000381469727},{"zip":"meetup27","country":"ps","localized_country_name":"Palestine","distance":9440.496424555182,"city":"Qabatiyah","lon":35.2599983215332,"ranking":30,"id":1032573,"member_count":0,"lat":32.43000030517578}],"meta":{"next":"","method":"Cities","total_count":31,"link":"http:\/\/api.meetup.com\/2\/cities","count":31,"description":"Returns Meetup cities. This method supports search by latitude\/longitude\/radius, by country\/state, by query term\/zip, or a combination of all of these. Location-only searches by lat and lon return all cities within a radius of the provided coordinates. Searches with a query return up to 10 cities matching the term, and can be sorted by size or distance to a given coordinate. 'smart' ordering can be used to return the match(es) with the highest member_count, unless a smaller size match exists nearby the given coordinates. Query searches are supported for country but not country and state","lon":"None","title":"Cities","url":"http:\/\/api.meetup.com\/2\/cities?country=ps&offset=0&sign=True&format=json&photo-host=public&page=200&radius=50&order=size&desc=false","id":"","updated":1365110947000,"lat":"None"}}
