{"results":[{"zip":"meetup1","country":"th","localized_country_name":"Thailand","distance":6088.246656747614,"city":"Bangkok","lon":100.5,"ranking":0,"id":1038505,"member_count":3278,"lat":13.729999542236328},{"zip":"meetup8","country":"th","localized_country_name":"Thailand","distance":6273.997378347962,"city":"Chiang Mai","lon":98.9800033569336,"ranking":1,"id":1038512,"member_count":137,"lat":18.799999237060547},{"zip":"meetup27","country":"th","localized_country_name":"Thailand","distance":6047.877095902106,"city":"Pattaya","lon":100.9000015258789,"ranking":2,"id":1038531,"member_count":88,"lat":12.920000076293945},{"zip":"meetup32","country":"th","localized_country_name":"Thailand","distance":6073.646874286172,"city":"Phuket","lon":98.37999725341797,"ranking":3,"id":1038536,"member_count":61,"lat":7.880000114440918},{"zip":"meetup91","country":"th","localized_country_name":"Thailand","distance":5916.00234339145,"city":"Amnat Charoen","lon":104.62999725341797,"ranking":4,"id":1038595,"member_count":57,"lat":15.859999656677246},{"zip":"meetup18","country":"th","localized_country_name":"Thailand","distance":6021.2701620441685,"city":"Rayong","lon":101.27999877929688,"ranking":5,"id":1038522,"member_count":40,"lat":12.680000305175781},{"zip":"meetup9","country":"th","localized_country_name":"Thailand","distance":6085.260038407156,"city":"Phra Pradaeng","lon":100.52999877929688,"ranking":6,"id":1038513,"member_count":38,"lat":13.670000076293945},{"zip":"meetup3","country":"th","localized_country_name":"Thailand","distance":6107.389641796675,"city":"Nonthaburi","lon":100.18000030517578,"ranking":7,"id":1038507,"member_count":34,"lat":13.800000190734863},{"zip":"meetup118","country":"th","localized_country_name":"Thailand","distance":6093.588776879782,"city":"Pathum Thani","lon":100.5199966430664,"ranking":8,"id":1038622,"member_count":22,"lat":14.020000457763672},{"zip":"meetup7","country":"th","localized_country_name":"Thailand","distance":6053.312854011921,"city":"Chon Buri","lon":101,"ranking":9,"id":1038511,"member_count":19,"lat":13.399999618530273},{"zip":"meetup2","country":"th","localized_country_name":"Thailand","distance":6079.518237738958,"city":"Samut Prakan","lon":100.61000061035156,"ranking":10,"id":1038506,"member_count":15,"lat":13.609999656677246},{"zip":"meetup4","country":"th","localized_country_name":"Thailand","distance":6048.062661725122,"city":"Udon Thani","lon":102.79000091552734,"ranking":11,"id":1038508,"member_count":15,"lat":17.40999984741211},{"zip":"meetup28","country":"th","localized_country_name":"Thailand","distance":6098.364972225344,"city":"Ayutthaya","lon":100.56999969482422,"ranking":12,"id":1038532,"member_count":15,"lat":14.359999656677246},{"zip":"meetup80","country":"th","localized_country_name":"Thailand","distance":6023.164042690195,"city":"Ko Samui","lon":99.93000030517578,"ranking":13,"id":1038584,"member_count":15,"lat":9.529999732971191},{"zip":"meetup6","country":"th","localized_country_name":"Thailand","distance":5928.362809645753,"city":"Hat Yai","lon":100.47000122070312,"ranking":14,"id":1038510,"member_count":13,"lat":7},{"zip":"meetup23","country":"th","localized_country_name":"Thailand","distance":6167.099986494098,"city":"Phitsanulok","lon":100.2699966430664,"ranking":15,"id":1038527,"member_count":12,"lat":16.81999969482422},{"zip":"meetup66","country":"th","localized_country_name":"Thailand","distance":6092.783948974002,"city":"Hua Hin","lon":99.94999694824219,"ranking":16,"id":1038570,"member_count":12,"lat":12.569999694824219},{"zip":"meetup37","country":"th","localized_country_name":"Thailand","distance":6251.868205143745,"city":"Chiang Rai","lon":99.83000183105469,"ranking":17,"id":1038541,"member_count":11,"lat":19.90999984741211},{"zip":"meetup16","country":"th","localized_country_name":"Thailand","distance":6048.503749693563,"city":"Surat Thani","lon":99.33000183105469,"ranking":18,"id":1038520,"member_count":10,"lat":9.140000343322754},{"zip":"meetup5","country":"th","localized_country_name":"Thailand","distance":6029.92905026242,"city":"Nakhon Ratchasima","lon":102.0999984741211,"ranking":19,"id":1038509,"member_count":9,"lat":15},{"zip":"meetup15","country":"th","localized_country_name":"Thailand","distance":5993.201539076034,"city":"Nakhon Si Thammarat","lon":99.97000122070312,"ranking":20,"id":1038519,"member_count":9,"lat":8.399999618530273},{"zip":"meetup10","country":"th","localized_country_name":"Thailand","distance":6238.212186219284,"city":"Lampang","lon":99.4800033569336,"ranking":21,"id":1038514,"member_count":7,"lat":18.290000915527344},{"zip":"meetup13","country":"th","localized_country_name":"Thailand","distance":6023.567982745791,"city":"Khon Kaen","lon":102.83000183105469,"ranking":22,"id":1038517,"member_count":7,"lat":16.420000076293945},{"zip":"meetup14","country":"th","localized_country_name":"Thailand","distance":6114.42943688271,"city":"Nakhon Pathom","lon":100.05999755859375,"ranking":23,"id":1038518,"member_count":7,"lat":13.819999694824219},{"zip":"meetup19","country":"th","localized_country_name":"Thailand","distance":5890.5413242173745,"city":"Ubon Ratchathani","lon":104.83000183105469,"ranking":24,"id":1038523,"member_count":7,"lat":15.25},{"zip":"meetup121","country":"th","localized_country_name":"Thailand","distance":6046.613940665705,"city":"Krabi","lon":98.91000366210938,"ranking":25,"id":1038625,"member_count":6,"lat":8.050000190734863},{"zip":"meetup38","country":"th","localized_country_name":"Thailand","distance":6105.301906852243,"city":"Lop Buri","lon":100.62000274658203,"ranking":26,"id":1038542,"member_count":6,"lat":14.800000190734863},{"zip":"meetup69","country":"th","localized_country_name":"Thailand","distance":6255.155129615848,"city":"Mae Sot","lon":98.56999969482422,"ranking":27,"id":1038573,"member_count":6,"lat":16.709999084472656},{"zip":"meetup240","country":"th","localized_country_name":"Thailand","distance":6048.509378643683,"city":"Bang Khla","lon":101.22000122070312,"ranking":28,"id":1038744,"member_count":5,"lat":13.720000267028809},{"zip":"meetup12","country":"th","localized_country_name":"Thailand","distance":6051.7050334203095,"city":"Si Racha","lon":100.93000030517578,"ranking":29,"id":1038516,"member_count":5,"lat":13.15999984741211},{"zip":"meetup24","country":"th","localized_country_name":"Thailand","distance":5928.500391225119,"city":"Songkhla","lon":100.55999755859375,"ranking":30,"id":1038528,"member_count":5,"lat":7.210000038146973},{"zip":"meetup31","country":"th","localized_country_name":"Thailand","distance":6085.249839805684,"city":"Saraburi","lon":100.87999725341797,"ranking":31,"id":1038535,"member_count":5,"lat":14.529999732971191},{"zip":"meetup44","country":"th","localized_country_name":"Thailand","distance":5993.894998465876,"city":"Maha Sarakham","lon":103.29000091552734,"ranking":32,"id":1038548,"member_count":5,"lat":16.18000030517578},{"zip":"meetup88","country":"th","localized_country_name":"Thailand","distance":6096.307605920173,"city":"Bang Bo Thong","lon":100.43000030517578,"ranking":33,"id":1038592,"member_count":4,"lat":13.920000076293945},{"zip":"meetup193","country":"th","localized_country_name":"Thailand","distance":6105.134598900952,"city":"Bang Ban","lon":100.47000122070312,"ranking":34,"id":1038697,"member_count":4,"lat":14.420000076293945},{"zip":"meetup53","country":"th","localized_country_name":"Thailand","distance":6105.843084341479,"city":"Ban Phaeo","lon":100.12000274658203,"ranking":35,"id":1038557,"member_count":4,"lat":13.579999923706055},{"zip":"meetup85","country":"th","localized_country_name":"Thailand","distance":5927.80563882691,"city":"Mukdahan","lon":104.72000122070312,"ranking":36,"id":1038589,"member_count":4,"lat":16.540000915527344},{"zip":"meetup140","country":"th","localized_country_name":"Thailand","distance":6259.401343105532,"city":"Mae Sai","lon":99.87999725341797,"ranking":37,"id":1038644,"member_count":3,"lat":20.43000030517578},{"zip":"meetup252","country":"th","localized_country_name":"Thailand","distance":6108.312048820344,"city":"Ang Thong","lon":100.4800033569336,"ranking":38,"id":1038756,"member_count":3,"lat":14.59000015258789},{"zip":"meetup278","country":"th","localized_country_name":"Thailand","distance":5972.778593218842,"city":"Satuk","lon":103.30000305175781,"ranking":39,"id":1038782,"member_count":3,"lat":15.300000190734863},{"zip":"meetup25","country":"th","localized_country_name":"Thailand","distance":6121.524892070228,"city":"Ratchaburi","lon":99.81999969482422,"ranking":40,"id":1038529,"member_count":3,"lat":13.539999961853027},{"zip":"meetup26","country":"th","localized_country_name":"Thailand","distance":6099.124408177681,"city":"Krathum Baen","lon":100.2699966430664,"ranking":41,"id":1038530,"member_count":3,"lat":13.649999618530273},{"zip":"meetup35","country":"th","localized_country_name":"Thailand","distance":6092.77229091512,"city":"Bang Kruai","lon":100.44999694824219,"ranking":42,"id":1038539,"member_count":3,"lat":13.8100004196167},{"zip":"meetup50","country":"th","localized_country_name":"Thailand","distance":6056.051347014288,"city":"Chachoengsao","lon":101.06999969482422,"ranking":43,"id":1038554,"member_count":3,"lat":13.6899995803833},{"zip":"meetup64","country":"th","localized_country_name":"Thailand","distance":5952.940279658287,"city":"Surin","lon":103.48999786376953,"ranking":44,"id":1038568,"member_count":3,"lat":14.890000343322754},{"zip":"meetup99","country":"th","localized_country_name":"Thailand","distance":5975.840287554377,"city":"Buri Ram","lon":103.11000061035156,"ranking":45,"id":1038603,"member_count":2,"lat":15},{"zip":"meetup102","country":"th","localized_country_name":"Thailand","distance":5942.1363516226775,"city":"Satun","lon":100.06999969482422,"ranking":46,"id":1038606,"member_count":2,"lat":6.619999885559082},{"zip":"meetup108","country":"th","localized_country_name":"Thailand","distance":6084.238442468851,"city":"Prachuap Khiri Khan","lon":99.80000305175781,"ranking":47,"id":1038612,"member_count":2,"lat":11.819999694824219},{"zip":"meetup126","country":"th","localized_country_name":"Thailand","distance":6106.816187424606,"city":"Nong Phai","lon":101.06999969482422,"ranking":48,"id":1038630,"member_count":2,"lat":15.979999542236328},{"zip":"meetup134","country":"th","localized_country_name":"Thailand","distance":6004.3569191206225,"city":"Sa Kaeo","lon":102.06999969482422,"ranking":49,"id":1038638,"member_count":2,"lat":13.819999694824219},{"zip":"meetup141","country":"th","localized_country_name":"Thailand","distance":6233.344090107261,"city":"Phayao","lon":99.91000366210938,"ranking":50,"id":1038645,"member_count":2,"lat":19.170000076293945},{"zip":"meetup144","country":"th","localized_country_name":"Thailand","distance":6146.145884480276,"city":"Taphan Hin","lon":100.41999816894531,"ranking":51,"id":1038648,"member_count":2,"lat":16.200000762939453},{"zip":"meetup147","country":"th","localized_country_name":"Thailand","distance":5942.908167300173,"city":"Trat","lon":102.5,"ranking":52,"id":1038651,"member_count":2,"lat":12.229999542236328},{"zip":"meetup170","country":"th","localized_country_name":"Thailand","distance":5868.957657806237,"city":"Phibun Mangsahan","lon":105.2300033569336,"ranking":53,"id":1038674,"member_count":2,"lat":15.229999542236328},{"zip":"meetup175","country":"th","localized_country_name":"Thailand","distance":5966.199323674889,"city":"Kaset","lon":103.58000183105469,"ranking":54,"id":1038679,"member_count":2,"lat":15.649999618530273},{"zip":"meetup176","country":"th","localized_country_name":"Thailand","distance":6235.599794469765,"city":"Ban Tak","lon":99.05999755859375,"ranking":55,"id":1038680,"member_count":2,"lat":17.040000915527344},{"zip":"meetup181","country":"th","localized_country_name":"Thailand","distance":6270.716836827597,"city":"Pa Sang","lon":98.94000244140625,"ranking":56,"id":1038685,"member_count":2,"lat":18.520000457763672},{"zip":"meetup189","country":"th","localized_country_name":"Thailand","distance":6027.132916233713,"city":"Kabin Buri","lon":101.72000122070312,"ranking":57,"id":1038693,"member_count":2,"lat":13.979999542236328},{"zip":"meetup217","country":"th","localized_country_name":"Thailand","distance":6082.736918368936,"city":"Lang Suan","lon":99.06999969482422,"ranking":58,"id":1038721,"member_count":2,"lat":9.949999809265137},{"zip":"meetup271","country":"th","localized_country_name":"Thailand","distance":6094.757427283176,"city":"Bang Yai","lon":100.43000030517578,"ranking":59,"id":1038775,"member_count":2,"lat":13.850000381469727},{"zip":"meetup20","country":"th","localized_country_name":"Thailand","distance":6087.582415921993,"city":"Khlong Luang","lon":100.6500015258789,"ranking":60,"id":1038524,"member_count":2,"lat":14.069999694824219},{"zip":"meetup21","country":"th","localized_country_name":"Thailand","distance":6154.3090668109335,"city":"Nakhon Sawan","lon":100.06999969482422,"ranking":61,"id":1038525,"member_count":2,"lat":15.699999809265137},{"zip":"meetup29","country":"th","localized_country_name":"Thailand","distance":5868.1736768065675,"city":"Yala","lon":101.29000091552734,"ranking":62,"id":1038533,"member_count":2,"lat":6.550000190734863},{"zip":"meetup34","country":"th","localized_country_name":"Thailand","distance":5993.3135459358855,"city":"Trang","lon":99.61000061035156,"ranking":63,"id":1038538,"member_count":2,"lat":7.559999942779541},{"zip":"meetup41","country":"th","localized_country_name":"Thailand","distance":6078.99081174045,"city":"Lam Luk Ka","lon":100.75,"ranking":64,"id":1038545,"member_count":2,"lat":13.930000305175781},{"zip":"meetup59","country":"th","localized_country_name":"Thailand","distance":6263.066402764388,"city":"Lamphun","lon":99.08000183105469,"ranking":65,"id":1038563,"member_count":2,"lat":18.5},{"zip":"meetup68","country":"th","localized_country_name":"Thailand","distance":6200.119541598942,"city":"Phrae","lon":100.16000366210938,"ranking":66,"id":1038572,"member_count":2,"lat":18.149999618530273},{"zip":"meetup89","country":"th","localized_country_name":"Thailand","distance":6096.961048634257,"city":"Wichian Buri","lon":101.12000274658203,"ranking":67,"id":1038593,"member_count":1,"lat":15.649999618530273},{"zip":"meetup90","country":"th","localized_country_name":"Thailand","distance":6122.931813726303,"city":"Photharam","lon":99.8499984741211,"ranking":68,"id":1038594,"member_count":1,"lat":13.680000305175781},{"zip":"meetup94","country":"th","localized_country_name":"Thailand","distance":6049.022086400702,"city":"Bang Lamung","lon":100.9000015258789,"ranking":69,"id":1038598,"member_count":1,"lat":12.970000267028809},{"zip":"meetup96","country":"th","localized_country_name":"Thailand","distance":5945.4240915261635,"city":"Nakhon Phanom","lon":104.77999877929688,"ranking":70,"id":1038600,"member_count":1,"lat":17.399999618530273},{"zip":"meetup105","country":"th","localized_country_name":"Thailand","distance":6066.518470404226,"city":"Bang Bo","lon":100.83000183105469,"ranking":71,"id":1038609,"member_count":1,"lat":13.569999694824219},{"zip":"meetup106","country":"th","localized_country_name":"Thailand","distance":6265.611731046119,"city":"Sankamphaeng","lon":99.12000274658203,"ranking":72,"id":1038610,"member_count":1,"lat":18.739999771118164},{"zip":"meetup113","country":"th","localized_country_name":"Thailand","distance":6032.414970596749,"city":"Kumphawapi","lon":102.97000122070312,"ranking":73,"id":1038617,"member_count":1,"lat":17.1299991607666},{"zip":"meetup114","country":"th","localized_country_name":"Thailand","distance":6033.848359063912,"city":"Ban Chang","lon":101.06999969482422,"ranking":74,"id":1038618,"member_count":1,"lat":12.720000267028809},{"zip":"meetup120","country":"th","localized_country_name":"Thailand","distance":6108.584084803414,"city":"Ranong","lon":98.62999725341797,"ranking":75,"id":1038624,"member_count":1,"lat":9.970000267028809},{"zip":"meetup128","country":"th","localized_country_name":"Thailand","distance":6019.983392470466,"city":"Chok Chai","lon":102.16999816894531,"ranking":76,"id":1038632,"member_count":1,"lat":14.729999542236328},{"zip":"meetup131","country":"th","localized_country_name":"Thailand","distance":6119.185116356679,"city":"Sing Buri","lon":100.4000015258789,"ranking":77,"id":1038635,"member_count":1,"lat":14.890000343322754},{"zip":"meetup142","country":"th","localized_country_name":"Thailand","distance":6045.092058285165,"city":"Ban Bung","lon":101,"ranking":78,"id":1038646,"member_count":1,"lat":13.039999961853027},{"zip":"meetup148","country":"th","localized_country_name":"Thailand","distance":5982.1905301429915,"city":"Kamalasai","lon":103.58000183105469,"ranking":79,"id":1038652,"member_count":1,"lat":16.329999923706055},{"zip":"meetup150","country":"th","localized_country_name":"Thailand","distance":6059.3791658023365,"city":"Nakhon Nayok","lon":101.22000122070312,"ranking":80,"id":1038654,"member_count":1,"lat":14.199999809265137},{"zip":"meetup157","country":"th","localized_country_name":"Thailand","distance":6112.770708769466,"city":"Bang Len","lon":100.16999816894531,"ranking":81,"id":1038661,"member_count":1,"lat":14.020000457763672},{"zip":"meetup165","country":"th","localized_country_name":"Thailand","distance":6125.280529775813,"city":"Ban Laem","lon":99.58999633789062,"ranking":82,"id":1038669,"member_count":1,"lat":13.130000114440918},{"zip":"meetup168","country":"th","localized_country_name":"Thailand","distance":6030.895431578624,"city":"Ban Dung","lon":103.25,"ranking":83,"id":1038672,"member_count":1,"lat":17.700000762939453},{"zip":"meetup174","country":"th","localized_country_name":"Thailand","distance":6140.0394140483595,"city":"Chai Nat","lon":100.12999725341797,"ranking":84,"id":1038678,"member_count":1,"lat":15.180000305175781},{"zip":"meetup177","country":"th","localized_country_name":"Thailand","distance":6026.062661501811,"city":"Bua Yai","lon":102.41999816894531,"ranking":85,"id":1038681,"member_count":1,"lat":15.579999923706055},{"zip":"meetup188","country":"th","localized_country_name":"Thailand","distance":5977.636218761126,"city":"Aranya Prathet","lon":102.5,"ranking":86,"id":1038692,"member_count":1,"lat":13.680000305175781},{"zip":"meetup206","country":"th","localized_country_name":"Thailand","distance":6122.837730831999,"city":"Chon Daen","lon":100.8499984741211,"ranking":87,"id":1038710,"member_count":1,"lat":16.18000030517578},{"zip":"meetup207","country":"th","localized_country_name":"Thailand","distance":6144.682289512461,"city":"Bang Mun Nak","lon":100.37999725341797,"ranking":88,"id":1038711,"member_count":1,"lat":16.030000686645508},{"zip":"meetup208","country":"th","localized_country_name":"Thailand","distance":6014.839394936602,"city":"Sawang Daen Din","lon":103.45999908447266,"ranking":89,"id":1038712,"member_count":1,"lat":17.469999313354492},{"zip":"meetup225","country":"th","localized_country_name":"Thailand","distance":6062.641511066959,"city":"Bamnet Narong","lon":101.69999694824219,"ranking":90,"id":1038729,"member_count":1,"lat":15.5},{"zip":"meetup227","country":"th","localized_country_name":"Thailand","distance":6154.892878304832,"city":"Bo Phloi","lon":99.5199966430664,"ranking":91,"id":1038731,"member_count":1,"lat":14.319999694824219},{"zip":"meetup228","country":"th","localized_country_name":"Thailand","distance":6220.587336717325,"city":"Chiang Kham","lon":100.30000305175781,"ranking":92,"id":1038732,"member_count":1,"lat":19.530000686645508},{"zip":"meetup231","country":"th","localized_country_name":"Thailand","distance":6135.425462529246,"city":"Chom Bung","lon":99.5999984741211,"ranking":93,"id":1038735,"member_count":1,"lat":13.619999885559082},{"zip":"meetup245","country":"th","localized_country_name":"Thailand","distance":6098.880435722793,"city":"Bang Sai","lon":100.5,"ranking":94,"id":1038749,"member_count":1,"lat":14.210000038146973},{"zip":"meetup246","country":"th","localized_country_name":"Thailand","distance":5949.478278554157,"city":"Bo Rai","lon":102.52999877929688,"ranking":95,"id":1038750,"member_count":1,"lat":12.569999694824219},{"zip":"meetup247","country":"th","localized_country_name":"Thailand","distance":5999.217327086046,"city":"Nong Ki","lon":102.52999877929688,"ranking":96,"id":1038751,"member_count":1,"lat":14.670000076293945},{"zip":"meetup258","country":"th","localized_country_name":"Thailand","distance":6036.090807708335,"city":"Non Thai","lon":102.06999969482422,"ranking":97,"id":1038762,"member_count":1,"lat":15.199999809265137},{"zip":"meetup11","country":"th","localized_country_name":"Thailand","distance":6091.476323868497,"city":"Pak Kret","lon":100.51000213623047,"ranking":98,"id":1038515,"member_count":1,"lat":13.899999618530273},{"zip":"meetup270","country":"th","localized_country_name":"Thailand","distance":5952.866671743126,"city":"Suwannaphum","lon":103.80999755859375,"ranking":99,"id":1038774,"member_count":1,"lat":15.600000381469727},{"zip":"meetup22","country":"th","localized_country_name":"Thailand","distance":5973.650093591475,"city":"Chanthaburi","lon":102.11000061035156,"ranking":100,"id":1038526,"member_count":1,"lat":12.609999656677246},{"zip":"meetup280","country":"th","localized_country_name":"Thailand","distance":7405.664480415168,"city":"Bacho","lon":101.6500015258789,"ranking":101,"id":1038784,"member_count":1,"lat":66.16999816894531},{"zip":"meetup30","country":"th","localized_country_name":"Thailand","distance":6096.133656670121,"city":"Samut Sakhon","lon":100.27999877929688,"ranking":102,"id":1038534,"member_count":1,"lat":13.539999961853027},{"zip":"meetup286","country":"th","localized_country_name":"Thailand","distance":6235.241555710997,"city":"Pa Daet","lon":100,"ranking":103,"id":1038790,"member_count":1,"lat":19.5},{"zip":"meetup33","country":"th","localized_country_name":"Thailand","distance":5972.312301374455,"city":"Sakhon Nakhon","lon":104.1500015258789,"ranking":104,"id":1038537,"member_count":1,"lat":17.170000076293945},{"zip":"meetup36","country":"th","localized_country_name":"Thailand","distance":6061.154082557758,"city":"Nong Khai","lon":102.73999786376953,"ranking":105,"id":1038540,"member_count":1,"lat":17.8799991607666},{"zip":"meetup293","country":"th","localized_country_name":"Thailand","distance":6065.780039277597,"city":"Ao Luk","lon":98.72000122070312,"ranking":106,"id":1038797,"member_count":1,"lat":8.380000114440918},{"zip":"meetup39","country":"th","localized_country_name":"Thailand","distance":6051.24458063015,"city":"Chaiyaphum","lon":102.04000091552734,"ranking":107,"id":1038543,"member_count":1,"lat":15.800000190734863},{"zip":"meetup40","country":"th","localized_country_name":"Thailand","distance":6192.69732928366,"city":"Uttaradit","lon":100.0999984741211,"ranking":108,"id":1038544,"member_count":1,"lat":17.6299991607666},{"zip":"meetup296","country":"th","localized_country_name":"Thailand","distance":6336.957105467287,"city":"Mae Hong Son","lon":97.93000030517578,"ranking":109,"id":1038800,"member_count":1,"lat":19.270000457763672},{"zip":"meetup43","country":"th","localized_country_name":"Thailand","distance":6147.923188857542,"city":"Kanchanaburi","lon":99.52999877929688,"ranking":110,"id":1038547,"member_count":1,"lat":14.020000457763672},{"zip":"meetup46","country":"th","localized_country_name":"Thailand","distance":6124.667295632878,"city":"Ban Pong","lon":99.87000274658203,"ranking":111,"id":1038550,"member_count":1,"lat":13.8100004196167},{"zip":"meetup47","country":"th","localized_country_name":"Thailand","distance":6003.113607762554,"city":"Klaeng","lon":101.6500015258789,"ranking":112,"id":1038551,"member_count":1,"lat":12.779999732971191},{"zip":"meetup49","country":"th","localized_country_name":"Thailand","distance":6060.315886379015,"city":"Pak Chong","lon":101.41000366210938,"ranking":113,"id":1038553,"member_count":1,"lat":14.699999809265137},{"zip":"meetup51","country":"th","localized_country_name":"Thailand","distance":5988.710283034984,"city":"Kalasin","lon":103.5,"ranking":114,"id":1038555,"member_count":1,"lat":16.43000030517578},{"zip":"meetup54","country":"th","localized_country_name":"Thailand","distance":5921.090454665226,"city":"Sadao","lon":100.43000030517578,"ranking":115,"id":1038558,"member_count":1,"lat":6.630000114440918},{"zip":"meetup60","country":"th","localized_country_name":"Thailand","distance":6096.8242472259535,"city":"Chaam","lon":99.97000122070312,"ranking":116,"id":1038564,"member_count":1,"lat":12.800000190734863},{"zip":"meetup62","country":"th","localized_country_name":"Thailand","distance":6111.560914866809,"city":"Phetchabun","lon":101.16000366210938,"ranking":117,"id":1038566,"member_count":1,"lat":16.420000076293945},{"zip":"meetup67","country":"th","localized_country_name":"Thailand","distance":6104.844055686224,"city":"Phetchaburi","lon":99.94999694824219,"ranking":118,"id":1038571,"member_count":1,"lat":13.109999656677246},{"zip":"meetup72","country":"th","localized_country_name":"Thailand","distance":6103.424985737518,"city":"Sam Phran","lon":100.22000122070312,"ranking":119,"id":1038576,"member_count":1,"lat":13.720000267028809},{"zip":"meetup75","country":"th","localized_country_name":"Thailand","distance":6049.575905671717,"city":"Tha Yang","lon":100.88999938964844,"ranking":120,"id":1038579,"member_count":1,"lat":12.970000267028809},{"zip":"meetup76","country":"th","localized_country_name":"Thailand","distance":6198.484853258579,"city":"Sukhothai","lon":99.75,"ranking":121,"id":1038580,"member_count":1,"lat":17.010000228881836},{"zip":"meetup79","country":"th","localized_country_name":"Thailand","distance":5971.948277254686,"city":"Roi Et","lon":103.6500015258789,"ranking":122,"id":1038583,"member_count":1,"lat":16.049999237060547},{"zip":"meetup86","country":"th","localized_country_name":"Thailand","distance":6154.924269395469,"city":"Phichit","lon":100.3499984741211,"ranking":123,"id":1038590,"member_count":1,"lat":16.440000534057617},{"zip":"meetup92","country":"th","localized_country_name":"Thailand","distance":6104.7885012794795,"city":"Loei","lon":101.7300033569336,"ranking":124,"id":1038596,"member_count":0,"lat":17.489999771118164},{"zip":"meetup93","country":"th","localized_country_name":"Thailand","distance":6271.336330299089,"city":"Sansai","lon":99.05000305175781,"ranking":125,"id":1038597,"member_count":0,"lat":18.850000381469727},{"zip":"meetup95","country":"th","localized_country_name":"Thailand","distance":5868.888260797935,"city":"Det Udom","lon":105.08000183105469,"ranking":126,"id":1038599,"member_count":0,"lat":14.90999984741211},{"zip":"meetup97","country":"th","localized_country_name":"Thailand","distance":6069.321477305628,"city":"Bang Sao Thong","lon":100.81999969482422,"ranking":127,"id":1038601,"member_count":0,"lat":13.670000076293945},{"zip":"meetup98","country":"th","localized_country_name":"Thailand","distance":12341.796479597713,"city":"Phra Samut Judee","lon":0,"ranking":128,"id":1038602,"member_count":0,"lat":0},{"zip":"meetup100","country":"th","localized_country_name":"Thailand","distance":6077.471444782952,"city":"Na Klang","lon":102.18000030517578,"ranking":129,"id":1038604,"member_count":0,"lat":17.309999465942383},{"zip":"meetup101","country":"th","localized_country_name":"Thailand","distance":6254.496561853783,"city":"Mae Chan","lon":99.87000274658203,"ranking":130,"id":1038605,"member_count":0,"lat":20.149999618530273},{"zip":"meetup103","country":"th","localized_country_name":"Thailand","distance":6047.100793641335,"city":"Sikhiu","lon":101.7300033569336,"ranking":131,"id":1038607,"member_count":0,"lat":14.880000114440918},{"zip":"meetup104","country":"th","localized_country_name":"Thailand","distance":6001.014479848195,"city":"Thung Song","lon":99.7300033569336,"ranking":132,"id":1038608,"member_count":0,"lat":8.149999618530273},{"zip":"meetup107","country":"th","localized_country_name":"Thailand","distance":5871.956031656391,"city":"Yaring","lon":101.37000274658203,"ranking":133,"id":1038611,"member_count":0,"lat":6.869999885559082},{"zip":"meetup109","country":"th","localized_country_name":"Thailand","distance":6045.804084113679,"city":"Kaeng Khlo","lon":102.2699966430664,"ranking":134,"id":1038613,"member_count":0,"lat":16.100000381469727},{"zip":"meetup110","country":"th","localized_country_name":"Thailand","distance":6118.958248902601,"city":"Bang Phae","lon":99.93000030517578,"ranking":135,"id":1038614,"member_count":0,"lat":13.699999809265137},{"zip":"meetup111","country":"th","localized_country_name":"Thailand","distance":5993.995890624568,"city":"Ron Phibun","lon":99.8499984741211,"ranking":136,"id":1038615,"member_count":0,"lat":8.149999618530273},{"zip":"meetup112","country":"th","localized_country_name":"Thailand","distance":6076.385155696753,"city":"Kathu","lon":98.3499984741211,"ranking":137,"id":1038616,"member_count":0,"lat":7.920000076293945},{"zip":"meetup115","country":"th","localized_country_name":"Thailand","distance":6047.265703491472,"city":"Prachin Buri","lon":101.37999725341797,"ranking":138,"id":1038619,"member_count":0,"lat":14.050000190734863},{"zip":"meetup116","country":"th","localized_country_name":"Thailand","distance":6080.06633064891,"city":"Kaeng Khoi","lon":101,"ranking":139,"id":1038620,"member_count":0,"lat":14.59000015258789},{"zip":"meetup117","country":"th","localized_country_name":"Thailand","distance":5977.96367990893,"city":"Pak Phanang","lon":100.20999908447266,"ranking":140,"id":1038621,"member_count":0,"lat":8.350000381469727},{"zip":"meetup119","country":"th","localized_country_name":"Thailand","distance":6056.720401797157,"city":"Bang Pakong","lon":101,"ranking":141,"id":1038623,"member_count":0,"lat":13.550000190734863},{"zip":"meetup122","country":"th","localized_country_name":"Thailand","distance":6086.544804910703,"city":"Chai Badan","lon":101.12999725341797,"ranking":142,"id":1038626,"member_count":0,"lat":15.199999809265137},{"zip":"meetup123","country":"th","localized_country_name":"Thailand","distance":5860.55930677214,"city":"Betong","lon":101.06999969482422,"ranking":143,"id":1038627,"member_count":0,"lat":5.78000020980835},{"zip":"meetup124","country":"th","localized_country_name":"Thailand","distance":6229.76370649554,"city":"Dok Kham Tai","lon":99.9800033569336,"ranking":144,"id":1038628,"member_count":0,"lat":19.170000076293945},{"zip":"meetup125","country":"th","localized_country_name":"Thailand","distance":6032.970465441759,"city":"Nong Han","lon":103.05999755859375,"ranking":145,"id":1038629,"member_count":0,"lat":17.360000610351562},{"zip":"meetup127","country":"th","localized_country_name":"Thailand","distance":6207.753060549079,"city":"Si Satchanalai","lon":99.7699966430664,"ranking":146,"id":1038631,"member_count":0,"lat":17.520000457763672},{"zip":"meetup129","country":"th","localized_country_name":"Thailand","distance":6021.956588730514,"city":"Pak Thong Chai","lon":102.01000213623047,"ranking":147,"id":1038633,"member_count":0,"lat":14.4399995803833},{"zip":"meetup130","country":"th","localized_country_name":"Thailand","distance":6053.35076441386,"city":"Phun Phin","lon":99.2300033569336,"ranking":148,"id":1038634,"member_count":0,"lat":9.100000381469727},{"zip":"meetup132","country":"th","localized_country_name":"Thailand","distance":5939.497273991912,"city":"Yasothon","lon":104.1500015258789,"ranking":149,"id":1038636,"member_count":0,"lat":15.789999961853027},{"zip":"meetup133","country":"th","localized_country_name":"Thailand","distance":6281.629465153075,"city":"Maetaeng","lon":98.94999694824219,"ranking":150,"id":1038637,"member_count":0,"lat":19.1200008392334},{"zip":"meetup135","country":"th","localized_country_name":"Thailand","distance":6059.674320209459,"city":"Kut Chap","lon":102.56999969482422,"ranking":151,"id":1038639,"member_count":0,"lat":17.420000076293945},{"zip":"meetup136","country":"th","localized_country_name":"Thailand","distance":6141.346392846629,"city":"Tha Muang","lon":99.62999725341797,"ranking":152,"id":1038640,"member_count":0,"lat":13.970000267028809},{"zip":"meetup137","country":"th","localized_country_name":"Thailand","distance":6228.708185057518,"city":"Tak","lon":99.12999725341797,"ranking":153,"id":1038641,"member_count":0,"lat":16.8799991607666},{"zip":"meetup138","country":"th","localized_country_name":"Thailand","distance":6181.485361326488,"city":"Nan","lon":100.7699966430664,"ranking":154,"id":1038642,"member_count":0,"lat":18.780000686645508},{"zip":"meetup139","country":"th","localized_country_name":"Thailand","distance":6115.008825861377,"city":"Damnoen Saduak","lon":99.93000030517578,"ranking":155,"id":1038643,"member_count":0,"lat":13.520000457763672},{"zip":"meetup143","country":"th","localized_country_name":"Thailand","distance":6106.760062532787,"city":"Se Na","lon":100.4000015258789,"ranking":156,"id":1038647,"member_count":0,"lat":14.319999694824219},{"zip":"meetup145","country":"th","localized_country_name":"Thailand","distance":5983.761348449781,"city":"Nang Rong","lon":102.80000305175781,"ranking":157,"id":1038649,"member_count":0,"lat":14.630000114440918},{"zip":"meetup146","country":"th","localized_country_name":"Thailand","distance":5991.27460407385,"city":"Lamplai Mat","lon":102.83000183105469,"ranking":158,"id":1038650,"member_count":0,"lat":15.020000457763672},{"zip":"meetup149","country":"th","localized_country_name":"Thailand","distance":6196.764190130854,"city":"Laplae","lon":100.02999877929688,"ranking":159,"id":1038653,"member_count":0,"lat":17.649999618530273},{"zip":"meetup151","country":"th","localized_country_name":"Thailand","distance":6122.082550772793,"city":"Song Phi Nong","lon":100.04000091552734,"ranking":160,"id":1038655,"member_count":0,"lat":14.119999885559082},{"zip":"meetup152","country":"th","localized_country_name":"Thailand","distance":6022.648437017221,"city":"Nong Wua So","lon":103.22000122070312,"ranking":161,"id":1038656,"member_count":0,"lat":17.270000457763672},{"zip":"meetup153","country":"th","localized_country_name":"Thailand","distance":5978.866777672719,"city":"Tha Mai","lon":102.0199966430664,"ranking":162,"id":1038657,"member_count":0,"lat":12.619999885559082},{"zip":"meetup154","country":"th","localized_country_name":"Thailand","distance":11726.51246366785,"city":"Ban Na San","lon":9.369999885559082,"ranking":163,"id":1038658,"member_count":0,"lat":8.800000190734863},{"zip":"meetup155","country":"th","localized_country_name":"Thailand","distance":5956.933530511969,"city":"Ranot","lon":100.31999969482422,"ranking":164,"id":1038659,"member_count":0,"lat":7.769999980926514},{"zip":"meetup156","country":"th","localized_country_name":"Thailand","distance":6094.951870558085,"city":"Bang Pa In","lon":100.58000183105469,"ranking":165,"id":1038660,"member_count":0,"lat":14.229999542236328},{"zip":"meetup158","country":"th","localized_country_name":"Thailand","distance":6010.830436892482,"city":"Khon Buri","lon":102.25,"ranking":166,"id":1038662,"member_count":0,"lat":14.520000457763672},{"zip":"meetup159","country":"th","localized_country_name":"Thailand","distance":6024.928499104522,"city":"Non Sung","lon":102.2699966430664,"ranking":167,"id":1038663,"member_count":0,"lat":15.180000305175781},{"zip":"meetup160","country":"th","localized_country_name":"Thailand","distance":6111.241649422349,"city":"Phak Hai","lon":100.37000274658203,"ranking":168,"id":1038664,"member_count":0,"lat":14.449999809265137},{"zip":"meetup161","country":"th","localized_country_name":"Thailand","distance":6149.695452024967,"city":"Uthai Thani","lon":100.02999877929688,"ranking":169,"id":1038665,"member_count":0,"lat":15.380000114440918},{"zip":"meetup162","country":"th","localized_country_name":"Thailand","distance":6202.400647822841,"city":"Den Chai","lon":100.05000305175781,"ranking":170,"id":1038666,"member_count":0,"lat":17.979999542236328},{"zip":"meetup163","country":"th","localized_country_name":"Thailand","distance":6094.283126459178,"city":"Tha Rua","lon":100.7300033569336,"ranking":171,"id":1038667,"member_count":0,"lat":14.569999694824219},{"zip":"meetup164","country":"th","localized_country_name":"Thailand","distance":6200.357060260816,"city":"Sawankhalok","lon":99.83000183105469,"ranking":172,"id":1038668,"member_count":0,"lat":17.309999465942383},{"zip":"meetup166","country":"th","localized_country_name":"Thailand","distance":6238.74596142394,"city":"Thoen","lon":99.20999908447266,"ranking":173,"id":1038670,"member_count":0,"lat":17.600000381469727},{"zip":"meetup167","country":"th","localized_country_name":"Thailand","distance":5961.330675955864,"city":"Kuchinarai","lon":104.06999969482422,"ranking":174,"id":1038671,"member_count":0,"lat":16.530000686645508},{"zip":"meetup169","country":"th","localized_country_name":"Thailand","distance":6044.548873367127,"city":"Phanat Nikhom","lon":101.18000030517578,"ranking":175,"id":1038673,"member_count":0,"lat":13.449999809265137},{"zip":"meetup171","country":"th","localized_country_name":"Thailand","distance":6087.055103178641,"city":"Nam Som","lon":102.19000244140625,"ranking":176,"id":1038675,"member_count":0,"lat":17.770000457763672},{"zip":"meetup172","country":"th","localized_country_name":"Thailand","distance":6123.305507808257,"city":"Bang Racham","lon":100.31999969482422,"ranking":177,"id":1038676,"member_count":0,"lat":14.880000114440918},{"zip":"meetup173","country":"th","localized_country_name":"Thailand","distance":6078.749632828825,"city":"Suwan Khuha","lon":102.2699966430664,"ranking":178,"id":1038677,"member_count":0,"lat":17.579999923706055},{"zip":"meetup178","country":"th","localized_country_name":"Thailand","distance":6169.863940452491,"city":"Lat Yao","lon":99.80000305175781,"ranking":179,"id":1038682,"member_count":0,"lat":15.75},{"zip":"meetup179","country":"th","localized_country_name":"Thailand","distance":5997.491143858731,"city":"Huai Yot","lon":99.62000274658203,"ranking":180,"id":1038683,"member_count":0,"lat":7.75},{"zip":"meetup180","country":"th","localized_country_name":"Thailand","distance":6172.778366507384,"city":"Khanu Woralaksaburi","lon":99.87000274658203,"ranking":181,"id":1038684,"member_count":0,"lat":16.06999969482422},{"zip":"meetup182","country":"th","localized_country_name":"Thailand","distance":6115.166570628369,"city":"Wiset Chai Chan","lon":100.3499984741211,"ranking":182,"id":1038686,"member_count":0,"lat":14.579999923706055},{"zip":"meetup183","country":"th","localized_country_name":"Thailand","distance":6114.157000865979,"city":"Khao Yoi","lon":99.83000183105469,"ranking":183,"id":1038687,"member_count":0,"lat":13.229999542236328},{"zip":"meetup184","country":"th","localized_country_name":"Thailand","distance":6059.245432961225,"city":"Phu Khieo","lon":102.12999725341797,"ranking":184,"id":1038688,"member_count":0,"lat":16.3700008392334},{"zip":"meetup185","country":"th","localized_country_name":"Thailand","distance":6088.3620195496105,"city":"Sam Roi Yot","lon":99.87999725341797,"ranking":185,"id":1038689,"member_count":0,"lat":12.199999809265137},{"zip":"meetup186","country":"th","localized_country_name":"Thailand","distance":6040.860866480933,"city":"Kanchanadit","lon":99.47000122070312,"ranking":186,"id":1038690,"member_count":0,"lat":9.15999984741211},{"zip":"meetup187","country":"th","localized_country_name":"Thailand","distance":6066.7359765418405,"city":"Kaset Sombun","lon":101.94999694824219,"ranking":187,"id":1038691,"member_count":0,"lat":16.280000686645508},{"zip":"meetup190","country":"th","localized_country_name":"Thailand","distance":6262.892210566167,"city":"Mae Ramat","lon":98.5199966430664,"ranking":188,"id":1038694,"member_count":0,"lat":16.969999313354492},{"zip":"meetup191","country":"th","localized_country_name":"Thailand","distance":6000.335826416928,"city":"Seka","lon":103.94999694824219,"ranking":189,"id":1038695,"member_count":0,"lat":17.93000030517578},{"zip":"meetup192","country":"th","localized_country_name":"Thailand","distance":5955.731527660657,"city":"Selaphum","lon":103.94999694824219,"ranking":190,"id":1038696,"member_count":0,"lat":16.030000686645508},{"zip":"meetup194","country":"th","localized_country_name":"Thailand","distance":6160.300471945727,"city":"Bang Krathum","lon":100.30000305175781,"ranking":191,"id":1038698,"member_count":0,"lat":16.56999969482422},{"zip":"meetup195","country":"th","localized_country_name":"Thailand","distance":6050.248674333952,"city":"Dan Khun Thot","lon":101.80999755859375,"ranking":192,"id":1038699,"member_count":0,"lat":15.210000038146973},{"zip":"meetup196","country":"th","localized_country_name":"Thailand","distance":6085.5255818566575,"city":"Kui Buri","lon":99.87000274658203,"ranking":193,"id":1038700,"member_count":0,"lat":12.050000190734863},{"zip":"meetup197","country":"th","localized_country_name":"Thailand","distance":6042.073615071689,"city":"Phanom Sarakham","lon":101.3499984741211,"ranking":194,"id":1038701,"member_count":0,"lat":13.75},{"zip":"meetup198","country":"th","localized_country_name":"Thailand","distance":5815.8025870860665,"city":"Tak Bai","lon":102.05000305175781,"ranking":195,"id":1038702,"member_count":0,"lat":6.269999980926514},{"zip":"meetup199","country":"th","localized_country_name":"Thailand","distance":5999.905697890689,"city":"Huai Thalaeng","lon":102.66000366210938,"ranking":196,"id":1038703,"member_count":0,"lat":15},{"zip":"meetup200","country":"th","localized_country_name":"Thailand","distance":6028.124646688088,"city":"Nam Phong","lon":102.83000183105469,"ranking":197,"id":1038704,"member_count":0,"lat":16.6200008392334},{"zip":"meetup201","country":"th","localized_country_name":"Thailand","distance":6275.003260301216,"city":"Hangdong","lon":98.91999816894531,"ranking":198,"id":1038705,"member_count":0,"lat":18.690000534057617},{"zip":"meetup202","country":"th","localized_country_name":"Thailand","distance":6275.222423518052,"city":"Sanpatong","lon":98.88999938964844,"ranking":199,"id":1038706,"member_count":0,"lat":18.6200008392334}],"meta":{"next":"http:\/\/api.meetup.com\/2\/cities?country=th&offset=1&sign=True&format=json&photo-host=public&page=200&radius=50&order=size&desc=false","method":"Cities","total_count":297,"link":"http:\/\/api.meetup.com\/2\/cities","count":200,"description":"Returns Meetup cities. This method supports search by latitude\/longitude\/radius, by country\/state, by query term\/zip, or a combination of all of these. Location-only searches by lat and lon return all cities within a radius of the provided coordinates. Searches with a query return up to 10 cities matching the term, and can be sorted by size or distance to a given coordinate. 'smart' ordering can be used to return the match(es) with the highest member_count, unless a smaller size match exists nearby the given coordinates. Query searches are supported for country but not country and state","lon":"None","title":"Cities","url":"http:\/\/api.meetup.com\/2\/cities?country=th&offset=0&sign=True&format=json&photo-host=public&page=200&radius=50&order=size&desc=false","id":"","updated":1466776468000,"lat":"None"}}
