{"results":[{"zip":"meetup4","country":"to","localized_country_name":"Tonga","distance":1262.346476800396,"city":"Haveloloto","lon":-175.22000122070312,"ranking":0,"id":1039151,"member_count":5,"lat":-21.149999618530273},{"zip":"meetup1","country":"to","localized_country_name":"Tonga","distance":1262.9626549275413,"city":"Nuku'alofa","lon":-175.22000122070312,"ranking":1,"id":1039148,"member_count":4,"lat":-21.139999389648438},{"zip":"meetup3","country":"to","localized_country_name":"Tonga","distance":1457.892063604639,"city":"Neiafu","lon":-173.99000549316406,"ranking":2,"id":1039150,"member_count":4,"lat":-18.639999389648438},{"zip":"meetup5","country":"to","localized_country_name":"Tonga","distance":1259.9274286188793,"city":"Vaini","lon":-175.1999969482422,"ranking":3,"id":1039152,"member_count":2,"lat":-21.200000762939453},{"zip":"meetup6","country":"to","localized_country_name":"Tonga","distance":1260.7848907288255,"city":"Tofoa-Koloua","lon":-175.22999572753906,"ranking":4,"id":1039153,"member_count":2,"lat":-21.170000076293945},{"zip":"meetup7","country":"to","localized_country_name":"Tonga","distance":1373.4148173734386,"city":"Pangai","lon":-174.36000061035156,"ranking":5,"id":1039154,"member_count":2,"lat":-19.809999465942383},{"zip":"meetup9","country":"to","localized_country_name":"Tonga","distance":1631.819327998586,"city":"Hihifo","lon":-173.75999450683594,"ranking":6,"id":1039156,"member_count":2,"lat":-15.970000267028809},{"zip":"meetup2","country":"to","localized_country_name":"Tonga","distance":1262.9122884526817,"city":"Mu'a","lon":-175.11000061035156,"ranking":7,"id":1039149,"member_count":1,"lat":-21.200000762939453},{"zip":"meetup8","country":"to","localized_country_name":"Tonga","distance":1259.6974693538727,"city":"Ohonua","lon":-174.9499969482422,"ranking":8,"id":1039155,"member_count":1,"lat":-21.34000015258789}],"meta":{"next":"","method":"Cities","total_count":9,"link":"http:\/\/api.meetup.com\/2\/cities","count":9,"description":"Returns Meetup cities. This method supports search by latitude\/longitude\/radius, by country\/state, by query term\/zip, or a combination of all of these. Location-only searches by lat and lon return all cities within a radius of the provided coordinates. Searches with a query return up to 10 cities matching the term, and can be sorted by size or distance to a given coordinate. 'smart' ordering can be used to return the match(es) with the highest member_count, unless a smaller size match exists nearby the given coordinates. Query searches are supported for country but not country and state","lon":"None","title":"Cities","url":"http:\/\/api.meetup.com\/2\/cities?country=to&offset=0&sign=True&format=json&photo-host=public&page=200&radius=50&order=size&desc=false","id":"","updated":1251864867000,"lat":"None"}}
