{"results":[{"zip":"meetup1","country":"ug","localized_country_name":"Uganda","distance":10155.010081552091,"city":"Kampala","lon":32.58000183105469,"ranking":0,"id":1040032,"member_count":373,"lat":0.3199999928474426},{"zip":"meetup33","country":"ug","localized_country_name":"Uganda","distance":10246.684684548833,"city":"Adjumani","lon":31.790000915527344,"ranking":1,"id":1040064,"member_count":44,"lat":3.380000114440918},{"zip":"meetup4","country":"ug","localized_country_name":"Uganda","distance":10115.545207885994,"city":"Jinja","lon":33.20000076293945,"ranking":2,"id":1040035,"member_count":23,"lat":0.4399999976158142},{"zip":"meetup11","country":"ug","localized_country_name":"Uganda","distance":10143.638346211737,"city":"Mukono","lon":32.7599983215332,"ranking":3,"id":1040042,"member_count":12,"lat":0.36000001430511475},{"zip":"meetup8","country":"ug","localized_country_name":"Uganda","distance":10158.650386320227,"city":"Entebbe","lon":32.459999084472656,"ranking":4,"id":1040039,"member_count":11,"lat":0.05999999865889549},{"zip":"meetup6","country":"ug","localized_country_name":"Uganda","distance":10268.01896688618,"city":"Mbarara","lon":30.649999618530273,"ranking":5,"id":1040037,"member_count":7,"lat":-0.6000000238418579},{"zip":"meetup20","country":"ug","localized_country_name":"Uganda","distance":10191.757164639588,"city":"Mityana","lon":32.04999923706055,"ranking":6,"id":1040051,"member_count":7,"lat":0.4000000059604645},{"zip":"meetup39","country":"ug","localized_country_name":"Uganda","distance":10164.674079607317,"city":"Wakiso","lon":32.459999084472656,"ranking":7,"id":1040070,"member_count":7,"lat":0.41999998688697815},{"zip":"meetup5","country":"ug","localized_country_name":"Uganda","distance":10060.934054939955,"city":"Mbale","lon":34.16999816894531,"ranking":8,"id":1040036,"member_count":5,"lat":1.090000033378601},{"zip":"meetup7","country":"ug","localized_country_name":"Uganda","distance":10200.63173671418,"city":"Masaka","lon":31.729999542236328,"ranking":9,"id":1040038,"member_count":5,"lat":-0.33000001311302185},{"zip":"meetup21","country":"ug","localized_country_name":"Uganda","distance":10254.745078897276,"city":"Hoima","lon":31.34000015258789,"ranking":10,"id":1040052,"member_count":5,"lat":1.440000057220459},{"zip":"meetup2","country":"ug","localized_country_name":"Uganda","distance":10208.286532735005,"city":"Gulu","lon":32.279998779296875,"ranking":11,"id":1040033,"member_count":4,"lat":2.7799999713897705},{"zip":"meetup16","country":"ug","localized_country_name":"Uganda","distance":10107.67761314423,"city":"Soroti","lon":33.599998474121094,"ranking":12,"id":1040047,"member_count":4,"lat":1.7100000381469727},{"zip":"meetup17","country":"ug","localized_country_name":"Uganda","distance":10315.059859499223,"city":"Fort Portal","lon":30.270000457763672,"ranking":13,"id":1040048,"member_count":3,"lat":0.6700000166893005},{"zip":"meetup18","country":"ug","localized_country_name":"Uganda","distance":10100.412236734788,"city":"Iganga","lon":33.470001220703125,"ranking":14,"id":1040049,"member_count":3,"lat":0.6200000047683716},{"zip":"meetup47","country":"ug","localized_country_name":"Uganda","distance":10296.168718119912,"city":"Kamwenge","lon":30.440000534057617,"ranking":15,"id":1040078,"member_count":3,"lat":0.20000000298023224},{"zip":"meetup62","country":"ug","localized_country_name":"Uganda","distance":10182.572457668628,"city":"Apac","lon":32.529998779296875,"ranking":16,"id":1040093,"member_count":3,"lat":1.9900000095367432},{"zip":"meetup79","country":"ug","localized_country_name":"Uganda","distance":10155.01253854197,"city":"Kajansi","lon":32.54999923706055,"ranking":17,"id":1040110,"member_count":3,"lat":0.20000000298023224},{"zip":"meetup3","country":"ug","localized_country_name":"Uganda","distance":10161.88653620271,"city":"La Lira","lon":32.88999938964844,"ranking":18,"id":1040034,"member_count":2,"lat":2.259999990463257},{"zip":"meetup9","country":"ug","localized_country_name":"Uganda","distance":10325.281382167208,"city":"Kasese","lon":30.010000228881836,"ranking":19,"id":1040040,"member_count":2,"lat":0.2199999988079071},{"zip":"meetup34","country":"ug","localized_country_name":"Uganda","distance":10140.571259553957,"city":"Kayunga","lon":32.88999938964844,"ranking":20,"id":1040065,"member_count":2,"lat":0.7099999785423279},{"zip":"meetup41","country":"ug","localized_country_name":"Uganda","distance":10240.261924624578,"city":"Mubende","lon":31.3700008392334,"ranking":21,"id":1040072,"member_count":2,"lat":0.5899999737739563},{"zip":"meetup43","country":"ug","localized_country_name":"Uganda","distance":10291.905232254743,"city":"Kyenjojo","lon":30.600000381469727,"ranking":22,"id":1040074,"member_count":2,"lat":0.6000000238418579},{"zip":"meetup55","country":"ug","localized_country_name":"Uganda","distance":10320.651587386757,"city":"Kanungu","lon":29.780000686645508,"ranking":23,"id":1040086,"member_count":2,"lat":-0.8999999761581421},{"zip":"meetup63","country":"ug","localized_country_name":"Uganda","distance":10158.168115500463,"city":"Jinja-Kawempe","lon":32.54999923706055,"ranking":24,"id":1040094,"member_count":2,"lat":0.38999998569488525},{"zip":"meetup65","country":"ug","localized_country_name":"Uganda","distance":10152.872213452023,"city":"Pader","lon":33.119998931884766,"ranking":25,"id":1040096,"member_count":2,"lat":2.819999933242798},{"zip":"meetup12","country":"ug","localized_country_name":"Uganda","distance":10302.464759001172,"city":"Arua","lon":30.899999618530273,"ranking":26,"id":1040043,"member_count":1,"lat":3.0199999809265137},{"zip":"meetup14","country":"ug","localized_country_name":"Uganda","distance":10174.259050459976,"city":"Kitgum","lon":32.869998931884766,"ranking":27,"id":1040045,"member_count":1,"lat":3.299999952316284},{"zip":"meetup15","country":"ug","localized_country_name":"Uganda","distance":10055.101393145502,"city":"Tororo","lon":34.16999816894531,"ranking":28,"id":1040046,"member_count":1,"lat":0.7099999785423279},{"zip":"meetup19","country":"ug","localized_country_name":"Uganda","distance":10061.760686075771,"city":"Busia","lon":34.0099983215332,"ranking":29,"id":1040050,"member_count":1,"lat":0.46000000834465027},{"zip":"meetup22","country":"ug","localized_country_name":"Uganda","distance":10132.604950565243,"city":"Lugazi","lon":32.93000030517578,"ranking":30,"id":1040053,"member_count":1,"lat":0.3799999952316284},{"zip":"meetup27","country":"ug","localized_country_name":"Uganda","distance":10170.116619310736,"city":"Luwero","lon":32.47999954223633,"ranking":31,"id":1040058,"member_count":1,"lat":0.8500000238418579},{"zip":"meetup28","country":"ug","localized_country_name":"Uganda","distance":10284.89914427274,"city":"Nebbi","lon":31.079999923706055,"ranking":32,"id":1040059,"member_count":1,"lat":2.4800000190734863},{"zip":"meetup30","country":"ug","localized_country_name":"Uganda","distance":10300.626083721825,"city":"Bushenyi","lon":30.18000030517578,"ranking":33,"id":1040061,"member_count":1,"lat":-0.5400000214576721},{"zip":"meetup31","country":"ug","localized_country_name":"Uganda","distance":10138.974919551902,"city":"Kaberamaido","lon":33.150001525878906,"ranking":34,"id":1040062,"member_count":1,"lat":1.809999942779541},{"zip":"meetup32","country":"ug","localized_country_name":"Uganda","distance":10171.143490406885,"city":"Namasuba","lon":32.43000030517578,"ranking":35,"id":1040063,"member_count":1,"lat":0.699999988079071},{"zip":"meetup35","country":"ug","localized_country_name":"Uganda","distance":10165.598078115701,"city":"Wobulenzi","lon":32.52000045776367,"ranking":36,"id":1040066,"member_count":1,"lat":0.7300000190734863},{"zip":"meetup36","country":"ug","localized_country_name":"Uganda","distance":10330.809740687895,"city":"Bugiri","lon":29.639999389648438,"ranking":37,"id":1040067,"member_count":1,"lat":-0.8600000143051147},{"zip":"meetup37","country":"ug","localized_country_name":"Uganda","distance":10258.158058540685,"city":"Pakwach","lon":31.479999542236328,"ranking":38,"id":1040068,"member_count":1,"lat":2.4700000286102295},{"zip":"meetup40","country":"ug","localized_country_name":"Uganda","distance":10151.833002853165,"city":"Kireka","lon":32.630001068115234,"ranking":39,"id":1040071,"member_count":1,"lat":0.33000001311302185},{"zip":"meetup44","country":"ug","localized_country_name":"Uganda","distance":10283.906637887054,"city":"Yumbe","lon":31.239999771118164,"ranking":40,"id":1040075,"member_count":1,"lat":3.4600000381469727},{"zip":"meetup48","country":"ug","localized_country_name":"Uganda","distance":10120.257587950531,"city":"Buwenge","lon":33.18000030517578,"ranking":41,"id":1040079,"member_count":1,"lat":0.6499999761581421},{"zip":"meetup54","country":"ug","localized_country_name":"Uganda","distance":10162.73058962562,"city":"Bombo","lon":32.529998779296875,"ranking":42,"id":1040085,"member_count":1,"lat":0.5899999737739563},{"zip":"meetup58","country":"ug","localized_country_name":"Uganda","distance":10129.567014769782,"city":"Kamuli","lon":33.11000061035156,"ranking":43,"id":1040089,"member_count":1,"lat":0.949999988079071},{"zip":"meetup60","country":"ug","localized_country_name":"Uganda","distance":10319.844857765915,"city":"Kisoro","lon":29.68000030517578,"ranking":44,"id":1040091,"member_count":1,"lat":-1.2799999713897705},{"zip":"meetup61","country":"ug","localized_country_name":"Uganda","distance":10149.818764885173,"city":"Bweyogerere","lon":32.66999816894531,"ranking":45,"id":1040092,"member_count":1,"lat":0.3700000047683716},{"zip":"meetup66","country":"ug","localized_country_name":"Uganda","distance":10047.980533198168,"city":"Malaba","lon":34.2599983215332,"ranking":46,"id":1040097,"member_count":1,"lat":0.6399999856948853},{"zip":"meetup70","country":"ug","localized_country_name":"Uganda","distance":10083.360322307366,"city":"Kumi","lon":33.91999816894531,"ranking":47,"id":1040101,"member_count":1,"lat":1.4900000095367432},{"zip":"meetup73","country":"ug","localized_country_name":"Uganda","distance":10238.202240402825,"city":"Lyantonde","lon":31.149999618530273,"ranking":48,"id":1040104,"member_count":1,"lat":-0.4000000059604645},{"zip":"meetup77","country":"ug","localized_country_name":"Uganda","distance":10325.620445879684,"city":"Kilembe","lon":30,"ranking":49,"id":1040108,"member_count":1,"lat":0.20000000298023224},{"zip":"meetup78","country":"ug","localized_country_name":"Uganda","distance":10093.379678957104,"city":"Kaabong","lon":34.119998931884766,"ranking":50,"id":1040109,"member_count":1,"lat":3.5199999809265137},{"zip":"meetup80","country":"ug","localized_country_name":"Uganda","distance":10179.151520204296,"city":"Nakasongola","lon":32.45000076293945,"ranking":51,"id":1040111,"member_count":1,"lat":1.3300000429153442},{"zip":"meetup81","country":"ug","localized_country_name":"Uganda","distance":10215.508952404925,"city":"Rakai","lon":31.399999618530273,"ranking":52,"id":1040112,"member_count":1,"lat":-0.7200000286102295},{"zip":"meetup84","country":"ug","localized_country_name":"Uganda","distance":10265.049719122606,"city":"Kibaale","lon":31.049999237060547,"ranking":53,"id":1040115,"member_count":1,"lat":0.8100000023841858},{"zip":"meetup86","country":"ug","localized_country_name":"Uganda","distance":10163.994121718688,"city":"Kalangala","lon":32.279998779296875,"ranking":54,"id":1040117,"member_count":1,"lat":-0.3199999928474426},{"zip":"meetup87","country":"ug","localized_country_name":"Uganda","distance":10283.851363952861,"city":"Kagadi","lon":30.799999237060547,"ranking":55,"id":1040118,"member_count":1,"lat":0.949999988079071},{"zip":"meetup10","country":"ug","localized_country_name":"Uganda","distance":10117.044810962861,"city":"Njeru","lon":33.18000030517578,"ranking":56,"id":1040041,"member_count":0,"lat":0.44999998807907104},{"zip":"meetup13","country":"ug","localized_country_name":"Uganda","distance":10300.324830012283,"city":"Kabale","lon":29.979999542236328,"ranking":57,"id":1040044,"member_count":0,"lat":-1.25},{"zip":"meetup23","country":"ug","localized_country_name":"Uganda","distance":10303.654332764832,"city":"Koboko","lon":30.940000534057617,"ranking":58,"id":1040054,"member_count":0,"lat":3.440000057220459},{"zip":"meetup24","country":"ug","localized_country_name":"Uganda","distance":10234.064797828036,"city":"Masindi","lon":31.700000762939453,"ranking":59,"id":1040055,"member_count":0,"lat":1.690000057220459},{"zip":"meetup25","country":"ug","localized_country_name":"Uganda","distance":10290.89238362616,"city":"Paidha","lon":30.979999542236328,"ranking":60,"id":1040056,"member_count":0,"lat":2.4200000762939453},{"zip":"meetup26","country":"ug","localized_country_name":"Uganda","distance":10093.46506160413,"city":"Pallisa","lon":33.70000076293945,"ranking":61,"id":1040057,"member_count":0,"lat":1.1699999570846558},{"zip":"meetup29","country":"ug","localized_country_name":"Uganda","distance":10286.71267796535,"city":"Ibanda","lon":30.5,"ranking":62,"id":1040060,"member_count":0,"lat":-0.11999999731779099},{"zip":"meetup38","country":"ug","localized_country_name":"Uganda","distance":10340.292774699941,"city":"Rukungiri","lon":29.920000076293945,"ranking":63,"id":1040069,"member_count":0,"lat":0.7900000214576721},{"zip":"meetup42","country":"ug","localized_country_name":"Uganda","distance":10283.988514198192,"city":"Kabwohe-Itendero","lon":30.420000076293945,"ranking":64,"id":1040073,"member_count":0,"lat":-0.5699999928474426},{"zip":"meetup45","country":"ug","localized_country_name":"Uganda","distance":10194.154502017953,"city":"Lukaya","lon":31.8799991607666,"ranking":65,"id":1040076,"member_count":0,"lat":-0.12999999523162842},{"zip":"meetup46","country":"ug","localized_country_name":"Uganda","distance":10330.538884476193,"city":"Bundibugyo","lon":30.049999237060547,"ranking":66,"id":1040077,"member_count":0,"lat":0.7200000286102295},{"zip":"meetup49","country":"ug","localized_country_name":"Uganda","distance":10089.099449560626,"city":"Kotido","lon":34.11000061035156,"ranking":67,"id":1040080,"member_count":0,"lat":3.009999990463257},{"zip":"meetup50","country":"ug","localized_country_name":"Uganda","distance":10330.233090946418,"city":"Ntungamo","lon":29.639999389648438,"ranking":68,"id":1040081,"member_count":0,"lat":-0.8899999856948853},{"zip":"meetup51","country":"ug","localized_country_name":"Uganda","distance":10316.553650319081,"city":"Hima","lon":30.15999984741211,"ranking":69,"id":1040082,"member_count":0,"lat":0.30000001192092896},{"zip":"meetup52","country":"ug","localized_country_name":"Uganda","distance":10093.583312179837,"city":"Busembatia","lon":33.61000061035156,"ranking":70,"id":1040083,"member_count":0,"lat":0.7799999713897705},{"zip":"meetup53","country":"ug","localized_country_name":"Uganda","distance":10253.66041905111,"city":"Moyo","lon":31.719999313354492,"ranking":71,"id":1040084,"member_count":0,"lat":3.6500000953674316},{"zip":"meetup56","country":"ug","localized_country_name":"Uganda","distance":10218.447479720466,"city":"Kiboga","lon":31.770000457763672,"ranking":72,"id":1040087,"member_count":0,"lat":0.9100000262260437},{"zip":"meetup57","country":"ug","localized_country_name":"Uganda","distance":10058.994571221441,"city":"Sironko","lon":34.22999954223633,"ranking":73,"id":1040088,"member_count":0,"lat":1.2300000190734863},{"zip":"meetup59","country":"ug","localized_country_name":"Uganda","distance":10130.779110200308,"city":"Nkonkonjeru","lon":32.91999816894531,"ranking":74,"id":1040090,"member_count":0,"lat":0.23000000417232513},{"zip":"meetup64","country":"ug","localized_country_name":"Uganda","distance":10170.059773316192,"city":"Mpigi","lon":32.33000183105469,"ranking":75,"id":1040095,"member_count":0,"lat":0.2199999988079071},{"zip":"meetup67","country":"ug","localized_country_name":"Uganda","distance":10114.192318655194,"city":"Bugembe","lon":33.22999954223633,"ranking":76,"id":1040098,"member_count":0,"lat":0.47999998927116394},{"zip":"meetup68","country":"ug","localized_country_name":"Uganda","distance":10097.32728725993,"city":"Mayuge","lon":33.47999954223633,"ranking":77,"id":1040099,"member_count":0,"lat":0.4699999988079071},{"zip":"meetup69","country":"ug","localized_country_name":"Uganda","distance":10046.914713910332,"city":"Kapchorwa","lon":34.45000076293945,"ranking":78,"id":1040100,"member_count":0,"lat":1.409999966621399},{"zip":"meetup71","country":"ug","localized_country_name":"Uganda","distance":10208.499687164476,"city":"Kyotera","lon":31.530000686645508,"ranking":79,"id":1040102,"member_count":0,"lat":-0.6299999952316284},{"zip":"meetup72","country":"ug","localized_country_name":"Uganda","distance":10048.773582859501,"city":"Moroto","lon":34.63999938964844,"ranking":80,"id":1040103,"member_count":0,"lat":2.5399999618530273},{"zip":"meetup74","country":"ug","localized_country_name":"Uganda","distance":10092.940776117608,"city":"Ngora","lon":33.77000045776367,"ranking":81,"id":1040105,"member_count":0,"lat":1.4600000381469727},{"zip":"meetup75","country":"ug","localized_country_name":"Uganda","distance":10087.24384877238,"city":"Katakwi","lon":33.95000076293945,"ranking":82,"id":1040106,"member_count":0,"lat":1.9299999475479126},{"zip":"meetup76","country":"ug","localized_country_name":"Uganda","distance":10209.522710635405,"city":"Masindi-Port","lon":32.06999969482422,"ranking":83,"id":1040107,"member_count":0,"lat":1.7000000476837158},{"zip":"meetup82","country":"ug","localized_country_name":"Uganda","distance":10325.382757725643,"city":"Katwe","lon":29.920000076293945,"ranking":84,"id":1040113,"member_count":0,"lat":-0.12999999523162842},{"zip":"meetup83","country":"ug","localized_country_name":"Uganda","distance":10259.827040057286,"city":"Kigorobya","lon":31.299999237060547,"ranking":85,"id":1040114,"member_count":0,"lat":1.6200000047683716},{"zip":"meetup85","country":"ug","localized_country_name":"Uganda","distance":10224.155937435233,"city":"Sembabule","lon":31.450000762939453,"ranking":86,"id":1040116,"member_count":0,"lat":-0.05999999865889549},{"zip":"meetup88","country":"ug","localized_country_name":"Uganda","distance":10038.139418628247,"city":"Nakapiripirit","lon":34.66999816894531,"ranking":87,"id":1040119,"member_count":0,"lat":1.840000033378601},{"zip":"meetup89","country":"ug","localized_country_name":"Uganda","distance":10285.41204111287,"city":"Muhororo","lon":30.770000457763672,"ranking":88,"id":1040120,"member_count":0,"lat":0.9200000166893005},{"zip":"meetup90","country":"ug","localized_country_name":"Uganda","distance":10022.937396338693,"city":"Amudat","lon":34.91999816894531,"ranking":89,"id":1040121,"member_count":0,"lat":1.9500000476837158}],"meta":{"next":"","method":"Cities","total_count":90,"link":"http:\/\/api.meetup.com\/2\/cities","count":90,"description":"Returns Meetup cities. This method supports search by latitude\/longitude\/radius, by country\/state, by query term\/zip, or a combination of all of these. Location-only searches by lat and lon return all cities within a radius of the provided coordinates. Searches with a query return up to 10 cities matching the term, and can be sorted by size or distance to a given coordinate. 'smart' ordering can be used to return the match(es) with the highest member_count, unless a smaller size match exists nearby the given coordinates. Query searches are supported for country but not country and state","lon":"None","title":"Cities","url":"http:\/\/api.meetup.com\/2\/cities?country=ug&offset=0&sign=True&format=json&photo-host=public&page=200&radius=50&order=size&desc=false","id":"","updated":1251864867000,"lat":"None"}}
