{"results":[{"zip":"meetup1","country":"vn","localized_country_name":"Vietnam","distance":5673.243888580284,"city":"Thanh Pho Ho Chi Minh","lon":106.69000244140625,"ranking":0,"id":1040473,"member_count":640,"lat":10.779999732971191},{"zip":"meetup2","country":"vn","localized_country_name":"Vietnam","distance":5979.868798224574,"city":"Ha Noi","lon":105.83999633789062,"ranking":1,"id":1040474,"member_count":184,"lat":21.030000686645508},{"zip":"meetup65","country":"vn","localized_country_name":"Vietnam","distance":6008.354801494018,"city":"Bac Can","lon":105.80999755859375,"ranking":2,"id":1040537,"member_count":43,"lat":22.15999984741211},{"zip":"meetup7","country":"vn","localized_country_name":"Vietnam","distance":5578.443443711599,"city":"Nha Trang","lon":109.19000244140625,"ranking":3,"id":1040479,"member_count":12,"lat":12.25},{"zip":"meetup5","country":"vn","localized_country_name":"Vietnam","distance":5670.755816921163,"city":"Bien Hoa","lon":106.81999969482422,"ranking":4,"id":1040477,"member_count":10,"lat":10.949999809265137},{"zip":"meetup3","country":"vn","localized_country_name":"Vietnam","distance":5935.493038139849,"city":"Hai Phong","lon":106.68000030517578,"ranking":5,"id":1040475,"member_count":9,"lat":20.860000610351562},{"zip":"meetup4","country":"vn","localized_country_name":"Vietnam","distance":5736.020762841839,"city":"Da Nang","lon":108.20999908447266,"ranking":6,"id":1040476,"member_count":8,"lat":16.06999969482422},{"zip":"meetup6","country":"vn","localized_country_name":"Vietnam","distance":5779.139447160032,"city":"Hue","lon":107.58000183105469,"ranking":7,"id":1040478,"member_count":6,"lat":16.479999542236328},{"zip":"meetup11","country":"vn","localized_country_name":"Vietnam","distance":5639.698526122199,"city":"Vung Tau","lon":107.08000183105469,"ranking":8,"id":1040483,"member_count":6,"lat":10.350000381469727},{"zip":"meetup8","country":"vn","localized_country_name":"Vietnam","distance":5703.29799901835,"city":"Can Tho","lon":105.77999877929688,"ranking":9,"id":1040480,"member_count":5,"lat":10.029999732971191},{"zip":"meetup13","country":"vn","localized_country_name":"Vietnam","distance":5732.645821366636,"city":"Long Xuyen","lon":105.43000030517578,"ranking":10,"id":1040485,"member_count":5,"lat":10.390000343322754},{"zip":"meetup20","country":"vn","localized_country_name":"Vietnam","distance":5610.537660686262,"city":"Da Lat","lon":108.44000244140625,"ranking":11,"id":1040492,"member_count":5,"lat":11.960000038146973},{"zip":"meetup45","country":"vn","localized_country_name":"Vietnam","distance":5981.786578256395,"city":"Ha Dong","lon":105.7699966430664,"ranking":12,"id":1040517,"member_count":5,"lat":20.969999313354492},{"zip":"meetup43","country":"vn","localized_country_name":"Vietnam","distance":5969.184867092751,"city":"Bac Giang","lon":106.19000244140625,"ranking":13,"id":1040515,"member_count":4,"lat":21.280000686645508},{"zip":"meetup47","country":"vn","localized_country_name":"Vietnam","distance":5973.67914404253,"city":"Bac Ninh","lon":106.05000305175781,"ranking":14,"id":1040519,"member_count":4,"lat":21.190000534057617},{"zip":"meetup56","country":"vn","localized_country_name":"Vietnam","distance":5724.232156578807,"city":"Hoi An","lon":108.33999633789062,"ranking":15,"id":1040528,"member_count":4,"lat":15.880000114440918},{"zip":"meetup68","country":"vn","localized_country_name":"Vietnam","distance":5812.248658795334,"city":"Dong Ha","lon":107.11000061035156,"ranking":16,"id":1040540,"member_count":4,"lat":16.829999923706055},{"zip":"meetup18","country":"vn","localized_country_name":"Vietnam","distance":5652.261548964938,"city":"Buon Me Thuot","lon":108.04000091552734,"ranking":17,"id":1040490,"member_count":3,"lat":12.680000305175781},{"zip":"meetup25","country":"vn","localized_country_name":"Vietnam","distance":5715.569708056074,"city":"Ca Mau","lon":105.1500015258789,"ranking":18,"id":1040497,"member_count":3,"lat":9.180000305175781},{"zip":"meetup28","country":"vn","localized_country_name":"Vietnam","distance":5999.872544508096,"city":"Hoa Binh","lon":105.33000183105469,"ranking":19,"id":1040500,"member_count":3,"lat":20.84000015258789},{"zip":"meetup33","country":"vn","localized_country_name":"Vietnam","distance":5596.620399597489,"city":"Tuy Hoa","lon":109.30000305175781,"ranking":20,"id":1040505,"member_count":3,"lat":13.09000015258789},{"zip":"meetup49","country":"vn","localized_country_name":"Vietnam","distance":5718.081801241788,"city":"Tay Ninh","lon":106.12999725341797,"ranking":21,"id":1040521,"member_count":3,"lat":11.289999961853027},{"zip":"meetup15","country":"vn","localized_country_name":"Vietnam","distance":5599.2806049488745,"city":"Phan Thiet","lon":108.11000061035156,"ranking":22,"id":1040487,"member_count":2,"lat":10.930000305175781},{"zip":"meetup21","country":"vn","localized_country_name":"Vietnam","distance":5679.972591736633,"city":"My Tho","lon":106.36000061035156,"ranking":23,"id":1040493,"member_count":2,"lat":10.359999656677246},{"zip":"meetup24","country":"vn","localized_country_name":"Vietnam","distance":5953.3491571290715,"city":"Thanh Hoa","lon":105.77999877929688,"ranking":24,"id":1040496,"member_count":2,"lat":19.809999465942383},{"zip":"meetup29","country":"vn","localized_country_name":"Vietnam","distance":5931.356360780032,"city":"Vinh","lon":105.66999816894531,"ranking":25,"id":1040501,"member_count":2,"lat":18.68000030517578},{"zip":"meetup41","country":"vn","localized_country_name":"Vietnam","distance":5680.959004515575,"city":"Song Be","lon":106.6500015258789,"ranking":26,"id":1040513,"member_count":2,"lat":10.979999542236328},{"zip":"meetup42","country":"vn","localized_country_name":"Vietnam","distance":5955.981546243467,"city":"Bien San","lon":105.8499984741211,"ranking":27,"id":1040514,"member_count":2,"lat":20.059999465942383},{"zip":"meetup62","country":"vn","localized_country_name":"Vietnam","distance":5912.266330362963,"city":"Ha Tinh","lon":105.9000015258789,"ranking":28,"id":1040534,"member_count":2,"lat":18.3700008392334},{"zip":"meetup10","country":"vn","localized_country_name":"Vietnam","distance":5619.106653760623,"city":"Qui Nhon","lon":109.23999786376953,"ranking":29,"id":1040482,"member_count":1,"lat":13.770000457763672},{"zip":"meetup12","country":"vn","localized_country_name":"Vietnam","distance":5949.442886985618,"city":"Nam Dinh","lon":106.16999816894531,"ranking":30,"id":1040484,"member_count":1,"lat":20.43000030517578},{"zip":"meetup17","country":"vn","localized_country_name":"Vietnam","distance":5566.761109293273,"city":"Cam Ranh","lon":109.22000122070312,"ranking":31,"id":1040489,"member_count":1,"lat":11.899999618530273},{"zip":"meetup19","country":"vn","localized_country_name":"Vietnam","distance":5991.640233472248,"city":"Thai Nguyen","lon":105.86000061035156,"ranking":32,"id":1040491,"member_count":1,"lat":21.559999465942383},{"zip":"meetup22","country":"vn","localized_country_name":"Vietnam","distance":5681.3750632256315,"city":"Soc Trang","lon":105.97000122070312,"ranking":33,"id":1040494,"member_count":1,"lat":9.619999885559082},{"zip":"meetup23","country":"vn","localized_country_name":"Vietnam","distance":5689.970340039645,"city":"Play Cu","lon":108.01000213623047,"ranking":34,"id":1040495,"member_count":1,"lat":13.989999771118164},{"zip":"meetup26","country":"vn","localized_country_name":"Vietnam","distance":5686.621666704206,"city":"Bac Lieu","lon":105.72000122070312,"ranking":35,"id":1040498,"member_count":1,"lat":9.300000190734863},{"zip":"meetup27","country":"vn","localized_country_name":"Vietnam","distance":5698.688694998966,"city":"Vinh Long","lon":105.97000122070312,"ranking":36,"id":1040499,"member_count":1,"lat":10.25},{"zip":"meetup31","country":"vn","localized_country_name":"Vietnam","distance":6042.284569217233,"city":"Yen Bai","lon":104.87000274658203,"ranking":37,"id":1040503,"member_count":1,"lat":21.709999084472656},{"zip":"meetup32","country":"vn","localized_country_name":"Vietnam","distance":6006.18359130789,"city":"Viet Tri","lon":105.43000030517578,"ranking":38,"id":1040504,"member_count":1,"lat":21.309999465942383},{"zip":"meetup37","country":"vn","localized_country_name":"Vietnam","distance":5708.1047298039075,"city":"Tam Ky","lon":108.48999786376953,"ranking":39,"id":1040509,"member_count":1,"lat":15.569999694824219},{"zip":"meetup38","country":"vn","localized_country_name":"Vietnam","distance":5955.177587483913,"city":"Hai Duong","lon":106.31999969482422,"ranking":40,"id":1040510,"member_count":1,"lat":20.959999084472656},{"zip":"meetup40","country":"vn","localized_country_name":"Vietnam","distance":5669.485989905127,"city":"Tra Vinh","lon":106.33999633789062,"ranking":41,"id":1040512,"member_count":1,"lat":9.9399995803833},{"zip":"meetup44","country":"vn","localized_country_name":"Vietnam","distance":5941.719911951355,"city":"Thai Binh","lon":106.33999633789062,"ranking":42,"id":1040516,"member_count":1,"lat":20.450000762939453},{"zip":"meetup52","country":"vn","localized_country_name":"Vietnam","distance":6103.407010693169,"city":"Lao Cai","lon":103.95999908447266,"ranking":43,"id":1040524,"member_count":1,"lat":22.5},{"zip":"meetup55","country":"vn","localized_country_name":"Vietnam","distance":5679.2538995740315,"city":"Quang Ngai","lon":108.80999755859375,"ranking":44,"id":1040527,"member_count":1,"lat":15.119999885559082},{"zip":"meetup59","country":"vn","localized_country_name":"Vietnam","distance":6028.66668268462,"city":"Tuyen Quang","lon":105.20999908447266,"ranking":45,"id":1040531,"member_count":1,"lat":21.81999969482422},{"zip":"meetup60","country":"vn","localized_country_name":"Vietnam","distance":6124.144838105113,"city":"Dien Bien","lon":103.01000213623047,"ranking":46,"id":1040532,"member_count":1,"lat":21.3700008392334},{"zip":"meetup64","country":"vn","localized_country_name":"Vietnam","distance":5681.496004859828,"city":"Dong Xoai","lon":106.91999816894531,"ranking":47,"id":1040536,"member_count":1,"lat":11.539999961853027},{"zip":"meetup9","country":"vn","localized_country_name":"Vietnam","distance":5742.294523276659,"city":"Rach Gia","lon":105.08000183105469,"ranking":48,"id":1040481,"member_count":0,"lat":10.020000457763672},{"zip":"meetup14","country":"vn","localized_country_name":"Vietnam","distance":5910.42098618354,"city":"Cam Pha","lon":107.29000091552734,"ranking":49,"id":1040486,"member_count":0,"lat":21.020000457763672},{"zip":"meetup16","country":"vn","localized_country_name":"Vietnam","distance":5919.148273484752,"city":"Hong Gai","lon":107.08000183105469,"ranking":50,"id":1040488,"member_count":0,"lat":20.969999313354492},{"zip":"meetup30","country":"vn","localized_country_name":"Vietnam","distance":5569.125247186485,"city":"Phan Rang","lon":109,"ranking":51,"id":1040502,"member_count":0,"lat":11.569999694824219},{"zip":"meetup34","country":"vn","localized_country_name":"Vietnam","distance":5935.660063239891,"city":"Uong Bi","lon":106.7699966430664,"ranking":52,"id":1040506,"member_count":0,"lat":21.040000915527344},{"zip":"meetup35","country":"vn","localized_country_name":"Vietnam","distance":5682.147330581686,"city":"Tan An","lon":106.41000366210938,"ranking":53,"id":1040507,"member_count":0,"lat":10.539999961853027},{"zip":"meetup36","country":"vn","localized_country_name":"Vietnam","distance":5759.076902884227,"city":"Chau Doc","lon":105.11000061035156,"ranking":54,"id":1040508,"member_count":0,"lat":10.710000038146973},{"zip":"meetup39","country":"vn","localized_country_name":"Vietnam","distance":5675.831071467503,"city":"Ben Tre","lon":106.37000274658203,"ranking":55,"id":1040511,"member_count":0,"lat":10.229999542236328},{"zip":"meetup46","country":"vn","localized_country_name":"Vietnam","distance":5699.5264440815,"city":"Kon Tum","lon":108.01000213623047,"ranking":56,"id":1040518,"member_count":0,"lat":14.34000015258789},{"zip":"meetup48","country":"vn","localized_country_name":"Vietnam","distance":5711.776336875801,"city":"Sa Dec","lon":105.76000213623047,"ranking":57,"id":1040520,"member_count":0,"lat":10.300000190734863},{"zip":"meetup50","country":"vn","localized_country_name":"Vietnam","distance":5961.073748006155,"city":"Huong Yen","lon":106.04000091552734,"ranking":58,"id":1040522,"member_count":0,"lat":20.649999618530273},{"zip":"meetup51","country":"vn","localized_country_name":"Vietnam","distance":5998.321981094242,"city":"Son Tay","lon":105.51000213623047,"ranking":59,"id":1040523,"member_count":0,"lat":21.139999389648438},{"zip":"meetup53","country":"vn","localized_country_name":"Vietnam","distance":5999.363554137176,"city":"Cao Bang","lon":106.2699966430664,"ranking":60,"id":1040525,"member_count":0,"lat":22.68000030517578},{"zip":"meetup54","country":"vn","localized_country_name":"Vietnam","distance":5954.264651624647,"city":"Ninh Binh","lon":105.9800033569336,"ranking":61,"id":1040526,"member_count":0,"lat":20.25},{"zip":"meetup57","country":"vn","localized_country_name":"Vietnam","distance":6063.648353880315,"city":"Ha Giang","lon":104.9800033569336,"ranking":62,"id":1040529,"member_count":0,"lat":22.860000610351562},{"zip":"meetup58","country":"vn","localized_country_name":"Vietnam","distance":5956.437738680886,"city":"Lang Son","lon":106.76000213623047,"ranking":63,"id":1040530,"member_count":0,"lat":21.860000610351562},{"zip":"meetup61","country":"vn","localized_country_name":"Vietnam","distance":5853.530008404199,"city":"Dong Hoi","lon":106.62000274658203,"ranking":64,"id":1040533,"member_count":0,"lat":17.469999313354492},{"zip":"meetup63","country":"vn","localized_country_name":"Vietnam","distance":5964.200743297216,"city":"Phu Ly","lon":105.91999816894531,"ranking":65,"id":1040535,"member_count":0,"lat":20.540000915527344},{"zip":"meetup66","country":"vn","localized_country_name":"Vietnam","distance":6080.185628441429,"city":"Son La","lon":103.9000015258789,"ranking":66,"id":1040538,"member_count":0,"lat":21.329999923706055},{"zip":"meetup67","country":"vn","localized_country_name":"Vietnam","distance":5997.815199208498,"city":"Vinh Yen","lon":105.61000061035156,"ranking":67,"id":1040539,"member_count":0,"lat":21.31999969482422}],"meta":{"next":"","method":"Cities","total_count":68,"link":"http:\/\/api.meetup.com\/2\/cities","count":68,"description":"Returns Meetup cities. This method supports search by latitude\/longitude\/radius, by country\/state, by query term\/zip, or a combination of all of these. Location-only searches by lat and lon return all cities within a radius of the provided coordinates. Searches with a query return up to 10 cities matching the term, and can be sorted by size or distance to a given coordinate. 'smart' ordering can be used to return the match(es) with the highest member_count, unless a smaller size match exists nearby the given coordinates. Query searches are supported for country but not country and state","lon":"None","title":"Cities","url":"http:\/\/api.meetup.com\/2\/cities?country=vn&offset=0&sign=True&format=json&photo-host=public&page=200&radius=50&order=size&desc=false","id":"","updated":1449169042000,"lat":"None"}}
